[
  {
    "globaleventid": 264010699,
    "sqldate": 20130821,
    "monthyear": 201308,
    "year": 2013,
    "fractiondate": "2013.6329",
    "eventcode": 130,
    "quadclass": 3,
    "nummentions": 1,
    "numsources": 1,
    "numarticles": 1,
    "avgtone": "0.0",
    "sourceurl": "http://wqad.com/2013/08/21/afscme-responds-to-iowa-prisoner-escape/",
    "feature_id": "465186",
    "feature_name": "Muscatine",
    "state_alpha": "IA",
    "county_name": "Muscatine",
    "county_numeric": "139",
    "prim_lat_dec": "41.424473",
    "prim_long_dec": "-91.0432051",
    "elev_in_m": "179",
    "elev_in_ft": "587",
    "lat": 41.424473,
    "long": -91.0432051
  },
  {
    "globaleventid": 264010698,
    "sqldate": 20130821,
    "monthyear": 201308,
    "year": 2013,
    "fractiondate": "2013.6329",
    "eventcode": 130,
    "quadclass": 3,
    "nummentions": 6,
    "numsources": 1,
    "numarticles": 6,
    "avgtone": "1.71102661596958",
    "sourceurl": "http://www.timesdispatch.com/news/vcu-police-step-up-patrols/article_6e2d9916-a4b7-5687-8fef-327cdb1ad674.html",
    "feature_id": "1499957",
    "feature_name": "Richmond",
    "state_alpha": "VA",
    "county_name": "Richmond (city)",
    "county_numeric": "760",
    "prim_lat_dec": "37.5537575",
    "prim_long_dec": "-77.4602617",
    "elev_in_m": "64",
    "elev_in_ft": "210",
    "lat": 37.5537575,
    "long": -77.4602617
  },
  {
    "globaleventid": 264010697,
    "sqldate": 20130821,
    "monthyear": 201308,
    "year": 2013,
    "fractiondate": "2013.6329",
    "eventcode": 130,
    "quadclass": 3,
    "nummentions": 4,
    "numsources": 1,
    "numarticles": 4,
    "avgtone": "1.75438596491228",
    "sourceurl": "http://www.phillyburbs.com/my_town/bensalem/falls-police-suv-driver-dragged-estranged-wife-as-child-watched/article_8d4161b4-9cd5-50a2-8117-572cabce38b4.html",
    "feature_id": "1197623",
    "feature_name": "Bensalem",
    "state_alpha": "PA",
    "county_name": "Bucks",
    "county_numeric": "017",
    "prim_lat_dec": "40.1045549",
    "prim_long_dec": "-74.951279",
    "elev_in_m": "32",
    "elev_in_ft": "105",
    "lat": 40.1045549,
    "long": -74.951279
  },
  {
    "globaleventid": 264010694,
    "sqldate": 20130821,
    "monthyear": 201308,
    "year": 2013,
    "fractiondate": "2013.6329",
    "eventcode": 1243,
    "quadclass": 3,
    "nummentions": 10,
    "numsources": 1,
    "numarticles": 10,
    "avgtone": "0.0",
    "sourceurl": "http://fox59.com/2013/08/21/impd-will-not-release-report-into-fatal-church-bus-crash-this-week/",
    "feature_id": "452890",
    "feature_name": "Indianapolis",
    "state_alpha": "IN",
    "county_name": "Marion",
    "county_numeric": "097",
    "prim_lat_dec": "39.7683765",
    "prim_long_dec": "-86.1580423",
    "elev_in_m": "219",
    "elev_in_ft": "718",
    "lat": 39.7683765,
    "long": -86.1580423
  },
  {
    "globaleventid": 264010693,
    "sqldate": 20130821,
    "monthyear": 201308,
    "year": 2013,
    "fractiondate": "2013.6329",
    "eventcode": 1243,
    "quadclass": 3,
    "nummentions": 4,
    "numsources": 1,
    "numarticles": 4,
    "avgtone": "0.239808153477218",
    "sourceurl": "http://www.yourhoustonnews.com/ranch/news/houston-man-gets-significant-sentence-for-drug-trafficking-through-falfurrias/article_4e11dc17-a4bc-53a7-93c5-485ce20d5f63.html",
    "feature_id": "1380948",
    "feature_name": "Houston",
    "state_alpha": "TX",
    "county_name": "Harris",
    "county_numeric": "201",
    "prim_lat_dec": "29.7632836",
    "prim_long_dec": "-95.3632715",
    "elev_in_m": "11",
    "elev_in_ft": "36",
    "lat": 29.7632836,
    "long": -95.3632715
  },
  {
    "globaleventid": 264010690,
    "sqldate": 20130821,
    "monthyear": 201308,
    "year": 2013,
    "fractiondate": "2013.6329",
    "eventcode": 120,
    "quadclass": 3,
    "nummentions": 1,
    "numsources": 1,
    "numarticles": 1,
    "avgtone": "2.79878971255673",
    "sourceurl": "http://news.yahoo.com/in-new-york-city-mayoral-race--a-spotlight-on-the-candidates--modern-families-200733401.html",
    "feature_id": "944840",
    "feature_name": "Brooklyn",
    "state_alpha": "NY",
    "county_name": "Delaware",
    "county_numeric": "025",
    "prim_lat_dec": "42.3442482",
    "prim_long_dec": "-75.1704468",
    "elev_in_m": "366",
    "elev_in_ft": "1201",
    "lat": 42.3442482,
    "long": -75.1704468
  },
  {
    "globaleventid": 264010689,
    "sqldate": 20130821,
    "monthyear": 201308,
    "year": 2013,
    "fractiondate": "2013.6329",
    "eventcode": 120,
    "quadclass": 3,
    "nummentions": 4,
    "numsources": 2,
    "numarticles": 4,
    "avgtone": "1.12045697068609",
    "sourceurl": "http://www.sfgate.com/news/crime/article/Police-not-seeking-suspects-in-Ill-motel-deaths-4749433.php",
    "feature_id": "416008",
    "feature_name": "Pontiac",
    "state_alpha": "IL",
    "county_name": "Livingston",
    "county_numeric": "105",
    "prim_lat_dec": "40.8808666",
    "prim_long_dec": "-88.6297839",
    "elev_in_m": "196",
    "elev_in_ft": "643",
    "lat": 40.8808666,
    "long": -88.6297839
  },
  {
    "globaleventid": 264010688,
    "sqldate": 20130821,
    "monthyear": 201308,
    "year": 2013,
    "fractiondate": "2013.6329",
    "eventcode": 120,
    "quadclass": 3,
    "nummentions": 26,
    "numsources": 3,
    "numarticles": 26,
    "avgtone": "0.937650939777045",
    "sourceurl": "http://www.sfgate.com/news/crime/article/Police-not-seeking-suspects-in-Ill-motel-deaths-4749433.php",
    "feature_id": "416008",
    "feature_name": "Pontiac",
    "state_alpha": "IL",
    "county_name": "Livingston",
    "county_numeric": "105",
    "prim_lat_dec": "40.8808666",
    "prim_long_dec": "-88.6297839",
    "elev_in_m": "196",
    "elev_in_ft": "643",
    "lat": 40.8808666,
    "long": -88.6297839
  },
  {
    "globaleventid": 264010686,
    "sqldate": 20130821,
    "monthyear": 201308,
    "year": 2013,
    "fractiondate": "2013.6329",
    "eventcode": 114,
    "quadclass": 3,
    "nummentions": 8,
    "numsources": 1,
    "numarticles": 8,
    "avgtone": "1.67597765363128",
    "sourceurl": "http://www.dailymail.co.uk/news/article-2398848/Teen-kills-kittens-using-bow-arrow-posting-images-Facebook.html?ITO=1490&ns_campaign=1490",
    "feature_id": "423587",
    "feature_name": "Chicago",
    "state_alpha": "IL",
    "county_name": "Cook",
    "county_numeric": "031",
    "prim_lat_dec": "41.850033",
    "prim_long_dec": "-87.6500523",
    "elev_in_m": "179",
    "elev_in_ft": "587",
    "lat": 41.850033,
    "long": -87.6500523
  },
  {
    "globaleventid": 264010685,
    "sqldate": 20130821,
    "monthyear": 201308,
    "year": 2013,
    "fractiondate": "2013.6329",
    "eventcode": 114,
    "quadclass": 3,
    "nummentions": 2,
    "numsources": 1,
    "numarticles": 2,
    "avgtone": "0.590551181102362",
    "sourceurl": "http://www.observer-reporter.com/article/20130821/NEWS03/130829915&source=RSS",
    "feature_id": "1382126",
    "feature_name": "Laurel Hill",
    "state_alpha": "TX",
    "county_name": "San Jacinto",
    "county_numeric": "407",
    "prim_lat_dec": "30.6029757",
    "prim_long_dec": "-95.2132723",
    "elev_in_m": "79",
    "elev_in_ft": "259",
    "lat": 30.6029757,
    "long": -95.2132723
  },
  {
    "globaleventid": 264010682,
    "sqldate": 20130821,
    "monthyear": 201308,
    "year": 2013,
    "fractiondate": "2013.6329",
    "eventcode": 1123,
    "quadclass": 3,
    "nummentions": 16,
    "numsources": 3,
    "numarticles": 16,
    "avgtone": "1.98763971632525",
    "sourceurl": "http://www.ksl.com/index.php?sid=26511470&nid=157&title=colo-family-evicted-after-mother-killed-by-gunman&fm=home_page&s_cid=queue-13&c=Z2eywc8amcpwu6Ov1LuBnT_T8h86AVrf6FbnxJsLcik&mkt=en-us",
    "feature_id": "201738",
    "feature_name": "Denver",
    "state_alpha": "CO",
    "county_name": "Denver",
    "county_numeric": "031",
    "prim_lat_dec": "39.7391536",
    "prim_long_dec": "-104.9847034",
    "elev_in_m": "1609",
    "elev_in_ft": "5279",
    "lat": 39.7391536,
    "long": -104.9847034
  },
  {
    "globaleventid": 264010681,
    "sqldate": 20130821,
    "monthyear": 201308,
    "year": 2013,
    "fractiondate": "2013.6329",
    "eventcode": 1121,
    "quadclass": 3,
    "nummentions": 6,
    "numsources": 1,
    "numarticles": 6,
    "avgtone": "1.37540453074434",
    "sourceurl": "http://www.usatoday.com/story/news/nation/2013/08/21/concern-rises-after-border-vigilante-standoff/2680247/&c=GtjuVv93u3YRvePIrGw1GkCD4SzCwZyqNARsZXQFRTs&mkt=en-us",
    "feature_id": "5012",
    "feature_name": "Gila Bend",
    "state_alpha": "AZ",
    "county_name": "Maricopa",
    "county_numeric": "013",
    "prim_lat_dec": "32.9478236",
    "prim_long_dec": "-112.7168305",
    "elev_in_m": "224",
    "elev_in_ft": "735",
    "lat": 32.9478236,
    "long": -112.7168305
  },
  {
    "globaleventid": 264010672,
    "sqldate": 20130821,
    "monthyear": 201308,
    "year": 2013,
    "fractiondate": "2013.6329",
    "eventcode": 112,
    "quadclass": 3,
    "nummentions": 2,
    "numsources": 1,
    "numarticles": 2,
    "avgtone": "0.0",
    "sourceurl": "http://www.kval.com/news/local/220562001.html",
    "feature_id": "1166682",
    "feature_name": "Milwaukie",
    "state_alpha": "OR",
    "county_name": "Clackamas",
    "county_numeric": "005",
    "prim_lat_dec": "45.4462305",
    "prim_long_dec": "-122.6392606",
    "elev_in_m": "13",
    "elev_in_ft": "43",
    "lat": 45.4462305,
    "long": -122.6392606
  },
  {
    "globaleventid": 264010660,
    "sqldate": 20130821,
    "monthyear": 201308,
    "year": 2013,
    "fractiondate": "2013.6329",
    "eventcode": 112,
    "quadclass": 3,
    "nummentions": 4,
    "numsources": 1,
    "numarticles": 4,
    "avgtone": "0.0",
    "sourceurl": "http://www.cwarkansas.com/news/local/story/Parolee-Wanted-For-Murder-in-LR/OloyrB2PrUWPFjXrhIZVbw.cspx",
    "feature_id": "83350",
    "feature_name": "Little Rock",
    "state_alpha": "AR",
    "county_name": "Pulaski",
    "county_numeric": "119",
    "prim_lat_dec": "34.7464809",
    "prim_long_dec": "-92.2895948",
    "elev_in_m": "102",
    "elev_in_ft": "335",
    "lat": 34.7464809,
    "long": -92.2895948
  },
  {
    "globaleventid": 264010659,
    "sqldate": 20130821,
    "monthyear": 201308,
    "year": 2013,
    "fractiondate": "2013.6329",
    "eventcode": 112,
    "quadclass": 3,
    "nummentions": 10,
    "numsources": 1,
    "numarticles": 6,
    "avgtone": "1.38888888888889",
    "sourceurl": "http://voicenews.com/articles/2013/08/21//news/doc520e79a6bbc1c053896336.txt",
    "feature_id": "627463",
    "feature_name": "Grosse Pointe Farms",
    "state_alpha": "MI",
    "county_name": "Wayne",
    "county_numeric": "163",
    "prim_lat_dec": "42.4092038",
    "prim_long_dec": "-82.8918587",
    "elev_in_m": "186",
    "elev_in_ft": "610",
    "lat": 42.4092038,
    "long": -82.8918587
  },
  {
    "globaleventid": 264010658,
    "sqldate": 20130821,
    "monthyear": 201308,
    "year": 2013,
    "fractiondate": "2013.6329",
    "eventcode": 112,
    "quadclass": 3,
    "nummentions": 4,
    "numsources": 1,
    "numarticles": 4,
    "avgtone": "3.22033898305085",
    "sourceurl": "http://www.cio.com/article/738569/Manning_Attorney_Vows_to_Fight_On_Urges_Obama_to_Issue_Pardon?taxonomyId=3234",
    "feature_id": "617565",
    "feature_name": "Boston",
    "state_alpha": "MA",
    "county_name": "Suffolk",
    "county_numeric": "025",
    "prim_lat_dec": "42.3584308",
    "prim_long_dec": "-71.0597732",
    "elev_in_m": "14",
    "elev_in_ft": "46",
    "lat": 42.3584308,
    "long": -71.0597732
  },
  {
    "globaleventid": 264010657,
    "sqldate": 20130821,
    "monthyear": 201308,
    "year": 2013,
    "fractiondate": "2013.6329",
    "eventcode": 112,
    "quadclass": 3,
    "nummentions": 4,
    "numsources": 1,
    "numarticles": 4,
    "avgtone": "0.0",
    "sourceurl": "http://rockville.patch.com/groups/police-and-fire/p/aspen-hill-teen-charged-as-adult-in-silver-spring-carjackings",
    "feature_id": "591290",
    "feature_name": "Silver Spring",
    "state_alpha": "MD",
    "county_name": "Montgomery",
    "county_numeric": "031",
    "prim_lat_dec": "38.9906657",
    "prim_long_dec": "-77.026088",
    "elev_in_m": "104",
    "elev_in_ft": "341",
    "lat": 38.9906657,
    "long": -77.026088
  },
  {
    "globaleventid": 264010656,
    "sqldate": 20130821,
    "monthyear": 201308,
    "year": 2013,
    "fractiondate": "2013.6329",
    "eventcode": 112,
    "quadclass": 3,
    "nummentions": 4,
    "numsources": 1,
    "numarticles": 4,
    "avgtone": "0.649350649350649",
    "sourceurl": "http://www.orlandosentinel.com/news/local/breakingnews/os-suspect-bit-volusia-deputy-20130821,0,6171916.story",
    "feature_id": "418788",
    "feature_name": "South Holland",
    "state_alpha": "IL",
    "county_name": "Cook",
    "county_numeric": "031",
    "prim_lat_dec": "41.6008681",
    "prim_long_dec": "-87.6069894",
    "elev_in_m": "183",
    "elev_in_ft": "600",
    "lat": 41.6008681,
    "long": -87.6069894
  },
  {
    "globaleventid": 264010650,
    "sqldate": 20130821,
    "monthyear": 201308,
    "year": 2013,
    "fractiondate": "2013.6329",
    "eventcode": 112,
    "quadclass": 3,
    "nummentions": 4,
    "numsources": 1,
    "numarticles": 4,
    "avgtone": "1.14613180515759",
    "sourceurl": "http://www.sfltimes.com/index.php?option=com_content&task=view&id=14043&Itemid=331",
    "feature_id": "281485",
    "feature_name": "Delray Beach",
    "state_alpha": "FL",
    "county_name": "Palm Beach",
    "county_numeric": "099",
    "prim_lat_dec": "26.4614625",
    "prim_long_dec": "-80.0728201",
    "elev_in_m": "6",
    "elev_in_ft": "20",
    "lat": 26.4614625,
    "long": -80.0728201
  },
  {
    "globaleventid": 264010645,
    "sqldate": 20130821,
    "monthyear": 201308,
    "year": 2013,
    "fractiondate": "2013.6329",
    "eventcode": 112,
    "quadclass": 3,
    "nummentions": 4,
    "numsources": 1,
    "numarticles": 2,
    "avgtone": "1.38888888888889",
    "sourceurl": "http://voicenews.com/articles/2013/08/21//news/doc520e79a6bbc1c053896336.txt",
    "feature_id": "1617959",
    "feature_name": "Detroit",
    "state_alpha": "MI",
    "county_name": "Wayne",
    "county_numeric": "163",
    "prim_lat_dec": "42.331427",
    "prim_long_dec": "-83.0457538",
    "elev_in_m": "182",
    "elev_in_ft": "597",
    "lat": 42.331427,
    "long": -83.0457538
  },
  {
    "globaleventid": 264010644,
    "sqldate": 20130821,
    "monthyear": 201308,
    "year": 2013,
    "fractiondate": "2013.6329",
    "eventcode": 112,
    "quadclass": 3,
    "nummentions": 4,
    "numsources": 1,
    "numarticles": 4,
    "avgtone": "1.49700598802395",
    "sourceurl": "http://www.yakimaherald.com/news/latestlocalnews/1426786-8/charge-against-sunnyside-man-who-filmed-police-dismissed",
    "feature_id": "1511347",
    "feature_name": "Sunnyside",
    "state_alpha": "WA",
    "county_name": "Whatcom",
    "county_numeric": "073",
    "prim_lat_dec": "48.7312225",
    "prim_long_dec": "-122.3154404",
    "elev_in_m": "99",
    "elev_in_ft": "325",
    "lat": 48.7312225,
    "long": -122.3154404
  },
  {
    "globaleventid": 264010642,
    "sqldate": 20130821,
    "monthyear": 201308,
    "year": 2013,
    "fractiondate": "2013.6329",
    "eventcode": 112,
    "quadclass": 3,
    "nummentions": 4,
    "numsources": 1,
    "numarticles": 4,
    "avgtone": "0.0",
    "sourceurl": "http://www.kval.com/news/local/220562001.html",
    "feature_id": "1166682",
    "feature_name": "Milwaukie",
    "state_alpha": "OR",
    "county_name": "Clackamas",
    "county_numeric": "005",
    "prim_lat_dec": "45.4462305",
    "prim_long_dec": "-122.6392606",
    "elev_in_m": "13",
    "elev_in_ft": "43",
    "lat": 45.4462305,
    "long": -122.6392606
  },
  {
    "globaleventid": 264010639,
    "sqldate": 20130821,
    "monthyear": 201308,
    "year": 2013,
    "fractiondate": "2013.6329",
    "eventcode": 111,
    "quadclass": 3,
    "nummentions": 12,
    "numsources": 1,
    "numarticles": 6,
    "avgtone": "0.0",
    "sourceurl": "http://www.heritage.com/articles/2013/08/21/ann_arbor_journal/news/doc5214ec4f958fd033556387.txt",
    "feature_id": "620133",
    "feature_name": "Ann Arbor",
    "state_alpha": "MI",
    "county_name": "Washtenaw",
    "county_numeric": "161",
    "prim_lat_dec": "42.2708716",
    "prim_long_dec": "-83.7263294",
    "elev_in_m": "268",
    "elev_in_ft": "879",
    "lat": 42.2708716,
    "long": -83.7263294
  },
  {
    "globaleventid": 264010638,
    "sqldate": 20130821,
    "monthyear": 201308,
    "year": 2013,
    "fractiondate": "2013.6329",
    "eventcode": 111,
    "quadclass": 3,
    "nummentions": 4,
    "numsources": 1,
    "numarticles": 4,
    "avgtone": "2.41635687732342",
    "sourceurl": "http://www.ctpost.com/local/article/Domestic-violence-advocate-Kupchick-arrested-in-4744547.php",
    "feature_id": "205720",
    "feature_name": "Bridgeport",
    "state_alpha": "CT",
    "county_name": "Fairfield",
    "county_numeric": "001",
    "prim_lat_dec": "41.1670412",
    "prim_long_dec": "-73.2048348",
    "elev_in_m": "3",
    "elev_in_ft": "10",
    "lat": 41.1670412,
    "long": -73.2048348
  },
  {
    "globaleventid": 264010637,
    "sqldate": 20130821,
    "monthyear": 201308,
    "year": 2013,
    "fractiondate": "2013.6329",
    "eventcode": 111,
    "quadclass": 3,
    "nummentions": 4,
    "numsources": 1,
    "numarticles": 4,
    "avgtone": "0.917431192660551",
    "sourceurl": "http://phys.org/news/2013-08-explore-weaponsarrests-domestic-violence-cases.html",
    "feature_id": "1380948",
    "feature_name": "Houston",
    "state_alpha": "TX",
    "county_name": "Harris",
    "county_numeric": "201",
    "prim_lat_dec": "29.7632836",
    "prim_long_dec": "-95.3632715",
    "elev_in_m": "11",
    "elev_in_ft": "36",
    "lat": 29.7632836,
    "long": -95.3632715
  },
  {
    "globaleventid": 264010635,
    "sqldate": 20130821,
    "monthyear": 201308,
    "year": 2013,
    "fractiondate": "2013.6329",
    "eventcode": 110,
    "quadclass": 3,
    "nummentions": 1,
    "numsources": 1,
    "numarticles": 1,
    "avgtone": "1.02564102564103",
    "sourceurl": "http://www.eagletribune.com/latestnews/x86506763/Termination-hearing-set-for-olice-officer",
    "feature_id": "614014",
    "feature_name": "Town Hall",
    "state_alpha": "MA",
    "county_name": "Plymouth",
    "county_numeric": "023",
    "prim_lat_dec": "42.0653792",
    "prim_long_dec": "-70.8661529",
    "elev_in_m": "21",
    "elev_in_ft": "69",
    "lat": 42.0653792,
    "long": -70.8661529
  },
  {
    "globaleventid": 264010634,
    "sqldate": 20130821,
    "monthyear": 201308,
    "year": 2013,
    "fractiondate": "2013.6329",
    "eventcode": 110,
    "quadclass": 3,
    "nummentions": 1,
    "numsources": 1,
    "numarticles": 1,
    "avgtone": "1.02564102564103",
    "sourceurl": "http://www.eagletribune.com/latestnews/x86506763/Termination-hearing-set-for-olice-officer",
    "feature_id": "614014",
    "feature_name": "Town Hall",
    "state_alpha": "MA",
    "county_name": "Plymouth",
    "county_numeric": "023",
    "prim_lat_dec": "42.0653792",
    "prim_long_dec": "-70.8661529",
    "elev_in_m": "21",
    "elev_in_ft": "69",
    "lat": 42.0653792,
    "long": -70.8661529
  },
  {
    "globaleventid": 264010627,
    "sqldate": 20130821,
    "monthyear": 201308,
    "year": 2013,
    "fractiondate": "2013.6329",
    "eventcode": 100,
    "quadclass": 3,
    "nummentions": 4,
    "numsources": 1,
    "numarticles": 4,
    "avgtone": "1.18343195266272",
    "sourceurl": "http://philadelphia.cbslocal.com/2013/08/21/philadelphia-man-on-death-row-for-21-years-wins-new-trial/",
    "feature_id": "1209052",
    "feature_name": "Philadelphia",
    "state_alpha": "PA",
    "county_name": "Philadelphia",
    "county_numeric": "101",
    "prim_lat_dec": "39.952335",
    "prim_long_dec": "-75.163789",
    "elev_in_m": "14",
    "elev_in_ft": "46",
    "lat": 39.952335,
    "long": -75.163789
  },
  {
    "globaleventid": 264010199,
    "sqldate": 20130821,
    "monthyear": 201308,
    "year": 2013,
    "fractiondate": "2013.6329",
    "eventcode": 173,
    "quadclass": 4,
    "nummentions": 1,
    "numsources": 1,
    "numarticles": 1,
    "avgtone": "4.16141235813367",
    "sourceurl": "http://blogs.edweek.org/edweek/rulesforengagement/2013/08/why_is_maintaining_a_school_safety_plan_so_hard.html",
    "feature_id": "1064520",
    "feature_name": "Dekalb",
    "state_alpha": "OH",
    "county_name": "Crawford",
    "county_numeric": "033",
    "prim_lat_dec": "40.8925566",
    "prim_long_dec": "-82.7726802",
    "elev_in_m": "329",
    "elev_in_ft": "1079",
    "lat": 40.8925566,
    "long": -82.7726802
  },
  {
    "globaleventid": 264010198,
    "sqldate": 20130821,
    "monthyear": 201308,
    "year": 2013,
    "fractiondate": "2013.6329",
    "eventcode": 173,
    "quadclass": 4,
    "nummentions": 1,
    "numsources": 1,
    "numarticles": 1,
    "avgtone": "4.16141235813367",
    "sourceurl": "http://blogs.edweek.org/edweek/rulesforengagement/2013/08/why_is_maintaining_a_school_safety_plan_so_hard.html",
    "feature_id": "1064520",
    "feature_name": "Dekalb",
    "state_alpha": "OH",
    "county_name": "Crawford",
    "county_numeric": "033",
    "prim_lat_dec": "40.8925566",
    "prim_long_dec": "-82.7726802",
    "elev_in_m": "329",
    "elev_in_ft": "1079",
    "lat": 40.8925566,
    "long": -82.7726802
  },
  {
    "globaleventid": 264010197,
    "sqldate": 20130821,
    "monthyear": 201308,
    "year": 2013,
    "fractiondate": "2013.6329",
    "eventcode": 173,
    "quadclass": 4,
    "nummentions": 2,
    "numsources": 1,
    "numarticles": 2,
    "avgtone": "4.16141235813367",
    "sourceurl": "http://blogs.edweek.org/edweek/rulesforengagement/2013/08/why_is_maintaining_a_school_safety_plan_so_hard.html",
    "feature_id": "1064520",
    "feature_name": "Dekalb",
    "state_alpha": "OH",
    "county_name": "Crawford",
    "county_numeric": "033",
    "prim_lat_dec": "40.8925566",
    "prim_long_dec": "-82.7726802",
    "elev_in_m": "329",
    "elev_in_ft": "1079",
    "lat": 40.8925566,
    "long": -82.7726802
  },
  {
    "globaleventid": 264010185,
    "sqldate": 20130821,
    "monthyear": 201308,
    "year": 2013,
    "fractiondate": "2013.6329",
    "eventcode": 112,
    "quadclass": 3,
    "nummentions": 1,
    "numsources": 1,
    "numarticles": 1,
    "avgtone": "1.66666666666667",
    "sourceurl": "http://www.live5news.com/story/23201634/suspected-school-gunman-in-the-dekalb-co-jail",
    "feature_id": "1247505",
    "feature_name": "Dekalb",
    "state_alpha": "SC",
    "county_name": "Kershaw",
    "county_numeric": "055",
    "prim_lat_dec": "34.3773741",
    "prim_long_dec": "-80.5959099",
    "elev_in_m": "127",
    "elev_in_ft": "417",
    "lat": 34.3773741,
    "long": -80.5959099
  },
  {
    "globaleventid": 264010059,
    "sqldate": 20130821,
    "monthyear": 201308,
    "year": 2013,
    "fractiondate": "2013.6329",
    "eventcode": 111,
    "quadclass": 3,
    "nummentions": 8,
    "numsources": 1,
    "numarticles": 8,
    "avgtone": "1.53256704980843",
    "sourceurl": "http://www.windycitymediagroup.com/lgbt/-Prison-Break-actor-comes-out-denounces-Russian-law/44150.html",
    "feature_id": "423587",
    "feature_name": "Chicago",
    "state_alpha": "IL",
    "county_name": "Cook",
    "county_numeric": "031",
    "prim_lat_dec": "41.850033",
    "prim_long_dec": "-87.6500523",
    "elev_in_m": "179",
    "elev_in_ft": "587",
    "lat": 41.850033,
    "long": -87.6500523
  },
  {
    "globaleventid": 264010010,
    "sqldate": 20130821,
    "monthyear": 201308,
    "year": 2013,
    "fractiondate": "2013.6329",
    "eventcode": 1822,
    "quadclass": 4,
    "nummentions": 10,
    "numsources": 1,
    "numarticles": 10,
    "avgtone": "0.740740740740741",
    "sourceurl": "http://www.aninews.in/newsdetail4/story126786/north-korean-defectors-reveal-horror-torture-tales-in-prisons-back-home.html",
    "feature_id": "531871",
    "feature_name": "Washington",
    "state_alpha": "DC",
    "county_name": "District of Columbia",
    "county_numeric": "001",
    "prim_lat_dec": "38.8951118",
    "prim_long_dec": "-77.0363658",
    "elev_in_m": "7",
    "elev_in_ft": "23",
    "lat": 38.8951118,
    "long": -77.0363658
  },
  {
    "globaleventid": 264009777,
    "sqldate": 20130821,
    "monthyear": 201308,
    "year": 2013,
    "fractiondate": "2013.6329",
    "eventcode": 173,
    "quadclass": 4,
    "nummentions": 2,
    "numsources": 1,
    "numarticles": 2,
    "avgtone": "1.51515151515152",
    "sourceurl": "http://www.mysuncoast.com/news/state/things-to-know-in-florida-for-aug/article_bc534b8d-aae2-52ab-810e-688b913bf7e3.html",
    "feature_id": "277991",
    "feature_name": "Auburndale",
    "state_alpha": "FL",
    "county_name": "Polk",
    "county_numeric": "105",
    "prim_lat_dec": "28.0652975",
    "prim_long_dec": "-81.7886906",
    "elev_in_m": "51",
    "elev_in_ft": "167",
    "lat": 28.0652975,
    "long": -81.7886906
  },
  {
    "globaleventid": 264009776,
    "sqldate": 20130821,
    "monthyear": 201308,
    "year": 2013,
    "fractiondate": "2013.6329",
    "eventcode": 173,
    "quadclass": 4,
    "nummentions": 8,
    "numsources": 1,
    "numarticles": 8,
    "avgtone": "1.51515151515152",
    "sourceurl": "http://www.mysuncoast.com/news/state/things-to-know-in-florida-for-aug/article_bc534b8d-aae2-52ab-810e-688b913bf7e3.html",
    "feature_id": "277991",
    "feature_name": "Auburndale",
    "state_alpha": "FL",
    "county_name": "Polk",
    "county_numeric": "105",
    "prim_lat_dec": "28.0652975",
    "prim_long_dec": "-81.7886906",
    "elev_in_m": "51",
    "elev_in_ft": "167",
    "lat": 28.0652975,
    "long": -81.7886906
  },
  {
    "globaleventid": 264009730,
    "sqldate": 20130821,
    "monthyear": 201308,
    "year": 2013,
    "fractiondate": "2013.6329",
    "eventcode": 173,
    "quadclass": 4,
    "nummentions": 6,
    "numsources": 1,
    "numarticles": 6,
    "avgtone": "1.99516324062878",
    "sourceurl": "http://video.msnbc.msn.com/the-cycle/52811874/&c=KPscqjIvBuSPK_6Rc8cY6X-5vnY2OrRi5kHeuZKMBqY&mkt=en-us",
    "feature_id": "531871",
    "feature_name": "Washington",
    "state_alpha": "DC",
    "county_name": "District of Columbia",
    "county_numeric": "001",
    "prim_lat_dec": "38.8951118",
    "prim_long_dec": "-77.0363658",
    "elev_in_m": "7",
    "elev_in_ft": "23",
    "lat": 38.8951118,
    "long": -77.0363658
  },
  {
    "globaleventid": 264009714,
    "sqldate": 20130821,
    "monthyear": 201308,
    "year": 2013,
    "fractiondate": "2013.6329",
    "eventcode": 173,
    "quadclass": 4,
    "nummentions": 6,
    "numsources": 1,
    "numarticles": 6,
    "avgtone": "3.90455531453362",
    "sourceurl": "http://www.foxbaltimore.com/news/features/top-stories/stories/wikileaks-founder-manning-conviction-affront-basic-concepts-western-justice-21825.shtml",
    "feature_id": "597040",
    "feature_name": "Baltimore",
    "state_alpha": "MD",
    "county_name": "Baltimore (city)",
    "county_numeric": "510",
    "prim_lat_dec": "39.2903848",
    "prim_long_dec": "-76.6121893",
    "elev_in_m": "10",
    "elev_in_ft": "33",
    "lat": 39.2903848,
    "long": -76.6121893
  },
  {
    "globaleventid": 264009713,
    "sqldate": 20130821,
    "monthyear": 201308,
    "year": 2013,
    "fractiondate": "2013.6329",
    "eventcode": 173,
    "quadclass": 4,
    "nummentions": 6,
    "numsources": 1,
    "numarticles": 6,
    "avgtone": "2.44094488188976",
    "sourceurl": "http://onlineathens.com/national-news/2013-08-21/leak-bradley-manning-gets-stiffest-punishment",
    "feature_id": "531871",
    "feature_name": "Washington",
    "state_alpha": "DC",
    "county_name": "District of Columbia",
    "county_numeric": "001",
    "prim_lat_dec": "38.8951118",
    "prim_long_dec": "-77.0363658",
    "elev_in_m": "7",
    "elev_in_ft": "23",
    "lat": 38.8951118,
    "long": -77.0363658
  },
  {
    "globaleventid": 264009710,
    "sqldate": 20130821,
    "monthyear": 201308,
    "year": 2013,
    "fractiondate": "2013.6329",
    "eventcode": 173,
    "quadclass": 4,
    "nummentions": 30,
    "numsources": 5,
    "numarticles": 30,
    "avgtone": "3.14477990211224",
    "sourceurl": "http://www.southcoasttoday.com/apps/pbcs.dll/article?AID=/20130821/NEWS/130829990/-1/NEWSMAP",
    "feature_id": "1661377",
    "feature_name": "San Diego",
    "state_alpha": "CA",
    "county_name": "San Diego",
    "county_numeric": "073",
    "prim_lat_dec": "32.7153292",
    "prim_long_dec": "-117.1572551",
    "elev_in_m": "19",
    "elev_in_ft": "62",
    "lat": 32.7153292,
    "long": -117.1572551
  },
  {
    "globaleventid": 264009708,
    "sqldate": 20130821,
    "monthyear": 201308,
    "year": 2013,
    "fractiondate": "2013.6329",
    "eventcode": 173,
    "quadclass": 4,
    "nummentions": 6,
    "numsources": 1,
    "numarticles": 6,
    "avgtone": "2.8310502283105",
    "sourceurl": "http://www.tulsaworld.com/article.aspx/Judge_sentences_Bradley_Manning_to_35_years_in_prison/20130821_12_0_FORTME391214?subj=1",
    "feature_id": "1100962",
    "feature_name": "Tulsa",
    "state_alpha": "OK",
    "county_name": "Tulsa",
    "county_numeric": "143",
    "prim_lat_dec": "36.1539816",
    "prim_long_dec": "-95.992775",
    "elev_in_m": "220",
    "elev_in_ft": "722",
    "lat": 36.1539816,
    "long": -95.992775
  },
  {
    "globaleventid": 264009664,
    "sqldate": 20130821,
    "monthyear": 201308,
    "year": 2013,
    "fractiondate": "2013.6329",
    "eventcode": 180,
    "quadclass": 4,
    "nummentions": 2,
    "numsources": 1,
    "numarticles": 2,
    "avgtone": "2.85714285714286",
    "sourceurl": "http://www.santafenewmexican.com/news/local_news/article_3e24a881-5c50-575a-b75a-4237ca0bae98.html",
    "feature_id": "936823",
    "feature_name": "Santa Fe",
    "state_alpha": "NM",
    "county_name": "Santa Fe",
    "county_numeric": "049",
    "prim_lat_dec": "35.6869752",
    "prim_long_dec": "-105.937799",
    "elev_in_m": "2132",
    "elev_in_ft": "6995",
    "lat": 35.6869752,
    "long": -105.937799
  },
  {
    "globaleventid": 264009650,
    "sqldate": 20130821,
    "monthyear": 201308,
    "year": 2013,
    "fractiondate": "2013.6329",
    "eventcode": 190,
    "quadclass": 4,
    "nummentions": 2,
    "numsources": 1,
    "numarticles": 2,
    "avgtone": "0.0",
    "sourceurl": "http://crimeblog.dallasnews.com/2013/08/lewisville-police-surround-motel-where-oklahoma-murder-suspect-is-believed-to-be-hiding-with-his-son.html/",
    "feature_id": "1100576",
    "feature_name": "Lewisville",
    "state_alpha": "OK",
    "county_name": "Haskell",
    "county_numeric": "061",
    "prim_lat_dec": "35.1200977",
    "prim_long_dec": "-95.2769144",
    "elev_in_m": "183",
    "elev_in_ft": "600",
    "lat": 35.1200977,
    "long": -95.2769144
  },
  {
    "globaleventid": 264009633,
    "sqldate": 20130821,
    "monthyear": 201308,
    "year": 2013,
    "fractiondate": "2013.6329",
    "eventcode": 173,
    "quadclass": 4,
    "nummentions": 4,
    "numsources": 1,
    "numarticles": 4,
    "avgtone": "1.91011235955056",
    "sourceurl": "http://www.utsandiego.com/news/2013/aug/21/manning-sentenced-to-35-years-in-wikileaks-case/",
    "feature_id": "531871",
    "feature_name": "Washington",
    "state_alpha": "DC",
    "county_name": "District of Columbia",
    "county_numeric": "001",
    "prim_lat_dec": "38.8951118",
    "prim_long_dec": "-77.0363658",
    "elev_in_m": "7",
    "elev_in_ft": "23",
    "lat": 38.8951118,
    "long": -77.0363658
  },
  {
    "globaleventid": 264009631,
    "sqldate": 20130821,
    "monthyear": 201308,
    "year": 2013,
    "fractiondate": "2013.6329",
    "eventcode": 173,
    "quadclass": 4,
    "nummentions": 88,
    "numsources": 16,
    "numarticles": 88,
    "avgtone": "2.14200029883255",
    "sourceurl": "http://hosted2.ap.org/APDEFAULT/3d281c11a96b4ad082fe88aa0db04305/Article_2013-08-21-Manning-WikiLeaks/id-c94fbc6834fe48fa8e249e0d4081af30",
    "feature_id": "531871",
    "feature_name": "Washington",
    "state_alpha": "DC",
    "county_name": "District of Columbia",
    "county_numeric": "001",
    "prim_lat_dec": "38.8951118",
    "prim_long_dec": "-77.0363658",
    "elev_in_m": "7",
    "elev_in_ft": "23",
    "lat": 38.8951118,
    "long": -77.0363658
  },
  {
    "globaleventid": 264009629,
    "sqldate": 20130821,
    "monthyear": 201308,
    "year": 2013,
    "fractiondate": "2013.6329",
    "eventcode": 173,
    "quadclass": 4,
    "nummentions": 8,
    "numsources": 1,
    "numarticles": 8,
    "avgtone": "1.81818181818182",
    "sourceurl": "http://www.kfdi.com/news/local/Manning-could-serve-sentence-at-famous-Leavenworth-220535141.html",
    "feature_id": "531871",
    "feature_name": "Washington",
    "state_alpha": "DC",
    "county_name": "District of Columbia",
    "county_numeric": "001",
    "prim_lat_dec": "38.8951118",
    "prim_long_dec": "-77.0363658",
    "elev_in_m": "7",
    "elev_in_ft": "23",
    "lat": 38.8951118,
    "long": -77.0363658
  },
  {
    "globaleventid": 264009626,
    "sqldate": 20130821,
    "monthyear": 201308,
    "year": 2013,
    "fractiondate": "2013.6329",
    "eventcode": 173,
    "quadclass": 4,
    "nummentions": 6,
    "numsources": 1,
    "numarticles": 6,
    "avgtone": "3.91566265060241",
    "sourceurl": "http://www.utsandiego.com/news/2013/aug/21/bradley-manning-polls-pardon-nobel-prize-movie/",
    "feature_id": "1662328",
    "feature_name": "Los Angeles",
    "state_alpha": "CA",
    "county_name": "Los Angeles",
    "county_numeric": "037",
    "prim_lat_dec": "34.0522342",
    "prim_long_dec": "-118.2436849",
    "elev_in_m": "89",
    "elev_in_ft": "292",
    "lat": 34.0522342,
    "long": -118.2436849
  },
  {
    "globaleventid": 264009624,
    "sqldate": 20130821,
    "monthyear": 201308,
    "year": 2013,
    "fractiondate": "2013.6329",
    "eventcode": 173,
    "quadclass": 4,
    "nummentions": 2,
    "numsources": 1,
    "numarticles": 2,
    "avgtone": "1.81818181818182",
    "sourceurl": "http://www.kfdi.com/news/local/Manning-could-serve-sentence-at-famous-Leavenworth-220535141.html",
    "feature_id": "1521981",
    "feature_name": "Leavenworth",
    "state_alpha": "WA",
    "county_name": "Chelan",
    "county_numeric": "007",
    "prim_lat_dec": "47.5962326",
    "prim_long_dec": "-120.6614765",
    "elev_in_m": "357",
    "elev_in_ft": "1171",
    "lat": 47.5962326,
    "long": -120.6614765
  },
  {
    "globaleventid": 264009623,
    "sqldate": 20130821,
    "monthyear": 201308,
    "year": 2013,
    "fractiondate": "2013.6329",
    "eventcode": 173,
    "quadclass": 4,
    "nummentions": 6,
    "numsources": 1,
    "numarticles": 6,
    "avgtone": "2.89389067524116",
    "sourceurl": "http://www.lakewyliepilot.com/2013/08/21/2033100/a-look-at-pfc-bradley-mannings.html",
    "feature_id": "1233775",
    "feature_name": "Lake Wylie",
    "state_alpha": "SC",
    "county_name": "York",
    "county_numeric": "091",
    "prim_lat_dec": "35.108476",
    "prim_long_dec": "-81.0428538",
    "elev_in_m": "179",
    "elev_in_ft": "587",
    "lat": 35.108476,
    "long": -81.0428538
  },
  {
    "globaleventid": 264009507,
    "sqldate": 20130821,
    "monthyear": 201308,
    "year": 2013,
    "fractiondate": "2013.6329",
    "eventcode": 180,
    "quadclass": 4,
    "nummentions": 6,
    "numsources": 1,
    "numarticles": 6,
    "avgtone": "2.12314225053079",
    "sourceurl": "http://www.fosters.com/apps/pbcs.dll/article?AID=/20130821/GJNEWS_01/130829854",
    "feature_id": "869595",
    "feature_name": "Rollinsford",
    "state_alpha": "NH",
    "county_name": "Strafford",
    "county_numeric": "017",
    "prim_lat_dec": "43.2361957",
    "prim_long_dec": "-70.8203355",
    "elev_in_m": "32",
    "elev_in_ft": "105",
    "lat": 43.2361957,
    "long": -70.8203355
  },
  {
    "globaleventid": 264009506,
    "sqldate": 20130821,
    "monthyear": 201308,
    "year": 2013,
    "fractiondate": "2013.6329",
    "eventcode": 180,
    "quadclass": 4,
    "nummentions": 2,
    "numsources": 1,
    "numarticles": 2,
    "avgtone": "2.12314225053079",
    "sourceurl": "http://www.fosters.com/apps/pbcs.dll/article?AID=/20130821/GJNEWS_01/130829854",
    "feature_id": "866618",
    "feature_name": "Dover",
    "state_alpha": "NH",
    "county_name": "Strafford",
    "county_numeric": "017",
    "prim_lat_dec": "43.1978624",
    "prim_long_dec": "-70.8736698",
    "elev_in_m": "20",
    "elev_in_ft": "66",
    "lat": 43.1978624,
    "long": -70.8736698
  },
  {
    "globaleventid": 264009505,
    "sqldate": 20130821,
    "monthyear": 201308,
    "year": 2013,
    "fractiondate": "2013.6329",
    "eventcode": 180,
    "quadclass": 4,
    "nummentions": 2,
    "numsources": 1,
    "numarticles": 2,
    "avgtone": "2.12314225053079",
    "sourceurl": "http://www.fosters.com/apps/pbcs.dll/article?AID=/20130821/GJNEWS_01/130829854",
    "feature_id": "866618",
    "feature_name": "Dover",
    "state_alpha": "NH",
    "county_name": "Strafford",
    "county_numeric": "017",
    "prim_lat_dec": "43.1978624",
    "prim_long_dec": "-70.8736698",
    "elev_in_m": "20",
    "elev_in_ft": "66",
    "lat": 43.1978624,
    "long": -70.8736698
  },
  {
    "globaleventid": 264009498,
    "sqldate": 20130821,
    "monthyear": 201308,
    "year": 2013,
    "fractiondate": "2013.6329",
    "eventcode": 112,
    "quadclass": 3,
    "nummentions": 30,
    "numsources": 2,
    "numarticles": 30,
    "avgtone": "1.55729181304629",
    "sourceurl": "http://www.heraldnet.com/article/20130821/NEWS01/708219937/1054",
    "feature_id": "531871",
    "feature_name": "Washington",
    "state_alpha": "DC",
    "county_name": "District of Columbia",
    "county_numeric": "001",
    "prim_lat_dec": "38.8951118",
    "prim_long_dec": "-77.0363658",
    "elev_in_m": "7",
    "elev_in_ft": "23",
    "lat": 38.8951118,
    "long": -77.0363658
  },
  {
    "globaleventid": 264009456,
    "sqldate": 20130821,
    "monthyear": 201308,
    "year": 2013,
    "fractiondate": "2013.6329",
    "eventcode": 173,
    "quadclass": 4,
    "nummentions": 10,
    "numsources": 1,
    "numarticles": 10,
    "avgtone": "1.51515151515152",
    "sourceurl": "http://www.berkshireeagle.com/news/ci_23905471/charges-against-pittsfield-city-councilor-paul-capitanio-shock",
    "feature_id": "869241",
    "feature_name": "Pittsfield",
    "state_alpha": "NH",
    "county_name": "Merrimack",
    "county_numeric": "013",
    "prim_lat_dec": "43.3059138",
    "prim_long_dec": "-71.3242341",
    "elev_in_m": "151",
    "elev_in_ft": "495",
    "lat": 43.3059138,
    "long": -71.3242341
  },
  {
    "globaleventid": 264009454,
    "sqldate": 20130821,
    "monthyear": 201308,
    "year": 2013,
    "fractiondate": "2013.6329",
    "eventcode": 173,
    "quadclass": 4,
    "nummentions": 6,
    "numsources": 1,
    "numarticles": 6,
    "avgtone": "1.78571428571429",
    "sourceurl": "http://www.wtvq.com/news/national/story/Manning-sentenced-to-serve-35-years-in-prison-for/iHhiockHUkqzCg52H2oxJA.cspx",
    "feature_id": "597040",
    "feature_name": "Baltimore",
    "state_alpha": "MD",
    "county_name": "Baltimore (city)",
    "county_numeric": "510",
    "prim_lat_dec": "39.2903848",
    "prim_long_dec": "-76.6121893",
    "elev_in_m": "10",
    "elev_in_ft": "33",
    "lat": 39.2903848,
    "long": -76.6121893
  },
  {
    "globaleventid": 264009453,
    "sqldate": 20130821,
    "monthyear": 201308,
    "year": 2013,
    "fractiondate": "2013.6329",
    "eventcode": 173,
    "quadclass": 4,
    "nummentions": 6,
    "numsources": 1,
    "numarticles": 6,
    "avgtone": "2.01149425287356",
    "sourceurl": "http://www.forbesadvocate.com.au/story/1722564/bradley-manning-sentenced-to-35-years-in-prison/?cs=12",
    "feature_id": "531871",
    "feature_name": "Washington",
    "state_alpha": "DC",
    "county_name": "District of Columbia",
    "county_numeric": "001",
    "prim_lat_dec": "38.8951118",
    "prim_long_dec": "-77.0363658",
    "elev_in_m": "7",
    "elev_in_ft": "23",
    "lat": 38.8951118,
    "long": -77.0363658
  },
  {
    "globaleventid": 264009452,
    "sqldate": 20130821,
    "monthyear": 201308,
    "year": 2013,
    "fractiondate": "2013.6329",
    "eventcode": 173,
    "quadclass": 4,
    "nummentions": 3,
    "numsources": 1,
    "numarticles": 3,
    "avgtone": "1.39372822299652",
    "sourceurl": "http://www.ctpost.com/news/crime/article/Ind-man-allegedly-filmed-porn-images-of-children-4750291.php",
    "feature_id": "452890",
    "feature_name": "Indianapolis",
    "state_alpha": "IN",
    "county_name": "Marion",
    "county_numeric": "097",
    "prim_lat_dec": "39.7683765",
    "prim_long_dec": "-86.1580423",
    "elev_in_m": "219",
    "elev_in_ft": "718",
    "lat": 39.7683765,
    "long": -86.1580423
  },
  {
    "globaleventid": 264009451,
    "sqldate": 20130821,
    "monthyear": 201308,
    "year": 2013,
    "fractiondate": "2013.6329",
    "eventcode": 173,
    "quadclass": 4,
    "nummentions": 14,
    "numsources": 1,
    "numarticles": 14,
    "avgtone": "2.47469066366704",
    "sourceurl": "http://www.latimes.com/local/la-me-burbank-police-20130822,0,7005332.story",
    "feature_id": "277480",
    "feature_name": "Burbank",
    "state_alpha": "CA",
    "county_name": "Santa Clara",
    "county_numeric": "085",
    "prim_lat_dec": "37.3232752",
    "prim_long_dec": "-121.9316233",
    "elev_in_m": "37",
    "elev_in_ft": "121",
    "lat": 37.3232752,
    "long": -121.9316233
  },
  {
    "globaleventid": 264009433,
    "sqldate": 20130821,
    "monthyear": 201308,
    "year": 2013,
    "fractiondate": "2013.6329",
    "eventcode": 172,
    "quadclass": 4,
    "nummentions": 9,
    "numsources": 2,
    "numarticles": 9,
    "avgtone": "2.63523527312249",
    "sourceurl": "http://www.sun-sentinel.com/la-na-nn-wikileaks-bradley-manning-sentenced-20130820,0,5863774.story?track=rss",
    "feature_id": "531871",
    "feature_name": "Washington",
    "state_alpha": "DC",
    "county_name": "District of Columbia",
    "county_numeric": "001",
    "prim_lat_dec": "38.8951118",
    "prim_long_dec": "-77.0363658",
    "elev_in_m": "7",
    "elev_in_ft": "23",
    "lat": 38.8951118,
    "long": -77.0363658
  },
  {
    "globaleventid": 264009427,
    "sqldate": 20130821,
    "monthyear": 201308,
    "year": 2013,
    "fractiondate": "2013.6329",
    "eventcode": 112,
    "quadclass": 3,
    "nummentions": 3,
    "numsources": 1,
    "numarticles": 3,
    "avgtone": "1.39372822299652",
    "sourceurl": "http://www.ctpost.com/news/crime/article/Ind-man-allegedly-filmed-porn-images-of-children-4750291.php",
    "feature_id": "452890",
    "feature_name": "Indianapolis",
    "state_alpha": "IN",
    "county_name": "Marion",
    "county_numeric": "097",
    "prim_lat_dec": "39.7683765",
    "prim_long_dec": "-86.1580423",
    "elev_in_m": "219",
    "elev_in_ft": "718",
    "lat": 39.7683765,
    "long": -86.1580423
  },
  {
    "globaleventid": 264009217,
    "sqldate": 20130821,
    "monthyear": 201308,
    "year": 2013,
    "fractiondate": "2013.6329",
    "eventcode": 173,
    "quadclass": 4,
    "nummentions": 10,
    "numsources": 1,
    "numarticles": 10,
    "avgtone": "0.0",
    "sourceurl": "http://www.dailyjournal.net/view/story/df8fde64fb4749deb3009c75e3354f05/AR--Pinnacle-Mountain-Shooting/",
    "feature_id": "83350",
    "feature_name": "Little Rock",
    "state_alpha": "AR",
    "county_name": "Pulaski",
    "county_numeric": "119",
    "prim_lat_dec": "34.7464809",
    "prim_long_dec": "-92.2895948",
    "elev_in_m": "102",
    "elev_in_ft": "335",
    "lat": 34.7464809,
    "long": -92.2895948
  },
  {
    "globaleventid": 264009216,
    "sqldate": 20130821,
    "monthyear": 201308,
    "year": 2013,
    "fractiondate": "2013.6329",
    "eventcode": 173,
    "quadclass": 4,
    "nummentions": 1,
    "numsources": 1,
    "numarticles": 1,
    "avgtone": "2.41691842900302",
    "sourceurl": "http://www.sj-r.com/breaking/x1868830132/74-year-old-charged-with-stealing-electric-shopping-cart",
    "feature_id": "426595",
    "feature_name": "Springfield",
    "state_alpha": "IL",
    "county_name": "Sangamon",
    "county_numeric": "167",
    "prim_lat_dec": "39.8017171",
    "prim_long_dec": "-89.6437107",
    "elev_in_m": "183",
    "elev_in_ft": "600",
    "lat": 39.8017171,
    "long": -89.6437107
  },
  {
    "globaleventid": 264009214,
    "sqldate": 20130821,
    "monthyear": 201308,
    "year": 2013,
    "fractiondate": "2013.6329",
    "eventcode": 173,
    "quadclass": 4,
    "nummentions": 6,
    "numsources": 1,
    "numarticles": 6,
    "avgtone": "1.47058823529412",
    "sourceurl": "http://blogs.windsorstar.com/2013/08/21/tilbury-man-facing-felonies-after-deadly-crash-witnessed-by-victims-husband/",
    "feature_id": "1245842",
    "feature_name": "Greenville",
    "state_alpha": "SC",
    "county_name": "Greenville",
    "county_numeric": "045",
    "prim_lat_dec": "34.8526176",
    "prim_long_dec": "-82.3940105",
    "elev_in_m": "300",
    "elev_in_ft": "984",
    "lat": 34.8526176,
    "long": -82.3940105
  },
  {
    "globaleventid": 264009164,
    "sqldate": 20130821,
    "monthyear": 201308,
    "year": 2013,
    "fractiondate": "2013.6329",
    "eventcode": 193,
    "quadclass": 4,
    "nummentions": 3,
    "numsources": 2,
    "numarticles": 3,
    "avgtone": "0.528267127230858",
    "sourceurl": "http://www.inforum.com/event/article/id/409752/group/homepage/",
    "feature_id": "1029197",
    "feature_name": "Grand Forks",
    "state_alpha": "ND",
    "county_name": "Grand Forks",
    "county_numeric": "035",
    "prim_lat_dec": "47.9252568",
    "prim_long_dec": "-97.0328547",
    "elev_in_m": "253",
    "elev_in_ft": "830",
    "lat": 47.9252568,
    "long": -97.0328547
  },
  {
    "globaleventid": 264009143,
    "sqldate": 20130821,
    "monthyear": 201308,
    "year": 2013,
    "fractiondate": "2013.6329",
    "eventcode": 173,
    "quadclass": 4,
    "nummentions": 4,
    "numsources": 1,
    "numarticles": 4,
    "avgtone": "0.574712643678161",
    "sourceurl": "http://www.wboy.com/story/23213474/state-police-arrest-clarksburg-man-on-sex-related-charges",
    "feature_id": "1537358",
    "feature_name": "Clarksburg",
    "state_alpha": "WV",
    "county_name": "Harrison",
    "county_numeric": "033",
    "prim_lat_dec": "39.2806451",
    "prim_long_dec": "-80.3445341",
    "elev_in_m": "303",
    "elev_in_ft": "994",
    "lat": 39.2806451,
    "long": -80.3445341
  },
  {
    "globaleventid": 264009141,
    "sqldate": 20130821,
    "monthyear": 201308,
    "year": 2013,
    "fractiondate": "2013.6329",
    "eventcode": 173,
    "quadclass": 4,
    "nummentions": 1,
    "numsources": 1,
    "numarticles": 1,
    "avgtone": "0.32258064516129",
    "sourceurl": "http://www.digtriad.com/news/local/article/295908/57/Police-NC-Man-Tried-To-Eat-Counterfeit-Bills",
    "feature_id": "1328579",
    "feature_name": "Johnson City",
    "state_alpha": "TN",
    "county_name": "Washington",
    "county_numeric": "179",
    "prim_lat_dec": "36.3134397",
    "prim_long_dec": "-82.3534727",
    "elev_in_m": "498",
    "elev_in_ft": "1634",
    "lat": 36.3134397,
    "long": -82.3534727
  },
  {
    "globaleventid": 264009037,
    "sqldate": 20130821,
    "monthyear": 201308,
    "year": 2013,
    "fractiondate": "2013.6329",
    "eventcode": 173,
    "quadclass": 4,
    "nummentions": 10,
    "numsources": 1,
    "numarticles": 10,
    "avgtone": "0.882352941176471",
    "sourceurl": "http://napavalleyregister.com/star/news/local/st-helena-police-logs/article_ec3e6ff4-0a86-11e3-a6bb-0019bb2963f4.html",
    "feature_id": "617565",
    "feature_name": "Boston",
    "state_alpha": "MA",
    "county_name": "Suffolk",
    "county_numeric": "025",
    "prim_lat_dec": "42.3584308",
    "prim_long_dec": "-71.0597732",
    "elev_in_m": "14",
    "elev_in_ft": "46",
    "lat": 42.3584308,
    "long": -71.0597732
  },
  {
    "globaleventid": 264009033,
    "sqldate": 20130821,
    "monthyear": 201308,
    "year": 2013,
    "fractiondate": "2013.6329",
    "eventcode": 100,
    "quadclass": 3,
    "nummentions": 3,
    "numsources": 1,
    "numarticles": 3,
    "avgtone": "0.720461095100865",
    "sourceurl": "http://www.foxnews.com/world/2013/08/20/partner-snowden-leaks-journalist-sues-uk/",
    "feature_id": "531871",
    "feature_name": "Washington",
    "state_alpha": "DC",
    "county_name": "District of Columbia",
    "county_numeric": "001",
    "prim_lat_dec": "38.8951118",
    "prim_long_dec": "-77.0363658",
    "elev_in_m": "7",
    "elev_in_ft": "23",
    "lat": 38.8951118,
    "long": -77.0363658
  },
  {
    "globaleventid": 264008882,
    "sqldate": 20130821,
    "monthyear": 201308,
    "year": 2013,
    "fractiondate": "2013.6329",
    "eventcode": 175,
    "quadclass": 4,
    "nummentions": 4,
    "numsources": 1,
    "numarticles": 4,
    "avgtone": "3.470715835141",
    "sourceurl": "http://www.reuters.com/article/2013/08/21/us-egypt-protests-idUSBRE97C09A20130821?feedType=RSS&feedName=worldNews",
    "feature_id": "531871",
    "feature_name": "Washington",
    "state_alpha": "DC",
    "county_name": "District of Columbia",
    "county_numeric": "001",
    "prim_lat_dec": "38.8951118",
    "prim_long_dec": "-77.0363658",
    "elev_in_m": "7",
    "elev_in_ft": "23",
    "lat": 38.8951118,
    "long": -77.0363658
  },
  {
    "globaleventid": 264008837,
    "sqldate": 20130821,
    "monthyear": 201308,
    "year": 2013,
    "fractiondate": "2013.6329",
    "eventcode": 202,
    "quadclass": 4,
    "nummentions": 2,
    "numsources": 1,
    "numarticles": 2,
    "avgtone": "1.0",
    "sourceurl": "http://fox43.com/2013/08/21/georgia-school-employee-hailed-as-real-hero-for-talking-gunman-into-giving-up/",
    "feature_id": "210639",
    "feature_name": "Sandy Hook",
    "state_alpha": "CT",
    "county_name": "Fairfield",
    "county_numeric": "001",
    "prim_lat_dec": "41.4200956",
    "prim_long_dec": "-73.2820608",
    "elev_in_m": "72",
    "elev_in_ft": "236",
    "lat": 41.4200956,
    "long": -73.2820608
  },
  {
    "globaleventid": 264008835,
    "sqldate": 20130821,
    "monthyear": 201308,
    "year": 2013,
    "fractiondate": "2013.6329",
    "eventcode": 112,
    "quadclass": 3,
    "nummentions": 2,
    "numsources": 1,
    "numarticles": 2,
    "avgtone": "1.04529616724739",
    "sourceurl": "http://www.walb.com/story/23221414/valdosta-student-charged-after-injuring-teacher",
    "feature_id": "324649",
    "feature_name": "Valdosta",
    "state_alpha": "GA",
    "county_name": "Lowndes",
    "county_numeric": "185",
    "prim_lat_dec": "30.8327022",
    "prim_long_dec": "-83.2784851",
    "elev_in_m": "67",
    "elev_in_ft": "220",
    "lat": 30.8327022,
    "long": -83.2784851
  },
  {
    "globaleventid": 264008828,
    "sqldate": 20130821,
    "monthyear": 201308,
    "year": 2013,
    "fractiondate": "2013.6329",
    "eventcode": 193,
    "quadclass": 4,
    "nummentions": 6,
    "numsources": 1,
    "numarticles": 6,
    "avgtone": "0.408163265306122",
    "sourceurl": "http://www.iol.co.za/news/world/georgia-suspect-had-nearly-500-rounds-1.1566178",
    "feature_id": "351615",
    "feature_name": "Atlanta",
    "state_alpha": "GA",
    "county_name": "Fulton",
    "county_numeric": "121",
    "prim_lat_dec": "33.7489954",
    "prim_long_dec": "-84.3879824",
    "elev_in_m": "320",
    "elev_in_ft": "1050",
    "lat": 33.7489954,
    "long": -84.3879824
  },
  {
    "globaleventid": 264008827,
    "sqldate": 20130821,
    "monthyear": 201308,
    "year": 2013,
    "fractiondate": "2013.6329",
    "eventcode": 193,
    "quadclass": 4,
    "nummentions": 1,
    "numsources": 1,
    "numarticles": 1,
    "avgtone": "4.16141235813367",
    "sourceurl": "http://blogs.edweek.org/edweek/rulesforengagement/2013/08/why_is_maintaining_a_school_safety_plan_so_hard.html",
    "feature_id": "331532",
    "feature_name": "Decatur",
    "state_alpha": "GA",
    "county_name": "DeKalb",
    "county_numeric": "089",
    "prim_lat_dec": "33.7748275",
    "prim_long_dec": "-84.2963123",
    "elev_in_m": "318",
    "elev_in_ft": "1043",
    "lat": 33.7748275,
    "long": -84.2963123
  },
  {
    "globaleventid": 264008823,
    "sqldate": 20130821,
    "monthyear": 201308,
    "year": 2013,
    "fractiondate": "2013.6329",
    "eventcode": 193,
    "quadclass": 4,
    "nummentions": 10,
    "numsources": 1,
    "numarticles": 10,
    "avgtone": "2.15646940822467",
    "sourceurl": "http://usnews.nbcnews.com/_news/2013/08/21/20118311-authorities-georgia-shooting-suspect-had-nearly-500-rounds-of-ammunition",
    "feature_id": "1500025",
    "feature_name": "Sandy Hook",
    "state_alpha": "VA",
    "county_name": "Goochland",
    "county_numeric": "075",
    "prim_lat_dec": "37.7526452",
    "prim_long_dec": "-77.9124958",
    "elev_in_m": "109",
    "elev_in_ft": "358",
    "lat": 37.7526452,
    "long": -77.9124958
  },
  {
    "globaleventid": 264008819,
    "sqldate": 20130821,
    "monthyear": 201308,
    "year": 2013,
    "fractiondate": "2013.6329",
    "eventcode": 190,
    "quadclass": 4,
    "nummentions": 1,
    "numsources": 1,
    "numarticles": 1,
    "avgtone": "4.16141235813367",
    "sourceurl": "http://blogs.edweek.org/edweek/rulesforengagement/2013/08/why_is_maintaining_a_school_safety_plan_so_hard.html",
    "feature_id": "331532",
    "feature_name": "Decatur",
    "state_alpha": "GA",
    "county_name": "DeKalb",
    "county_numeric": "089",
    "prim_lat_dec": "33.7748275",
    "prim_long_dec": "-84.2963123",
    "elev_in_m": "318",
    "elev_in_ft": "1043",
    "lat": 33.7748275,
    "long": -84.2963123
  },
  {
    "globaleventid": 264008815,
    "sqldate": 20130821,
    "monthyear": 201308,
    "year": 2013,
    "fractiondate": "2013.6329",
    "eventcode": 190,
    "quadclass": 4,
    "nummentions": 10,
    "numsources": 1,
    "numarticles": 10,
    "avgtone": "2.15646940822467",
    "sourceurl": "http://usnews.nbcnews.com/_news/2013/08/21/20118311-authorities-georgia-shooting-suspect-had-nearly-500-rounds-of-ammunition",
    "feature_id": "1500025",
    "feature_name": "Sandy Hook",
    "state_alpha": "VA",
    "county_name": "Goochland",
    "county_numeric": "075",
    "prim_lat_dec": "37.7526452",
    "prim_long_dec": "-77.9124958",
    "elev_in_m": "109",
    "elev_in_ft": "358",
    "lat": 37.7526452,
    "long": -77.9124958
  },
  {
    "globaleventid": 264008808,
    "sqldate": 20130821,
    "monthyear": 201308,
    "year": 2013,
    "fractiondate": "2013.6329",
    "eventcode": 182,
    "quadclass": 4,
    "nummentions": 12,
    "numsources": 2,
    "numarticles": 12,
    "avgtone": "1.40301605414338",
    "sourceurl": "http://www.thecourierexpress.com/news/national/article_7c87fca0-b426-5cb9-bf98-cd3ef0a3e6e3.html",
    "feature_id": "351615",
    "feature_name": "Atlanta",
    "state_alpha": "GA",
    "county_name": "Fulton",
    "county_numeric": "121",
    "prim_lat_dec": "33.7489954",
    "prim_long_dec": "-84.3879824",
    "elev_in_m": "320",
    "elev_in_ft": "1050",
    "lat": 33.7489954,
    "long": -84.3879824
  },
  {
    "globaleventid": 264008804,
    "sqldate": 20130821,
    "monthyear": 201308,
    "year": 2013,
    "fractiondate": "2013.6329",
    "eventcode": 173,
    "quadclass": 4,
    "nummentions": 1,
    "numsources": 1,
    "numarticles": 1,
    "avgtone": "2.5974025974026",
    "sourceurl": "http://www.hawaiinewsnow.com/story/23212387/elementary-school-student-arrested-in-kalihi",
    "feature_id": "366212",
    "feature_name": "Honolulu",
    "state_alpha": "HI",
    "county_name": "Honolulu",
    "county_numeric": "003",
    "prim_lat_dec": "21.3069444",
    "prim_long_dec": "-157.8583333",
    "elev_in_m": "5",
    "elev_in_ft": "16",
    "lat": 21.3069444,
    "long": -157.8583333
  },
  {
    "globaleventid": 264008803,
    "sqldate": 20130821,
    "monthyear": 201308,
    "year": 2013,
    "fractiondate": "2013.6329",
    "eventcode": 173,
    "quadclass": 4,
    "nummentions": 2,
    "numsources": 1,
    "numarticles": 2,
    "avgtone": "1.04529616724739",
    "sourceurl": "http://www.walb.com/story/23221414/valdosta-student-charged-after-injuring-teacher",
    "feature_id": "324649",
    "feature_name": "Valdosta",
    "state_alpha": "GA",
    "county_name": "Lowndes",
    "county_numeric": "185",
    "prim_lat_dec": "30.8327022",
    "prim_long_dec": "-83.2784851",
    "elev_in_m": "67",
    "elev_in_ft": "220",
    "lat": 30.8327022,
    "long": -83.2784851
  },
  {
    "globaleventid": 264109479,
    "sqldate": 20130821,
    "monthyear": 201308,
    "year": 2013,
    "fractiondate": "2013.6329",
    "eventcode": 195,
    "quadclass": 4,
    "nummentions": 1,
    "numsources": 1,
    "numarticles": 1,
    "avgtone": "2.83505154639175",
    "sourceurl": "http://www.thepublicopinion.com/news/associated_press/national/us/article_c4353533-e401-517f-b73d-d1a3dcb0f5a4.html",
    "feature_id": "968914",
    "feature_name": "Watertown",
    "state_alpha": "NY",
    "county_name": "Jefferson",
    "county_numeric": "045",
    "prim_lat_dec": "43.9747838",
    "prim_long_dec": "-75.9107565",
    "elev_in_m": "142",
    "elev_in_ft": "466",
    "lat": 43.9747838,
    "long": -75.9107565
  },
  {
    "globaleventid": 264109474,
    "sqldate": 20130821,
    "monthyear": 201308,
    "year": 2013,
    "fractiondate": "2013.6329",
    "eventcode": 195,
    "quadclass": 4,
    "nummentions": 1,
    "numsources": 1,
    "numarticles": 1,
    "avgtone": "2.68948655256724",
    "sourceurl": "http://www.boston.com/news/nation/2013/08/21/look-pfc-bradley-manning-court-martial/O4ZDXEJ688LhbDx3a059WL/story.html",
    "feature_id": "617565",
    "feature_name": "Boston",
    "state_alpha": "MA",
    "county_name": "Suffolk",
    "county_numeric": "025",
    "prim_lat_dec": "42.3584308",
    "prim_long_dec": "-71.0597732",
    "elev_in_m": "14",
    "elev_in_ft": "46",
    "lat": 42.3584308,
    "long": -71.0597732
  },
  {
    "globaleventid": 264109472,
    "sqldate": 20130821,
    "monthyear": 201308,
    "year": 2013,
    "fractiondate": "2013.6329",
    "eventcode": 195,
    "quadclass": 4,
    "nummentions": 2,
    "numsources": 1,
    "numarticles": 2,
    "avgtone": "1.51975683890578",
    "sourceurl": "http://www.onlinesentinel.com/news/Skowhegan-demonstrators-protest-against-35-year-sentence-for-Bradley-Manning.html",
    "feature_id": "577893",
    "feature_name": "Waterville",
    "state_alpha": "ME",
    "county_name": "Kennebec",
    "county_numeric": "011",
    "prim_lat_dec": "44.5520105",
    "prim_long_dec": "-69.6317121",
    "elev_in_m": "33",
    "elev_in_ft": "108",
    "lat": 44.5520105,
    "long": -69.6317121
  },
  {
    "globaleventid": 264109470,
    "sqldate": 20130821,
    "monthyear": 201308,
    "year": 2013,
    "fractiondate": "2013.6329",
    "eventcode": 195,
    "quadclass": 4,
    "nummentions": 2,
    "numsources": 1,
    "numarticles": 2,
    "avgtone": "1.51975683890578",
    "sourceurl": "http://www.kjonline.com/news/Skowhegan-demonstrators-protest-against-35-year-sentence-for-Bradley-Manning.html",
    "feature_id": "569106",
    "feature_name": "Kennebec",
    "state_alpha": "ME",
    "county_name": "Washington",
    "county_numeric": "029",
    "prim_lat_dec": "44.6684111",
    "prim_long_dec": "-67.46388",
    "elev_in_m": "5",
    "elev_in_ft": "16",
    "lat": 44.6684111,
    "long": -67.46388
  },
  {
    "globaleventid": 264109467,
    "sqldate": 20130821,
    "monthyear": 201308,
    "year": 2013,
    "fractiondate": "2013.6329",
    "eventcode": 195,
    "quadclass": 4,
    "nummentions": 8,
    "numsources": 3,
    "numarticles": 8,
    "avgtone": "2.34660154004059",
    "sourceurl": "http://www.kasa.com/dpp/news/national/A-look-at-Bradley-Mannings-trial-in-US_01206147",
    "feature_id": "531871",
    "feature_name": "Washington",
    "state_alpha": "DC",
    "county_name": "District of Columbia",
    "county_numeric": "001",
    "prim_lat_dec": "38.8951118",
    "prim_long_dec": "-77.0363658",
    "elev_in_m": "7",
    "elev_in_ft": "23",
    "lat": 38.8951118,
    "long": -77.0363658
  },
  {
    "globaleventid": 264109461,
    "sqldate": 20130821,
    "monthyear": 201308,
    "year": 2013,
    "fractiondate": "2013.6329",
    "eventcode": 195,
    "quadclass": 4,
    "nummentions": 1,
    "numsources": 1,
    "numarticles": 1,
    "avgtone": "2.89389067524116",
    "sourceurl": "http://www.lakewyliepilot.com/2013/08/21/2033100/a-look-at-pfc-bradley-mannings.html",
    "feature_id": "1233775",
    "feature_name": "Lake Wylie",
    "state_alpha": "SC",
    "county_name": "York",
    "county_numeric": "091",
    "prim_lat_dec": "35.108476",
    "prim_long_dec": "-81.0428538",
    "elev_in_m": "179",
    "elev_in_ft": "587",
    "lat": 35.108476,
    "long": -81.0428538
  },
  {
    "globaleventid": 264109453,
    "sqldate": 20130821,
    "monthyear": 201308,
    "year": 2013,
    "fractiondate": "2013.6329",
    "eventcode": 193,
    "quadclass": 4,
    "nummentions": 6,
    "numsources": 1,
    "numarticles": 6,
    "avgtone": "0.4",
    "sourceurl": "http://www.arktimes.com/ArkansasBlog/archives/2013/08/21/suspect-identified-in-pinnacle-mountain-shooting",
    "feature_id": "83350",
    "feature_name": "Little Rock",
    "state_alpha": "AR",
    "county_name": "Pulaski",
    "county_numeric": "119",
    "prim_lat_dec": "34.7464809",
    "prim_long_dec": "-92.2895948",
    "elev_in_m": "102",
    "elev_in_ft": "335",
    "lat": 34.7464809,
    "long": -92.2895948
  },
  {
    "globaleventid": 264109448,
    "sqldate": 20130821,
    "monthyear": 201308,
    "year": 2013,
    "fractiondate": "2013.6329",
    "eventcode": 190,
    "quadclass": 4,
    "nummentions": 6,
    "numsources": 1,
    "numarticles": 6,
    "avgtone": "2.56410256410256",
    "sourceurl": "http://www.ctpost.com/news/us/article/Las-Vegas-newspapers-battling-over-joint-operation-4749757.php",
    "feature_id": "847388",
    "feature_name": "Las Vegas",
    "state_alpha": "NV",
    "county_name": "Clark",
    "county_numeric": "003",
    "prim_lat_dec": "36.1749705",
    "prim_long_dec": "-115.137223",
    "elev_in_m": "610",
    "elev_in_ft": "2001",
    "lat": 36.1749705,
    "long": -115.137223
  },
  {
    "globaleventid": 264109446,
    "sqldate": 20130821,
    "monthyear": 201308,
    "year": 2013,
    "fractiondate": "2013.6329",
    "eventcode": 190,
    "quadclass": 4,
    "nummentions": 6,
    "numsources": 3,
    "numarticles": 6,
    "avgtone": "2.97196864605241",
    "sourceurl": "http://news.findlaw.com/apnews/8698e3b23cce410c8b140110140d1627&c=84bPkU4M-0xS-JU00CTVrFXXAwDPUJVO17-wgZr7Mbc&mkt=en-us",
    "feature_id": "847388",
    "feature_name": "Las Vegas",
    "state_alpha": "NV",
    "county_name": "Clark",
    "county_numeric": "003",
    "prim_lat_dec": "36.1749705",
    "prim_long_dec": "-115.137223",
    "elev_in_m": "610",
    "elev_in_ft": "2001",
    "lat": 36.1749705,
    "long": -115.137223
  },
  {
    "globaleventid": 264109445,
    "sqldate": 20130821,
    "monthyear": 201308,
    "year": 2013,
    "fractiondate": "2013.6329",
    "eventcode": 190,
    "quadclass": 4,
    "nummentions": 1,
    "numsources": 1,
    "numarticles": 1,
    "avgtone": "0.0",
    "sourceurl": "http://news.yahoo.com/white-house-calls-u-n-probe-alleged-syria-161800158.html",
    "feature_id": "531871",
    "feature_name": "Washington",
    "state_alpha": "DC",
    "county_name": "District of Columbia",
    "county_numeric": "001",
    "prim_lat_dec": "38.8951118",
    "prim_long_dec": "-77.0363658",
    "elev_in_m": "7",
    "elev_in_ft": "23",
    "lat": 38.8951118,
    "long": -77.0363658
  },
  {
    "globaleventid": 264109438,
    "sqldate": 20130821,
    "monthyear": 201308,
    "year": 2013,
    "fractiondate": "2013.6329",
    "eventcode": 152,
    "quadclass": 4,
    "nummentions": 2,
    "numsources": 1,
    "numarticles": 2,
    "avgtone": "2.74669379450661",
    "sourceurl": "http://lacrossetribune.com/houstonconews/news/local/county-approves-full-time--h-coordinator/article_1f5d16b4-09d9-11e3-aa7e-001a4bcf887a.html",
    "feature_id": "646292",
    "feature_name": "La Crescent",
    "state_alpha": "MN",
    "county_name": "Houston",
    "county_numeric": "055",
    "prim_lat_dec": "43.8280216",
    "prim_long_dec": "-91.3040274",
    "elev_in_m": "209",
    "elev_in_ft": "686",
    "lat": 43.8280216,
    "long": -91.3040274
  },
  {
    "globaleventid": 264109429,
    "sqldate": 20130821,
    "monthyear": 201308,
    "year": 2013,
    "fractiondate": "2013.6329",
    "eventcode": 112,
    "quadclass": 3,
    "nummentions": 10,
    "numsources": 3,
    "numarticles": 10,
    "avgtone": "3.19901692126242",
    "sourceurl": "http://buenosairesherald.com/article/138905/turkish-pm-says-israel-is-behind-morsi%E2%80%99s-ouster",
    "feature_id": "531871",
    "feature_name": "Washington",
    "state_alpha": "DC",
    "county_name": "District of Columbia",
    "county_numeric": "001",
    "prim_lat_dec": "38.8951118",
    "prim_long_dec": "-77.0363658",
    "elev_in_m": "7",
    "elev_in_ft": "23",
    "lat": 38.8951118,
    "long": -77.0363658
  },
  {
    "globaleventid": 264109428,
    "sqldate": 20130821,
    "monthyear": 201308,
    "year": 2013,
    "fractiondate": "2013.6329",
    "eventcode": 112,
    "quadclass": 3,
    "nummentions": 1,
    "numsources": 1,
    "numarticles": 1,
    "avgtone": "0.4739336492891",
    "sourceurl": "http://www.ibtimes.com/florida-man-allegedly-threatened-moms-boyfriend-samurai-sword-over-missing-shrimp-jayson-laughman",
    "feature_id": "288240",
    "feature_name": "Orlando",
    "state_alpha": "FL",
    "county_name": "Orange",
    "county_numeric": "095",
    "prim_lat_dec": "28.5383355",
    "prim_long_dec": "-81.3792365",
    "elev_in_m": "31",
    "elev_in_ft": "102",
    "lat": 28.5383355,
    "long": -81.3792365
  },
  {
    "globaleventid": 264109427,
    "sqldate": 20130821,
    "monthyear": 201308,
    "year": 2013,
    "fractiondate": "2013.6329",
    "eventcode": 112,
    "quadclass": 3,
    "nummentions": 1,
    "numsources": 1,
    "numarticles": 1,
    "avgtone": "0.4739336492891",
    "sourceurl": "http://www.ibtimes.com/florida-man-allegedly-threatened-moms-boyfriend-samurai-sword-over-missing-shrimp-jayson-laughman",
    "feature_id": "281490",
    "feature_name": "Deltona",
    "state_alpha": "FL",
    "county_name": "Volusia",
    "county_numeric": "127",
    "prim_lat_dec": "28.9005446",
    "prim_long_dec": "-81.2636738",
    "elev_in_m": "10",
    "elev_in_ft": "33",
    "lat": 28.9005446,
    "long": -81.2636738
  },
  {
    "globaleventid": 264109425,
    "sqldate": 20130821,
    "monthyear": 201308,
    "year": 2013,
    "fractiondate": "2013.6329",
    "eventcode": 111,
    "quadclass": 3,
    "nummentions": 4,
    "numsources": 1,
    "numarticles": 4,
    "avgtone": "2.30040595399188",
    "sourceurl": "http://www.israelhayom.com/site/newsletter_article.php?id=11495",
    "feature_id": "531871",
    "feature_name": "Washington",
    "state_alpha": "DC",
    "county_name": "District of Columbia",
    "county_numeric": "001",
    "prim_lat_dec": "38.8951118",
    "prim_long_dec": "-77.0363658",
    "elev_in_m": "7",
    "elev_in_ft": "23",
    "lat": 38.8951118,
    "long": -77.0363658
  },
  {
    "globaleventid": 264109424,
    "sqldate": 20130821,
    "monthyear": 201308,
    "year": 2013,
    "fractiondate": "2013.6329",
    "eventcode": 111,
    "quadclass": 3,
    "nummentions": 2,
    "numsources": 1,
    "numarticles": 2,
    "avgtone": "2.7002700270027",
    "sourceurl": "http://www.newswithviews.com/Kincaid/cliff748.htm",
    "feature_id": "529313",
    "feature_name": "Capitol Hill",
    "state_alpha": "DC",
    "county_name": "District of Columbia",
    "county_numeric": "001",
    "prim_lat_dec": "38.8890009",
    "prim_long_dec": "-77.0002537",
    "elev_in_m": "28",
    "elev_in_ft": "92",
    "lat": 38.8890009,
    "long": -77.0002537
  },
  {
    "globaleventid": 264109422,
    "sqldate": 20130821,
    "monthyear": 201308,
    "year": 2013,
    "fractiondate": "2013.6329",
    "eventcode": 110,
    "quadclass": 3,
    "nummentions": 3,
    "numsources": 1,
    "numarticles": 3,
    "avgtone": "2.52225519287834",
    "sourceurl": "http://www.therepublic.com/view/story/6e6d4466448a439ea8de65e0b5770647/MA--Massachusetts-Governor",
    "feature_id": "617565",
    "feature_name": "Boston",
    "state_alpha": "MA",
    "county_name": "Suffolk",
    "county_numeric": "025",
    "prim_lat_dec": "42.3584308",
    "prim_long_dec": "-71.0597732",
    "elev_in_m": "14",
    "elev_in_ft": "46",
    "lat": 42.3584308,
    "long": -71.0597732
  },
  {
    "globaleventid": 264109421,
    "sqldate": 20130821,
    "monthyear": 201308,
    "year": 2013,
    "fractiondate": "2013.6329",
    "eventcode": 110,
    "quadclass": 3,
    "nummentions": 3,
    "numsources": 1,
    "numarticles": 3,
    "avgtone": "2.57731958762887",
    "sourceurl": "http://www.kansas.com/2013/08/21/2954981/democrat-kayyem-announces-bid.html",
    "feature_id": "615940",
    "feature_name": "Harwich",
    "state_alpha": "MA",
    "county_name": "Barnstable",
    "county_numeric": "001",
    "prim_lat_dec": "41.6862224",
    "prim_long_dec": "-70.0758508",
    "elev_in_m": "18",
    "elev_in_ft": "59",
    "lat": 41.6862224,
    "long": -70.0758508
  },
  {
    "globaleventid": 264109238,
    "sqldate": 20130821,
    "monthyear": 201308,
    "year": 2013,
    "fractiondate": "2013.6329",
    "eventcode": 173,
    "quadclass": 4,
    "nummentions": 2,
    "numsources": 1,
    "numarticles": 2,
    "avgtone": "4.47761194029851",
    "sourceurl": "http://www.wtvm.com/story/23221794/congressman-sanford-bishop-visits-columbus-house-of-mercy",
    "feature_id": "331443",
    "feature_name": "Columbus",
    "state_alpha": "GA",
    "county_name": "Muscogee",
    "county_numeric": "215",
    "prim_lat_dec": "32.4609764",
    "prim_long_dec": "-84.9877094",
    "elev_in_m": "74",
    "elev_in_ft": "243",
    "lat": 32.4609764,
    "long": -84.9877094
  },
  {
    "globaleventid": 264109227,
    "sqldate": 20130821,
    "monthyear": 201308,
    "year": 2013,
    "fractiondate": "2013.6329",
    "eventcode": 120,
    "quadclass": 3,
    "nummentions": 4,
    "numsources": 1,
    "numarticles": 4,
    "avgtone": "0.413223140495868",
    "sourceurl": "http://www.mysanantonio.com/news/article/SD-lawmakers-reject-rules-on-raw-milk-sales-4750186.php",
    "feature_id": "1380951",
    "feature_name": "San Antonio",
    "state_alpha": "TX",
    "county_name": "Bexar",
    "county_numeric": "029",
    "prim_lat_dec": "29.4241219",
    "prim_long_dec": "-98.4936282",
    "elev_in_m": "198",
    "elev_in_ft": "650",
    "lat": 29.4241219,
    "long": -98.4936282
  },
  {
    "globaleventid": 264109226,
    "sqldate": 20130821,
    "monthyear": 201308,
    "year": 2013,
    "fractiondate": "2013.6329",
    "eventcode": 120,
    "quadclass": 3,
    "nummentions": 4,
    "numsources": 1,
    "numarticles": 4,
    "avgtone": "3.7037037037037",
    "sourceurl": "http://www.lakewyliepilot.com/2013/08/20/2032146/fla-lawmakers-reject-stand-your.html",
    "feature_id": "1233775",
    "feature_name": "Lake Wylie",
    "state_alpha": "SC",
    "county_name": "York",
    "county_numeric": "091",
    "prim_lat_dec": "35.108476",
    "prim_long_dec": "-81.0428538",
    "elev_in_m": "179",
    "elev_in_ft": "587",
    "lat": 35.108476,
    "long": -81.0428538
  },
  {
    "globaleventid": 264109225,
    "sqldate": 20130821,
    "monthyear": 201308,
    "year": 2013,
    "fractiondate": "2013.6329",
    "eventcode": 120,
    "quadclass": 3,
    "nummentions": 8,
    "numsources": 1,
    "numarticles": 8,
    "avgtone": "3.5377358490566",
    "sourceurl": "http://www.blufftontoday.com/bluffton-opinion/2013-08-21/dont-bet-catawba-casino-across-border-nc",
    "feature_id": "1005554",
    "feature_name": "Carolina",
    "state_alpha": "NC",
    "county_name": "Gaston",
    "county_numeric": "071",
    "prim_lat_dec": "35.3884665",
    "prim_long_dec": "-81.3714737",
    "elev_in_m": "284",
    "elev_in_ft": "932",
    "lat": 35.3884665,
    "long": -81.3714737
  },
  {
    "globaleventid": 264109213,
    "sqldate": 20130821,
    "monthyear": 201308,
    "year": 2013,
    "fractiondate": "2013.6329",
    "eventcode": 110,
    "quadclass": 3,
    "nummentions": 6,
    "numsources": 1,
    "numarticles": 6,
    "avgtone": "2.51889168765743",
    "sourceurl": "http://www.heraldonline.com/2013/08/20/5131149/mcconnell-focuses-on-bevins-educational.html",
    "feature_id": "531871",
    "feature_name": "Washington",
    "state_alpha": "DC",
    "county_name": "District of Columbia",
    "county_numeric": "001",
    "prim_lat_dec": "38.8951118",
    "prim_long_dec": "-77.0363658",
    "elev_in_m": "7",
    "elev_in_ft": "23",
    "lat": 38.8951118,
    "long": -77.0363658
  },
  {
    "globaleventid": 264109212,
    "sqldate": 20130821,
    "monthyear": 201308,
    "year": 2013,
    "fractiondate": "2013.6329",
    "eventcode": 110,
    "quadclass": 3,
    "nummentions": 2,
    "numsources": 1,
    "numarticles": 2,
    "avgtone": "3.1496062992126",
    "sourceurl": "http://www.bayoubuzz.com/louisiana-news/new-orleans-news/item/521950-conservative-poll-hillary-clinton-would-beat-bobby-jindal-i",
    "feature_id": "1629914",
    "feature_name": "Baton Rouge",
    "state_alpha": "LA",
    "county_name": "East Baton Rouge",
    "county_numeric": "033",
    "prim_lat_dec": "30.4507462",
    "prim_long_dec": "-91.154551",
    "elev_in_m": "14",
    "elev_in_ft": "46",
    "lat": 30.4507462,
    "long": -91.154551
  },
  {
    "globaleventid": 264109210,
    "sqldate": 20130821,
    "monthyear": 201308,
    "year": 2013,
    "fractiondate": "2013.6329",
    "eventcode": 100,
    "quadclass": 3,
    "nummentions": 1,
    "numsources": 1,
    "numarticles": 1,
    "avgtone": "0.617283950617284",
    "sourceurl": "http://www.wdio.com/article/stories/S3136237.shtml?cat=10335",
    "feature_id": "641106",
    "feature_name": "Chanhassen",
    "state_alpha": "MN",
    "county_name": "Carver",
    "county_numeric": "019",
    "prim_lat_dec": "44.8621853",
    "prim_long_dec": "-93.5307883",
    "elev_in_m": "297",
    "elev_in_ft": "974",
    "lat": 44.8621853,
    "long": -93.5307883
  },
  {
    "globaleventid": 264109107,
    "sqldate": 20130821,
    "monthyear": 201308,
    "year": 2013,
    "fractiondate": "2013.6329",
    "eventcode": 193,
    "quadclass": 4,
    "nummentions": 8,
    "numsources": 1,
    "numarticles": 8,
    "avgtone": "0.0",
    "sourceurl": "http://www.ctpost.com/news/crime/article/Suspect-in-Denver-shooting-is-fired-city-employee-4751209.php",
    "feature_id": "201738",
    "feature_name": "Denver",
    "state_alpha": "CO",
    "county_name": "Denver",
    "county_numeric": "031",
    "prim_lat_dec": "39.7391536",
    "prim_long_dec": "-104.9847034",
    "elev_in_m": "1609",
    "elev_in_ft": "5279",
    "lat": 39.7391536,
    "long": -104.9847034
  },
  {
    "globaleventid": 264109103,
    "sqldate": 20130821,
    "monthyear": 201308,
    "year": 2013,
    "fractiondate": "2013.6329",
    "eventcode": 112,
    "quadclass": 3,
    "nummentions": 2,
    "numsources": 1,
    "numarticles": 2,
    "avgtone": "2.65486725663717",
    "sourceurl": "http://www.ctpost.com/news/crime/article/Citibank-employee-accused-of-stealing-card-numbers-4749812.php",
    "feature_id": "1267670",
    "feature_name": "Sioux Falls",
    "state_alpha": "SD",
    "county_name": "Minnehaha",
    "county_numeric": "099",
    "prim_lat_dec": "43.5499749",
    "prim_long_dec": "-96.700327",
    "elev_in_m": "449",
    "elev_in_ft": "1473",
    "lat": 43.5499749,
    "long": -96.700327
  },
  {
    "globaleventid": 264109102,
    "sqldate": 20130821,
    "monthyear": 201308,
    "year": 2013,
    "fractiondate": "2013.6329",
    "eventcode": 112,
    "quadclass": 3,
    "nummentions": 2,
    "numsources": 1,
    "numarticles": 2,
    "avgtone": "1.27388535031847",
    "sourceurl": "http://hamptonroads.com/node/687315",
    "feature_id": "1500261",
    "feature_name": "Virginia Beach",
    "state_alpha": "VA",
    "county_name": "Virginia Beach (city)",
    "county_numeric": "810",
    "prim_lat_dec": "36.8529263",
    "prim_long_dec": "-75.977985",
    "elev_in_m": "3",
    "elev_in_ft": "10",
    "lat": 36.8529263,
    "long": -75.977985
  },
  {
    "globaleventid": 264109101,
    "sqldate": 20130821,
    "monthyear": 201308,
    "year": 2013,
    "fractiondate": "2013.6329",
    "eventcode": 112,
    "quadclass": 3,
    "nummentions": 6,
    "numsources": 2,
    "numarticles": 6,
    "avgtone": "2.53104628719182",
    "sourceurl": "http://www.ctpost.com/news/crime/article/Citibank-employee-accused-of-stealing-card-numbers-4749812.php",
    "feature_id": "1267670",
    "feature_name": "Sioux Falls",
    "state_alpha": "SD",
    "county_name": "Minnehaha",
    "county_numeric": "099",
    "prim_lat_dec": "43.5499749",
    "prim_long_dec": "-96.700327",
    "elev_in_m": "449",
    "elev_in_ft": "1473",
    "lat": 43.5499749,
    "long": -96.700327
  },
  {
    "globaleventid": 264109096,
    "sqldate": 20130821,
    "monthyear": 201308,
    "year": 2013,
    "fractiondate": "2013.6329",
    "eventcode": 193,
    "quadclass": 4,
    "nummentions": 4,
    "numsources": 1,
    "numarticles": 4,
    "avgtone": "1.72786177105832",
    "sourceurl": "http://www.abcactionnews.com/dpp/news/region_tampa/father-of-chechen-man-shot-during-an-fbi-interrogation-meets-in-tampa-with-the-us-attorney",
    "feature_id": "617565",
    "feature_name": "Boston",
    "state_alpha": "MA",
    "county_name": "Suffolk",
    "county_numeric": "025",
    "prim_lat_dec": "42.3584308",
    "prim_long_dec": "-71.0597732",
    "elev_in_m": "14",
    "elev_in_ft": "46",
    "lat": 42.3584308,
    "long": -71.0597732
  },
  {
    "globaleventid": 264109092,
    "sqldate": 20130821,
    "monthyear": 201308,
    "year": 2013,
    "fractiondate": "2013.6329",
    "eventcode": 190,
    "quadclass": 4,
    "nummentions": 2,
    "numsources": 1,
    "numarticles": 2,
    "avgtone": "1.64533820840951",
    "sourceurl": "http://www.mlive.com/news/flint/index.ssf/2013/08/imprisoned_killer_pleads_guilt.html",
    "feature_id": "636239",
    "feature_name": "Roseville",
    "state_alpha": "MI",
    "county_name": "Macomb",
    "county_numeric": "099",
    "prim_lat_dec": "42.4972583",
    "prim_long_dec": "-82.9371409",
    "elev_in_m": "188",
    "elev_in_ft": "617",
    "lat": 42.4972583,
    "long": -82.9371409
  },
  {
    "globaleventid": 264109083,
    "sqldate": 20130821,
    "monthyear": 201308,
    "year": 2013,
    "fractiondate": "2013.6329",
    "eventcode": 180,
    "quadclass": 4,
    "nummentions": 2,
    "numsources": 1,
    "numarticles": 2,
    "avgtone": "0.671140939597315",
    "sourceurl": "http://www.dailyjournal.net/view/story/32b0d827d15b4aac9c689b578a3e38ae/AK--Nikiski-Assault/",
    "feature_id": "1416651",
    "feature_name": "Nikiski",
    "state_alpha": "AK",
    "county_name": "Kenai Peninsula",
    "county_numeric": "122",
    "prim_lat_dec": "60.6902778",
    "prim_long_dec": "-151.2888889",
    "elev_in_m": "41",
    "elev_in_ft": "135",
    "lat": 60.6902778,
    "long": -151.2888889
  },
  {
    "globaleventid": 264109076,
    "sqldate": 20130821,
    "monthyear": 201308,
    "year": 2013,
    "fractiondate": "2013.6329",
    "eventcode": 173,
    "quadclass": 4,
    "nummentions": 1,
    "numsources": 1,
    "numarticles": 1,
    "avgtone": "1.64533820840951",
    "sourceurl": "http://www.mlive.com/news/flint/index.ssf/2013/08/imprisoned_killer_pleads_guilt.html",
    "feature_id": "636239",
    "feature_name": "Roseville",
    "state_alpha": "MI",
    "county_name": "Macomb",
    "county_numeric": "099",
    "prim_lat_dec": "42.4972583",
    "prim_long_dec": "-82.9371409",
    "elev_in_m": "188",
    "elev_in_ft": "617",
    "lat": 42.4972583,
    "long": -82.9371409
  },
  {
    "globaleventid": 264109069,
    "sqldate": 20130821,
    "monthyear": 201308,
    "year": 2013,
    "fractiondate": "2013.6329",
    "eventcode": 173,
    "quadclass": 4,
    "nummentions": 1,
    "numsources": 1,
    "numarticles": 1,
    "avgtone": "1.91693290734824",
    "sourceurl": "http://www.nypost.com/p/news/local/midtown_hip_hop_holdup_Fd2lRV8Hhwr8hO7KXwlUEI",
    "feature_id": "847388",
    "feature_name": "Las Vegas",
    "state_alpha": "NV",
    "county_name": "Clark",
    "county_numeric": "003",
    "prim_lat_dec": "36.1749705",
    "prim_long_dec": "-115.137223",
    "elev_in_m": "610",
    "elev_in_ft": "2001",
    "lat": 36.1749705,
    "long": -115.137223
  },
  {
    "globaleventid": 264109068,
    "sqldate": 20130821,
    "monthyear": 201308,
    "year": 2013,
    "fractiondate": "2013.6329",
    "eventcode": 173,
    "quadclass": 4,
    "nummentions": 3,
    "numsources": 1,
    "numarticles": 3,
    "avgtone": "1.91693290734824",
    "sourceurl": "http://www.nypost.com/p/news/local/midtown_hip_hop_holdup_Fd2lRV8Hhwr8hO7KXwlUEI",
    "feature_id": "847388",
    "feature_name": "Las Vegas",
    "state_alpha": "NV",
    "county_name": "Clark",
    "county_numeric": "003",
    "prim_lat_dec": "36.1749705",
    "prim_long_dec": "-115.137223",
    "elev_in_m": "610",
    "elev_in_ft": "2001",
    "lat": 36.1749705,
    "long": -115.137223
  },
  {
    "globaleventid": 264109066,
    "sqldate": 20130821,
    "monthyear": 201308,
    "year": 2013,
    "fractiondate": "2013.6329",
    "eventcode": 173,
    "quadclass": 4,
    "nummentions": 8,
    "numsources": 1,
    "numarticles": 8,
    "avgtone": "4.89510489510489",
    "sourceurl": "http://www.dailyjournal.net/view/story/cee670319cb24632b1816cc586f1dca4/MS--Lewis-Appeal/",
    "feature_id": "668721",
    "feature_name": "Columbus",
    "state_alpha": "MS",
    "county_name": "Lowndes",
    "county_numeric": "087",
    "prim_lat_dec": "33.4956744",
    "prim_long_dec": "-88.4272627",
    "elev_in_m": "65",
    "elev_in_ft": "213",
    "lat": 33.4956744,
    "long": -88.4272627
  },
  {
    "globaleventid": 264109064,
    "sqldate": 20130821,
    "monthyear": 201308,
    "year": 2013,
    "fractiondate": "2013.6329",
    "eventcode": 173,
    "quadclass": 4,
    "nummentions": 6,
    "numsources": 2,
    "numarticles": 6,
    "avgtone": "4.73247682550008",
    "sourceurl": "http://www.wtok.com/news/headlines/Appeal-denied-in-slaying-of-Columbus-city-worker-220524761.html",
    "feature_id": "668721",
    "feature_name": "Columbus",
    "state_alpha": "MS",
    "county_name": "Lowndes",
    "county_numeric": "087",
    "prim_lat_dec": "33.4956744",
    "prim_long_dec": "-88.4272627",
    "elev_in_m": "65",
    "elev_in_ft": "213",
    "lat": 33.4956744,
    "long": -88.4272627
  },
  {
    "globaleventid": 264109063,
    "sqldate": 20130821,
    "monthyear": 201308,
    "year": 2013,
    "fractiondate": "2013.6329",
    "eventcode": 173,
    "quadclass": 4,
    "nummentions": 20,
    "numsources": 2,
    "numarticles": 20,
    "avgtone": "3.83860681873927",
    "sourceurl": "http://www.wxvt.com/story/23203523/appeal-denied-in-slaying-of-columbus-city-worker",
    "feature_id": "668721",
    "feature_name": "Columbus",
    "state_alpha": "MS",
    "county_name": "Lowndes",
    "county_numeric": "087",
    "prim_lat_dec": "33.4956744",
    "prim_long_dec": "-88.4272627",
    "elev_in_m": "65",
    "elev_in_ft": "213",
    "lat": 33.4956744,
    "long": -88.4272627
  },
  {
    "globaleventid": 264109061,
    "sqldate": 20130821,
    "monthyear": 201308,
    "year": 2013,
    "fractiondate": "2013.6329",
    "eventcode": 173,
    "quadclass": 4,
    "nummentions": 10,
    "numsources": 1,
    "numarticles": 10,
    "avgtone": "0.645161290322581",
    "sourceurl": "http://www.tucsonnewsnow.com/story/23220192/paynes-convictions-death-sentences-upheld",
    "feature_id": "43534",
    "feature_name": "Tucson",
    "state_alpha": "AZ",
    "county_name": "Pima",
    "county_numeric": "019",
    "prim_lat_dec": "32.2217429",
    "prim_long_dec": "-110.926479",
    "elev_in_m": "759",
    "elev_in_ft": "2490",
    "lat": 32.2217429,
    "long": -110.926479
  },
  {
    "globaleventid": 264109059,
    "sqldate": 20130821,
    "monthyear": 201308,
    "year": 2013,
    "fractiondate": "2013.6329",
    "eventcode": 173,
    "quadclass": 4,
    "nummentions": 8,
    "numsources": 1,
    "numarticles": 8,
    "avgtone": "0.903614457831325",
    "sourceurl": "http://www.globalpost.com/dispatch/news/agencia-efe/130820/queen-the-pacific-jailed-return-mexico",
    "feature_id": "295004",
    "feature_name": "Miami",
    "state_alpha": "FL",
    "county_name": "Miami-Dade",
    "county_numeric": "086",
    "prim_lat_dec": "25.7742658",
    "prim_long_dec": "-80.1936589",
    "elev_in_m": "2",
    "elev_in_ft": "7",
    "lat": 25.7742658,
    "long": -80.1936589
  },
  {
    "globaleventid": 264109058,
    "sqldate": 20130821,
    "monthyear": 201308,
    "year": 2013,
    "fractiondate": "2013.6329",
    "eventcode": 173,
    "quadclass": 4,
    "nummentions": 2,
    "numsources": 1,
    "numarticles": 2,
    "avgtone": "0.0",
    "sourceurl": "http://www.kivitv.com/news/local/California-man-sentenced-to-ten-years-for-involvement-in-interstate-prostitution-ring--220552021.html",
    "feature_id": "400590",
    "feature_name": "Boise",
    "state_alpha": "ID",
    "county_name": "Ada",
    "county_numeric": "001",
    "prim_lat_dec": "43.6135002",
    "prim_long_dec": "-116.2034505",
    "elev_in_m": "823",
    "elev_in_ft": "2700",
    "lat": 43.6135002,
    "long": -116.2034505
  },
  {
    "globaleventid": 264109057,
    "sqldate": 20130821,
    "monthyear": 201308,
    "year": 2013,
    "fractiondate": "2013.6329",
    "eventcode": 173,
    "quadclass": 4,
    "nummentions": 2,
    "numsources": 1,
    "numarticles": 2,
    "avgtone": "2.41635687732342",
    "sourceurl": "http://www.ctpost.com/local/article/Domestic-violence-advocate-Kupchick-arrested-in-4744547.php",
    "feature_id": "205720",
    "feature_name": "Bridgeport",
    "state_alpha": "CT",
    "county_name": "Fairfield",
    "county_numeric": "001",
    "prim_lat_dec": "41.1670412",
    "prim_long_dec": "-73.2048348",
    "elev_in_m": "3",
    "elev_in_ft": "10",
    "lat": 41.1670412,
    "long": -73.2048348
  },
  {
    "globaleventid": 264109055,
    "sqldate": 20130821,
    "monthyear": 201308,
    "year": 2013,
    "fractiondate": "2013.6329",
    "eventcode": 173,
    "quadclass": 4,
    "nummentions": 8,
    "numsources": 2,
    "numarticles": 8,
    "avgtone": "0.739837398373984",
    "sourceurl": "http://tribune-chronicle.com/page/content.detail/id/362570/OH-man-sentenced-in-woman-s-murder--body-on-tracks.html?isap=1&nav=5031",
    "feature_id": "1085476",
    "feature_name": "Miamisburg",
    "state_alpha": "OH",
    "county_name": "Montgomery",
    "county_numeric": "113",
    "prim_lat_dec": "39.6428362",
    "prim_long_dec": "-84.2866083",
    "elev_in_m": "215",
    "elev_in_ft": "705",
    "lat": 39.6428362,
    "long": -84.2866083
  },
  {
    "globaleventid": 264109041,
    "sqldate": 20130821,
    "monthyear": 201308,
    "year": 2013,
    "fractiondate": "2013.6329",
    "eventcode": 120,
    "quadclass": 3,
    "nummentions": 1,
    "numsources": 1,
    "numarticles": 1,
    "avgtone": "1.06508875739645",
    "sourceurl": "http://www.state-journal.com/latest%20headlines/2013/08/21/legislative-staffers-accuse-house-democrat-of-sexual-harassment",
    "feature_id": "509453",
    "feature_name": "Louisville",
    "state_alpha": "KY",
    "county_name": "Jefferson",
    "county_numeric": "111",
    "prim_lat_dec": "38.2542376",
    "prim_long_dec": "-85.759407",
    "elev_in_m": "142",
    "elev_in_ft": "466",
    "lat": 38.2542376,
    "long": -85.759407
  },
  {
    "globaleventid": 264109039,
    "sqldate": 20130821,
    "monthyear": 201308,
    "year": 2013,
    "fractiondate": "2013.6329",
    "eventcode": 120,
    "quadclass": 3,
    "nummentions": 6,
    "numsources": 1,
    "numarticles": 6,
    "avgtone": "2.38315338412836",
    "sourceurl": "http://www.freep.com/article/20130821/COL10/308210181/Detroit-election-Duggan-Napoleon-votes-county-clerk-Garrett-Winfrey&c=GX9uOx99WT6sXIrnX8y7z2qQYt3OkvPNyTGGSwDs0X4&mkt=en-us",
    "feature_id": "1617959",
    "feature_name": "Detroit",
    "state_alpha": "MI",
    "county_name": "Wayne",
    "county_numeric": "163",
    "prim_lat_dec": "42.331427",
    "prim_long_dec": "-83.0457538",
    "elev_in_m": "182",
    "elev_in_ft": "597",
    "lat": 42.331427,
    "long": -83.0457538
  },
  {
    "globaleventid": 264109036,
    "sqldate": 20130821,
    "monthyear": 201308,
    "year": 2013,
    "fractiondate": "2013.6329",
    "eventcode": 115,
    "quadclass": 3,
    "nummentions": 4,
    "numsources": 1,
    "numarticles": 4,
    "avgtone": "1.61943319838057",
    "sourceurl": "http://www.naplesnews.com/news/2013/aug/21/30-years-ago-residents-sought-moratarium/",
    "feature_id": "295004",
    "feature_name": "Miami",
    "state_alpha": "FL",
    "county_name": "Miami-Dade",
    "county_numeric": "086",
    "prim_lat_dec": "25.7742658",
    "prim_long_dec": "-80.1936589",
    "elev_in_m": "2",
    "elev_in_ft": "7",
    "lat": 25.7742658,
    "long": -80.1936589
  },
  {
    "globaleventid": 264109029,
    "sqldate": 20130821,
    "monthyear": 201308,
    "year": 2013,
    "fractiondate": "2013.6329",
    "eventcode": 111,
    "quadclass": 3,
    "nummentions": 2,
    "numsources": 1,
    "numarticles": 2,
    "avgtone": "0.3125",
    "sourceurl": "http://www.pressherald.com/news/Prosecutor-announces-review-of-Remy-murder-case-.html",
    "feature_id": "617565",
    "feature_name": "Boston",
    "state_alpha": "MA",
    "county_name": "Suffolk",
    "county_numeric": "025",
    "prim_lat_dec": "42.3584308",
    "prim_long_dec": "-71.0597732",
    "elev_in_m": "14",
    "elev_in_ft": "46",
    "lat": 42.3584308,
    "long": -71.0597732
  },
  {
    "globaleventid": 264008802,
    "sqldate": 20130821,
    "monthyear": 201308,
    "year": 2013,
    "fractiondate": "2013.6329",
    "eventcode": 173,
    "quadclass": 4,
    "nummentions": 1,
    "numsources": 1,
    "numarticles": 1,
    "avgtone": "2.19298245614035",
    "sourceurl": "http://www.thedenverchannel.com/news/front-range/boulder/male-acquaintance-arrested-in-alleged-sexual-assault-of-cu-boulder-student-at-her-campus-apartment",
    "feature_id": "178680",
    "feature_name": "Boulder",
    "state_alpha": "CO",
    "county_name": "Boulder",
    "county_numeric": "013",
    "prim_lat_dec": "40.0149856",
    "prim_long_dec": "-105.2705456",
    "elev_in_m": "1624",
    "elev_in_ft": "5328",
    "lat": 40.0149856,
    "long": -105.2705456
  },
  {
    "globaleventid": 264008801,
    "sqldate": 20130821,
    "monthyear": 201308,
    "year": 2013,
    "fractiondate": "2013.6329",
    "eventcode": 173,
    "quadclass": 4,
    "nummentions": 8,
    "numsources": 3,
    "numarticles": 8,
    "avgtone": "0.841286285696103",
    "sourceurl": "http://www.therepublic.com/view/story/944eb44b148c44328598699fb69f2316/US--Georgia-School-Shooting",
    "feature_id": "351615",
    "feature_name": "Atlanta",
    "state_alpha": "GA",
    "county_name": "Fulton",
    "county_numeric": "121",
    "prim_lat_dec": "33.7489954",
    "prim_long_dec": "-84.3879824",
    "elev_in_m": "320",
    "elev_in_ft": "1050",
    "lat": 33.7489954,
    "long": -84.3879824
  },
  {
    "globaleventid": 264008796,
    "sqldate": 20130821,
    "monthyear": 201308,
    "year": 2013,
    "fractiondate": "2013.6329",
    "eventcode": 134,
    "quadclass": 3,
    "nummentions": 1,
    "numsources": 1,
    "numarticles": 1,
    "avgtone": "2.5974025974026",
    "sourceurl": "http://www.hawaiinewsnow.com/story/23212387/elementary-school-student-arrested-in-kalihi",
    "feature_id": "366212",
    "feature_name": "Honolulu",
    "state_alpha": "HI",
    "county_name": "Honolulu",
    "county_numeric": "003",
    "prim_lat_dec": "21.3069444",
    "prim_long_dec": "-157.8583333",
    "elev_in_m": "5",
    "elev_in_ft": "16",
    "lat": 21.3069444,
    "long": -157.8583333
  },
  {
    "globaleventid": 264008733,
    "sqldate": 20130821,
    "monthyear": 201308,
    "year": 2013,
    "fractiondate": "2013.6329",
    "eventcode": 193,
    "quadclass": 4,
    "nummentions": 4,
    "numsources": 1,
    "numarticles": 4,
    "avgtone": "0.210084033613445",
    "sourceurl": "http://www.suntimes.com/news/metro/22066427-418/8-wounded-in-shootings-across-chicago.html",
    "feature_id": "1737424",
    "feature_name": "Calumet Heights",
    "state_alpha": "IL",
    "county_name": "Cook",
    "county_numeric": "031",
    "prim_lat_dec": "41.7300347",
    "prim_long_dec": "-87.5792134",
    "elev_in_m": "178",
    "elev_in_ft": "584",
    "lat": 41.7300347,
    "long": -87.5792134
  },
  {
    "globaleventid": 264008726,
    "sqldate": 20130821,
    "monthyear": 201308,
    "year": 2013,
    "fractiondate": "2013.6329",
    "eventcode": 190,
    "quadclass": 4,
    "nummentions": 2,
    "numsources": 1,
    "numarticles": 2,
    "avgtone": "1.08225108225108",
    "sourceurl": "http://www.wcax.com/story/23222906/controversy-over-bristol-police-posting-mug-shots-online",
    "feature_id": "1460661",
    "feature_name": "Bristol",
    "state_alpha": "VT",
    "county_name": "Addison",
    "county_numeric": "001",
    "prim_lat_dec": "44.1333912",
    "prim_long_dec": "-73.0790076",
    "elev_in_m": "173",
    "elev_in_ft": "568",
    "lat": 44.1333912,
    "long": -73.0790076
  },
  {
    "globaleventid": 264008695,
    "sqldate": 20130821,
    "monthyear": 201308,
    "year": 2013,
    "fractiondate": "2013.6329",
    "eventcode": 130,
    "quadclass": 3,
    "nummentions": 10,
    "numsources": 1,
    "numarticles": 10,
    "avgtone": "0.421940928270042",
    "sourceurl": "http://www.theoaklandpress.com/articles/2013/08/20/news/local_news/doc521430f2a23f6142060329.txt",
    "feature_id": "1624839",
    "feature_name": "Port Huron",
    "state_alpha": "MI",
    "county_name": "St. Clair",
    "county_numeric": "147",
    "prim_lat_dec": "42.9708634",
    "prim_long_dec": "-82.4249142",
    "elev_in_m": "185",
    "elev_in_ft": "607",
    "lat": 42.9708634,
    "long": -82.4249142
  },
  {
    "globaleventid": 264008648,
    "sqldate": 20130821,
    "monthyear": 201308,
    "year": 2013,
    "fractiondate": "2013.6329",
    "eventcode": 173,
    "quadclass": 4,
    "nummentions": 10,
    "numsources": 1,
    "numarticles": 10,
    "avgtone": "0.410396716826265",
    "sourceurl": "http://www.chicagotribune.com/news/local/suburbs/lake_zurich/ct-tl-lkw-blotter-0822-20130822,0,1285226.story",
    "feature_id": "409358",
    "feature_name": "Grayslake",
    "state_alpha": "IL",
    "county_name": "Lake",
    "county_numeric": "097",
    "prim_lat_dec": "42.3444664",
    "prim_long_dec": "-88.041746",
    "elev_in_m": "240",
    "elev_in_ft": "787",
    "lat": 42.3444664,
    "long": -88.041746
  },
  {
    "globaleventid": 264008644,
    "sqldate": 20130821,
    "monthyear": 201308,
    "year": 2013,
    "fractiondate": "2013.6329",
    "eventcode": 193,
    "quadclass": 4,
    "nummentions": 16,
    "numsources": 1,
    "numarticles": 16,
    "avgtone": "2.53342841861294",
    "sourceurl": "http://articles.chicagotribune.com/2013-08-20/news/ct-met-uptown-shooting-folo-20130821_1_safe-passage-uptown-shooting-five-men",
    "feature_id": "418353",
    "feature_name": "Sheridan",
    "state_alpha": "IL",
    "county_name": "LaSalle",
    "county_numeric": "099",
    "prim_lat_dec": "41.5300309",
    "prim_long_dec": "-88.6797969",
    "elev_in_m": "181",
    "elev_in_ft": "594",
    "lat": 41.5300309,
    "long": -88.6797969
  },
  {
    "globaleventid": 264008643,
    "sqldate": 20130821,
    "monthyear": 201308,
    "year": 2013,
    "fractiondate": "2013.6329",
    "eventcode": 193,
    "quadclass": 4,
    "nummentions": 10,
    "numsources": 1,
    "numarticles": 10,
    "avgtone": "2.61044176706827",
    "sourceurl": "http://www.wchstv.com/newsroom/eyewitness/130820_18451.shtml",
    "feature_id": "1558347",
    "feature_name": "Charleston",
    "state_alpha": "WV",
    "county_name": "Kanawha",
    "county_numeric": "039",
    "prim_lat_dec": "38.3498195",
    "prim_long_dec": "-81.6326235",
    "elev_in_m": "182",
    "elev_in_ft": "597",
    "lat": 38.3498195,
    "long": -81.6326235
  },
  {
    "globaleventid": 264008627,
    "sqldate": 20130821,
    "monthyear": 201308,
    "year": 2013,
    "fractiondate": "2013.6329",
    "eventcode": 180,
    "quadclass": 4,
    "nummentions": 2,
    "numsources": 1,
    "numarticles": 2,
    "avgtone": "2.87081339712919",
    "sourceurl": "http://www.grahamleader.com/ci_23835632?source=most_viewed",
    "feature_id": "531871",
    "feature_name": "Washington",
    "state_alpha": "DC",
    "county_name": "District of Columbia",
    "county_numeric": "001",
    "prim_lat_dec": "38.8951118",
    "prim_long_dec": "-77.0363658",
    "elev_in_m": "7",
    "elev_in_ft": "23",
    "lat": 38.8951118,
    "long": -77.0363658
  },
  {
    "globaleventid": 264008600,
    "sqldate": 20130821,
    "monthyear": 201308,
    "year": 2013,
    "fractiondate": "2013.6329",
    "eventcode": 171,
    "quadclass": 4,
    "nummentions": 2,
    "numsources": 1,
    "numarticles": 2,
    "avgtone": "0.0",
    "sourceurl": "http://www.walb.com/story/23221469/valdosta-cpa-firm-broken-into",
    "feature_id": "324649",
    "feature_name": "Valdosta",
    "state_alpha": "GA",
    "county_name": "Lowndes",
    "county_numeric": "185",
    "prim_lat_dec": "30.8327022",
    "prim_long_dec": "-83.2784851",
    "elev_in_m": "67",
    "elev_in_ft": "220",
    "lat": 30.8327022,
    "long": -83.2784851
  },
  {
    "globaleventid": 264008582,
    "sqldate": 20130821,
    "monthyear": 201308,
    "year": 2013,
    "fractiondate": "2013.6329",
    "eventcode": 110,
    "quadclass": 3,
    "nummentions": 10,
    "numsources": 1,
    "numarticles": 10,
    "avgtone": "2.67094017094017",
    "sourceurl": "http://chicago.cbslocal.com/2013/08/19/breaking-5-shot-one-fatally-in-uptown/",
    "feature_id": "423587",
    "feature_name": "Chicago",
    "state_alpha": "IL",
    "county_name": "Cook",
    "county_numeric": "031",
    "prim_lat_dec": "41.850033",
    "prim_long_dec": "-87.6500523",
    "elev_in_m": "179",
    "elev_in_ft": "587",
    "lat": 41.850033,
    "long": -87.6500523
  },
  {
    "globaleventid": 264008521,
    "sqldate": 20130821,
    "monthyear": 201308,
    "year": 2013,
    "fractiondate": "2013.6329",
    "eventcode": 173,
    "quadclass": 4,
    "nummentions": 12,
    "numsources": 2,
    "numarticles": 12,
    "avgtone": "0.94305535482006",
    "sourceurl": "http://www.sfgate.com/news/crime/article/Ga-widow-convicted-of-perjury-asks-for-new-trial-4750534.php",
    "feature_id": "351615",
    "feature_name": "Atlanta",
    "state_alpha": "GA",
    "county_name": "Fulton",
    "county_numeric": "121",
    "prim_lat_dec": "33.7489954",
    "prim_long_dec": "-84.3879824",
    "elev_in_m": "320",
    "elev_in_ft": "1050",
    "lat": 33.7489954,
    "long": -84.3879824
  },