[
  {
    "globaleventid": 298855612,
    "sqldate": 20130527,
    "monthyear": 201305,
    "year": 2013,
    "fractiondate": "2013.4027",
    "eventcode": 112,
    "quadclass": 3,
    "nummentions": 4,
    "numsources": 1,
    "numarticles": 4,
    "avgtone": "1.41969831410825",
    "sourceurl": "http://www.bostonglobe.com/news/nation/2014/05/23/judge-allows-force-feeding-guantanamo-detainee/gqZELB2tgoqs8oPV9vEqMM/story.html",
    "feature_id": "617565",
    "feature_name": "Boston",
    "state_alpha": "MA",
    "county_name": "Suffolk",
    "county_numeric": "025",
    "prim_lat_dec": "42.3584308",
    "prim_long_dec": "-71.0597732",
    "elev_in_m": "14",
    "elev_in_ft": "46",
    "lat": 42.3584308,
    "long": -71.0597732
  },
  {
    "globaleventid": 298855611,
    "sqldate": 20130527,
    "monthyear": 201305,
    "year": 2013,
    "fractiondate": "2013.4027",
    "eventcode": 111,
    "quadclass": 3,
    "nummentions": 3,
    "numsources": 1,
    "numarticles": 3,
    "avgtone": "1.41969831410825",
    "sourceurl": "http://www.bostonglobe.com/news/nation/2014/05/23/judge-allows-force-feeding-guantanamo-detainee/gqZELB2tgoqs8oPV9vEqMM/story.html",
    "feature_id": "617565",
    "feature_name": "Boston",
    "state_alpha": "MA",
    "county_name": "Suffolk",
    "county_numeric": "025",
    "prim_lat_dec": "42.3584308",
    "prim_long_dec": "-71.0597732",
    "elev_in_m": "14",
    "elev_in_ft": "46",
    "lat": 42.3584308,
    "long": -71.0597732
  },
  {
    "globaleventid": 298855609,
    "sqldate": 20130527,
    "monthyear": 201305,
    "year": 2013,
    "fractiondate": "2013.4027",
    "eventcode": 111,
    "quadclass": 3,
    "nummentions": 1,
    "numsources": 1,
    "numarticles": 1,
    "avgtone": "1.41969831410825",
    "sourceurl": "http://www.bostonglobe.com/news/nation/2014/05/23/judge-allows-force-feeding-guantanamo-detainee/gqZELB2tgoqs8oPV9vEqMM/story.html",
    "feature_id": "617565",
    "feature_name": "Boston",
    "state_alpha": "MA",
    "county_name": "Suffolk",
    "county_numeric": "025",
    "prim_lat_dec": "42.3584308",
    "prim_long_dec": "-71.0597732",
    "elev_in_m": "14",
    "elev_in_ft": "46",
    "lat": 42.3584308,
    "long": -71.0597732
  },
  {
    "globaleventid": 298855584,
    "sqldate": 20130527,
    "monthyear": 201305,
    "year": 2013,
    "fractiondate": "2013.4027",
    "eventcode": 173,
    "quadclass": 4,
    "nummentions": 4,
    "numsources": 1,
    "numarticles": 4,
    "avgtone": "1.93877551020408",
    "sourceurl": "http://cliffviewpilot.com/ringleader-gets-6-years-smuggling-4-5m-of-rhinoceros-horns-through-bergen-elsewhere/",
    "feature_id": "295004",
    "feature_name": "Miami",
    "state_alpha": "FL",
    "county_name": "Miami-Dade",
    "county_numeric": "086",
    "prim_lat_dec": "25.7742658",
    "prim_long_dec": "-80.1936589",
    "elev_in_m": "2",
    "elev_in_ft": "7",
    "lat": 25.7742658,
    "long": -80.1936589
  },
  {
    "globaleventid": 298855568,
    "sqldate": 20130527,
    "monthyear": 201305,
    "year": 2013,
    "fractiondate": "2013.4027",
    "eventcode": 112,
    "quadclass": 3,
    "nummentions": 2,
    "numsources": 1,
    "numarticles": 2,
    "avgtone": "5.0",
    "sourceurl": "http://www.bradenton.com/2014/05/27/5173618/court-to-hear-dispute-over-state.html",
    "feature_id": "531871",
    "feature_name": "Washington",
    "state_alpha": "DC",
    "county_name": "District of Columbia",
    "county_numeric": "001",
    "prim_lat_dec": "38.8951118",
    "prim_long_dec": "-77.0363658",
    "elev_in_m": "7",
    "elev_in_ft": "23",
    "lat": 38.8951118,
    "long": -77.0363658
  },
  {
    "globaleventid": 298855567,
    "sqldate": 20130527,
    "monthyear": 201305,
    "year": 2013,
    "fractiondate": "2013.4027",
    "eventcode": 112,
    "quadclass": 3,
    "nummentions": 4,
    "numsources": 1,
    "numarticles": 4,
    "avgtone": "3.46648870245019",
    "sourceurl": "http://www.miamiherald.com/2014/05/27/4140794/court-to-hear-dispute-over-state.html",
    "feature_id": "295004",
    "feature_name": "Miami",
    "state_alpha": "FL",
    "county_name": "Miami-Dade",
    "county_numeric": "086",
    "prim_lat_dec": "25.7742658",
    "prim_long_dec": "-80.1936589",
    "elev_in_m": "2",
    "elev_in_ft": "7",
    "lat": 25.7742658,
    "long": -80.1936589
  },
  {
    "globaleventid": 298855558,
    "sqldate": 20130527,
    "monthyear": 201305,
    "year": 2013,
    "fractiondate": "2013.4027",
    "eventcode": 190,
    "quadclass": 4,
    "nummentions": 2,
    "numsources": 1,
    "numarticles": 2,
    "avgtone": "1.59151193633952",
    "sourceurl": "http://www.usatoday.com/story/opinion/2014/05/27/elliot-rodger-richard-martinez-santa-barbara-editorials-debates/9647491/",
    "feature_id": "1662328",
    "feature_name": "Los Angeles",
    "state_alpha": "CA",
    "county_name": "Los Angeles",
    "county_numeric": "037",
    "prim_lat_dec": "34.0522342",
    "prim_long_dec": "-118.2436849",
    "elev_in_m": "89",
    "elev_in_ft": "292",
    "lat": 34.0522342,
    "long": -118.2436849
  },
  {
    "globaleventid": 298855546,
    "sqldate": 20130527,
    "monthyear": 201305,
    "year": 2013,
    "fractiondate": "2013.4027",
    "eventcode": 120,
    "quadclass": 3,
    "nummentions": 2,
    "numsources": 1,
    "numarticles": 2,
    "avgtone": "2.95909486510009",
    "sourceurl": "http://www.deccanherald.com/content/410061/us-trains-african-troops-fight.html",
    "feature_id": "531871",
    "feature_name": "Washington",
    "state_alpha": "DC",
    "county_name": "District of Columbia",
    "county_numeric": "001",
    "prim_lat_dec": "38.8951118",
    "prim_long_dec": "-77.0363658",
    "elev_in_m": "7",
    "elev_in_ft": "23",
    "lat": 38.8951118,
    "long": -77.0363658
  },
  {
    "globaleventid": 298855544,
    "sqldate": 20130527,
    "monthyear": 201305,
    "year": 2013,
    "fractiondate": "2013.4027",
    "eventcode": 114,
    "quadclass": 3,
    "nummentions": 8,
    "numsources": 1,
    "numarticles": 8,
    "avgtone": "2.6196928635953",
    "sourceurl": "http://www.sltrib.com/sltrib/money/57992826-79/million-ceo-pay-percent.html.csp",
    "feature_id": "972237",
    "feature_name": "Black Rock",
    "state_alpha": "NY",
    "county_name": "Cayuga",
    "county_numeric": "011",
    "prim_lat_dec": "42.7036818",
    "prim_long_dec": "-76.6596688",
    "elev_in_m": "223",
    "elev_in_ft": "732",
    "lat": 42.7036818,
    "long": -76.6596688
  },
  {
    "globaleventid": 298855512,
    "sqldate": 20130527,
    "monthyear": 201305,
    "year": 2013,
    "fractiondate": "2013.4027",
    "eventcode": 193,
    "quadclass": 4,
    "nummentions": 4,
    "numsources": 1,
    "numarticles": 4,
    "avgtone": "1.51679306608884",
    "sourceurl": "http://ktla.com/2014/05/26/socal-vigils-scheduled-as-ucsb-students-killed-in-isla-vista-rampage-are-mourned/",
    "feature_id": "210639",
    "feature_name": "Sandy Hook",
    "state_alpha": "CT",
    "county_name": "Fairfield",
    "county_numeric": "001",
    "prim_lat_dec": "41.4200956",
    "prim_long_dec": "-73.2820608",
    "elev_in_m": "72",
    "elev_in_ft": "236",
    "lat": 41.4200956,
    "long": -73.2820608
  },
  {
    "globaleventid": 298855500,
    "sqldate": 20130527,
    "monthyear": 201305,
    "year": 2013,
    "fractiondate": "2013.4027",
    "eventcode": 173,
    "quadclass": 4,
    "nummentions": 20,
    "numsources": 5,
    "numarticles": 20,
    "avgtone": "1.22505214660752",
    "sourceurl": "http://www.timesunion.com/news/article/Hacker-helped-stop-cyberattacks-5505754.php",
    "feature_id": "423587",
    "feature_name": "Chicago",
    "state_alpha": "IL",
    "county_name": "Cook",
    "county_numeric": "031",
    "prim_lat_dec": "41.850033",
    "prim_long_dec": "-87.6500523",
    "elev_in_m": "179",
    "elev_in_ft": "587",
    "lat": 41.850033,
    "long": -87.6500523
  },
  {
    "globaleventid": 298855044,
    "sqldate": 20130527,
    "monthyear": 201305,
    "year": 2013,
    "fractiondate": "2013.4027",
    "eventcode": 128,
    "quadclass": 3,
    "nummentions": 10,
    "numsources": 1,
    "numarticles": 10,
    "avgtone": "3.1055900621118",
    "sourceurl": "http://thehill.com/homenews/207212-hillarys-secret-weapon-gop-praise",
    "feature_id": "529313",
    "feature_name": "Capitol Hill",
    "state_alpha": "DC",
    "county_name": "District of Columbia",
    "county_numeric": "001",
    "prim_lat_dec": "38.8890009",
    "prim_long_dec": "-77.0002537",
    "elev_in_m": "28",
    "elev_in_ft": "92",
    "lat": 38.8890009,
    "long": -77.0002537
  },
  {
    "globaleventid": 298854975,
    "sqldate": 20130527,
    "monthyear": 201305,
    "year": 2013,
    "fractiondate": "2013.4027",
    "eventcode": 190,
    "quadclass": 4,
    "nummentions": 1,
    "numsources": 1,
    "numarticles": 1,
    "avgtone": "4.26966292134831",
    "sourceurl": "http://www.hngn.com/articles/32282/20140527/oldest-american-alive-turn-115-years-whats-secret-long-life.htm",
    "feature_id": "1617959",
    "feature_name": "Detroit",
    "state_alpha": "MI",
    "county_name": "Wayne",
    "county_numeric": "163",
    "prim_lat_dec": "42.331427",
    "prim_long_dec": "-83.0457538",
    "elev_in_m": "182",
    "elev_in_ft": "597",
    "lat": 42.331427,
    "long": -83.0457538
  },
  {
    "globaleventid": 298854971,
    "sqldate": 20130527,
    "monthyear": 201305,
    "year": 2013,
    "fractiondate": "2013.4027",
    "eventcode": 190,
    "quadclass": 4,
    "nummentions": 1,
    "numsources": 1,
    "numarticles": 1,
    "avgtone": "4.26966292134831",
    "sourceurl": "http://www.hngn.com/articles/32282/20140527/oldest-american-alive-turn-115-years-whats-secret-long-life.htm",
    "feature_id": "1617959",
    "feature_name": "Detroit",
    "state_alpha": "MI",
    "county_name": "Wayne",
    "county_numeric": "163",
    "prim_lat_dec": "42.331427",
    "prim_long_dec": "-83.0457538",
    "elev_in_m": "182",
    "elev_in_ft": "597",
    "lat": 42.331427,
    "long": -83.0457538
  },
  {
    "globaleventid": 298854656,
    "sqldate": 20130527,
    "monthyear": 201305,
    "year": 2013,
    "fractiondate": "2013.4027",
    "eventcode": 193,
    "quadclass": 4,
    "nummentions": 1,
    "numsources": 1,
    "numarticles": 1,
    "avgtone": "1.51679306608884",
    "sourceurl": "http://ktla.com/2014/05/26/socal-vigils-scheduled-as-ucsb-students-killed-in-isla-vista-rampage-are-mourned/",
    "feature_id": "210639",
    "feature_name": "Sandy Hook",
    "state_alpha": "CT",
    "county_name": "Fairfield",
    "county_numeric": "001",
    "prim_lat_dec": "41.4200956",
    "prim_long_dec": "-73.2820608",
    "elev_in_m": "72",
    "elev_in_ft": "236",
    "lat": 41.4200956,
    "long": -73.2820608
  },
  {
    "globaleventid": 298854580,
    "sqldate": 20130527,
    "monthyear": 201305,
    "year": 2013,
    "fractiondate": "2013.4027",
    "eventcode": 173,
    "quadclass": 4,
    "nummentions": 1,
    "numsources": 1,
    "numarticles": 1,
    "avgtone": "1.93877551020408",
    "sourceurl": "http://cliffviewpilot.com/ringleader-gets-6-years-smuggling-4-5m-of-rhinoceros-horns-through-bergen-elsewhere/",
    "feature_id": "295004",
    "feature_name": "Miami",
    "state_alpha": "FL",
    "county_name": "Miami-Dade",
    "county_numeric": "086",
    "prim_lat_dec": "25.7742658",
    "prim_long_dec": "-80.1936589",
    "elev_in_m": "2",
    "elev_in_ft": "7",
    "lat": 25.7742658,
    "long": -80.1936589
  },
  {
    "globaleventid": 255570095,
    "sqldate": 20130527,
    "monthyear": 201305,
    "year": 2013,
    "fractiondate": "2013.4027",
    "eventcode": 173,
    "quadclass": 4,
    "nummentions": 2,
    "numsources": 1,
    "numarticles": 2,
    "avgtone": "1.31147540983607",
    "sourceurl": "http://pelham.dailyvoice.com/news/monday-marks-two-years-edgemonts-lauren-spierers-disappearance",
    "feature_id": "431207",
    "feature_name": "Bloomington",
    "state_alpha": "IN",
    "county_name": "Monroe",
    "county_numeric": "105",
    "prim_lat_dec": "39.165325",
    "prim_long_dec": "-86.5263857",
    "elev_in_m": "235",
    "elev_in_ft": "771",
    "lat": 39.165325,
    "long": -86.5263857
  },
  {
    "globaleventid": 255570073,
    "sqldate": 20130527,
    "monthyear": 201305,
    "year": 2013,
    "fractiondate": "2013.4027",
    "eventcode": 160,
    "quadclass": 4,
    "nummentions": 5,
    "numsources": 1,
    "numarticles": 5,
    "avgtone": "1.05540897097625",
    "sourceurl": "http://in.reuters.com/article/2013/06/03/usa-iran-sanctions-idINDEE9520H620130603",
    "feature_id": "531871",
    "feature_name": "Washington",
    "state_alpha": "DC",
    "county_name": "District of Columbia",
    "county_numeric": "001",
    "prim_lat_dec": "38.8951118",
    "prim_long_dec": "-77.0363658",
    "elev_in_m": "7",
    "elev_in_ft": "23",
    "lat": 38.8951118,
    "long": -77.0363658
  },
  {
    "globaleventid": 257468957,
    "sqldate": 20130527,
    "monthyear": 201305,
    "year": 2013,
    "fractiondate": "2013.4027",
    "eventcode": 173,
    "quadclass": 4,
    "nummentions": 3,
    "numsources": 1,
    "numarticles": 3,
    "avgtone": "0.336134453781513",
    "sourceurl": "http://www.phillyburbs.com/news/crime/former-maple-shade-man-pleads-not-guilty-to-alleged-ax/article_a8348b1e-f288-518d-92e9-fd9024b79fd8.html",
    "feature_id": "295004",
    "feature_name": "Miami",
    "state_alpha": "FL",
    "county_name": "Miami-Dade",
    "county_numeric": "086",
    "prim_lat_dec": "25.7742658",
    "prim_long_dec": "-80.1936589",
    "elev_in_m": "2",
    "elev_in_ft": "7",
    "lat": 25.7742658,
    "long": -80.1936589
  },
  {
    "globaleventid": 257468938,
    "sqldate": 20130527,
    "monthyear": 201305,
    "year": 2013,
    "fractiondate": "2013.4027",
    "eventcode": 160,
    "quadclass": 4,
    "nummentions": 1,
    "numsources": 1,
    "numarticles": 1,
    "avgtone": "1.15473441108545",
    "sourceurl": "http://www.beaumontenterprise.com/news/article/2-more-Southeast-Texas-churches-cut-ties-with-Boy-4622991.php",
    "feature_id": "1343306",
    "feature_name": "Orangefield",
    "state_alpha": "TX",
    "county_name": "Orange",
    "county_numeric": "361",
    "prim_lat_dec": "30.0749334",
    "prim_long_dec": "-93.8557259",
    "elev_in_m": "3",
    "elev_in_ft": "10",
    "lat": 30.0749334,
    "long": -93.8557259
  },
  {
    "globaleventid": 257468806,
    "sqldate": 20130527,
    "monthyear": 201305,
    "year": 2013,
    "fractiondate": "2013.4027",
    "eventcode": 193,
    "quadclass": 4,
    "nummentions": 2,
    "numsources": 1,
    "numarticles": 2,
    "avgtone": "3.73230373230373",
    "sourceurl": "http://www.contracostatimes.com/opinion/ci_23543572/timm-herdt-fear-fracking-doesnt-catch-fire&c=0lfcWJ6lnMCtYn0KDXggMNIWP9mrztjOMcAvSBWNfIc&mkt=en-us",
    "feature_id": "1733436",
    "feature_name": "Agoura Hills",
    "state_alpha": "CA",
    "county_name": "Los Angeles",
    "county_numeric": "037",
    "prim_lat_dec": "34.1363945",
    "prim_long_dec": "-118.7745348",
    "elev_in_m": "513",
    "elev_in_ft": "1683",
    "lat": 34.1363945,
    "long": -118.7745348
  },
  {
    "globaleventid": 257468804,
    "sqldate": 20130527,
    "monthyear": 201305,
    "year": 2013,
    "fractiondate": "2013.4027",
    "eventcode": 193,
    "quadclass": 4,
    "nummentions": 10,
    "numsources": 1,
    "numarticles": 10,
    "avgtone": "0.0",
    "sourceurl": "http://ozarksfirst.com/fulltext?nxd_id=826562",
    "feature_id": "76914",
    "feature_name": "Fayetteville",
    "state_alpha": "AR",
    "county_name": "Washington",
    "county_numeric": "143",
    "prim_lat_dec": "36.0625795",
    "prim_long_dec": "-94.1574263",
    "elev_in_m": "427",
    "elev_in_ft": "1401",
    "lat": 36.0625795,
    "long": -94.1574263
  },
  {
    "globaleventid": 257468736,
    "sqldate": 20130527,
    "monthyear": 201305,
    "year": 2013,
    "fractiondate": "2013.4027",
    "eventcode": 130,
    "quadclass": 3,
    "nummentions": 6,
    "numsources": 1,
    "numarticles": 6,
    "avgtone": "3.47593582887701",
    "sourceurl": "http://www.huffingtonpost.co.uk/2013/06/26/germany-britain-spying-protest_n_3500917.html?utm_hp_ref=uk?ncid=GEP",
    "feature_id": "1660757",
    "feature_name": "Hollywood",
    "state_alpha": "CA",
    "county_name": "Los Angeles",
    "county_numeric": "037",
    "prim_lat_dec": "34.0983425",
    "prim_long_dec": "-118.3267434",
    "elev_in_m": "108",
    "elev_in_ft": "354",
    "lat": 34.0983425,
    "long": -118.3267434
  },
  {
    "globaleventid": 255360027,
    "sqldate": 20130527,
    "monthyear": 201305,
    "year": 2013,
    "fractiondate": "2013.4027",
    "eventcode": 193,
    "quadclass": 4,
    "nummentions": 10,
    "numsources": 1,
    "numarticles": 10,
    "avgtone": "1.65745856353591",
    "sourceurl": "http://www.philippinetimes.com/index.php/sid/214798994/scat/2411cd3571b4f088",
    "feature_id": "1380944",
    "feature_name": "Dallas",
    "state_alpha": "TX",
    "county_name": "Dallas",
    "county_numeric": "113",
    "prim_lat_dec": "32.7830556",
    "prim_long_dec": "-96.8066667",
    "elev_in_m": "128",
    "elev_in_ft": "420",
    "lat": 32.7830556,
    "long": -96.8066667
  },
  {
    "globaleventid": 255360001,
    "sqldate": 20130527,
    "monthyear": 201305,
    "year": 2013,
    "fractiondate": "2013.4027",
    "eventcode": 141,
    "quadclass": 3,
    "nummentions": 3,
    "numsources": 1,
    "numarticles": 3,
    "avgtone": "3.18627450980392",
    "sourceurl": "http://www.washingtonpost.com/politics/marchers-in-over-400-cities-protest-monsanto/2013/05/25/938dd988-c59b-11e2-914f-a7aba60512a7_story.html",
    "feature_id": "1662328",
    "feature_name": "Los Angeles",
    "state_alpha": "CA",
    "county_name": "Los Angeles",
    "county_numeric": "037",
    "prim_lat_dec": "34.0522342",
    "prim_long_dec": "-118.2436849",
    "elev_in_m": "89",
    "elev_in_ft": "292",
    "lat": 34.0522342,
    "long": -118.2436849
  },
  {
    "globaleventid": 255359882,
    "sqldate": 20130527,
    "monthyear": 201305,
    "year": 2013,
    "fractiondate": "2013.4027",
    "eventcode": 190,
    "quadclass": 4,
    "nummentions": 30,
    "numsources": 1,
    "numarticles": 30,
    "avgtone": "1.25",
    "sourceurl": "http://www.csmonitor.com/USA/Latest-News-Wires/2013/0527/Chicago-shootings-6-dead-as-guns-holiday-weekend-make-deadly-mix?utm_source=feedburner&utm_medium=feed&utm_campaign=Feed%3A+feeds%2Fusa+%28Christian+Science+Monitor+%7C+USA%29",
    "feature_id": "423587",
    "feature_name": "Chicago",
    "state_alpha": "IL",
    "county_name": "Cook",
    "county_numeric": "031",
    "prim_lat_dec": "41.850033",
    "prim_long_dec": "-87.6500523",
    "elev_in_m": "179",
    "elev_in_ft": "587",
    "lat": 41.850033,
    "long": -87.6500523
  },
  {
    "globaleventid": 255359824,
    "sqldate": 20130527,
    "monthyear": 201305,
    "year": 2013,
    "fractiondate": "2013.4027",
    "eventcode": 190,
    "quadclass": 4,
    "nummentions": 2,
    "numsources": 1,
    "numarticles": 2,
    "avgtone": "1.63636363636364",
    "sourceurl": "http://www.dailymail.co.uk/news/article-2331266/Pregnant-mother-3-year-old-son-killed-tragic-boat-collision-father-dives-try-save-them.html?ITO=1490&ns_mchannel=rss&ns_campaign=1490",
    "feature_id": "991433",
    "feature_name": "Oak Ridge",
    "state_alpha": "NC",
    "county_name": "Guilford",
    "county_numeric": "081",
    "prim_lat_dec": "36.1734694",
    "prim_long_dec": "-79.9889277",
    "elev_in_m": "286",
    "elev_in_ft": "938",
    "lat": 36.1734694,
    "long": -79.9889277
  },
  {
    "globaleventid": 255359716,
    "sqldate": 20130527,
    "monthyear": 201305,
    "year": 2013,
    "fractiondate": "2013.4027",
    "eventcode": 112,
    "quadclass": 3,
    "nummentions": 5,
    "numsources": 1,
    "numarticles": 5,
    "avgtone": "2.60223048327138",
    "sourceurl": "http://www.weeklystandard.com/blogs/former-obama-intel-official-trend-leaks-being-set-top-administration_729191.html",
    "feature_id": "531871",
    "feature_name": "Washington",
    "state_alpha": "DC",
    "county_name": "District of Columbia",
    "county_numeric": "001",
    "prim_lat_dec": "38.8951118",
    "prim_long_dec": "-77.0363658",
    "elev_in_m": "7",
    "elev_in_ft": "23",
    "lat": 38.8951118,
    "long": -77.0363658
  },
  {
    "globaleventid": 255359668,
    "sqldate": 20130527,
    "monthyear": 201305,
    "year": 2013,
    "fractiondate": "2013.4027",
    "eventcode": 193,
    "quadclass": 4,
    "nummentions": 8,
    "numsources": 1,
    "numarticles": 8,
    "avgtone": "0.276657254269194",
    "sourceurl": "http://www.suntimes.com/news/metro/20334513-418/6-dead-23-wounded-in-holiday-weekend-violence.html",
    "feature_id": "445859",
    "feature_name": "Westside",
    "state_alpha": "IN",
    "county_name": "Dearborn",
    "county_numeric": "029",
    "prim_lat_dec": "39.0639465",
    "prim_long_dec": "-84.9071738",
    "elev_in_m": "151",
    "elev_in_ft": "495",
    "lat": 39.0639465,
    "long": -84.9071738
  },
  {
    "globaleventid": 255359667,
    "sqldate": 20130527,
    "monthyear": 201305,
    "year": 2013,
    "fractiondate": "2013.4027",
    "eventcode": 193,
    "quadclass": 4,
    "nummentions": 9,
    "numsources": 3,
    "numarticles": 9,
    "avgtone": "0.0440917107583775",
    "sourceurl": "http://news.yahoo.com/chicago-gang-member-charged-march-shooting-death-infant-002745111.html",
    "feature_id": "423587",
    "feature_name": "Chicago",
    "state_alpha": "IL",
    "county_name": "Cook",
    "county_numeric": "031",
    "prim_lat_dec": "41.850033",
    "prim_long_dec": "-87.6500523",
    "elev_in_m": "179",
    "elev_in_ft": "587",
    "lat": 41.850033,
    "long": -87.6500523
  },
  {
    "globaleventid": 255359666,
    "sqldate": 20130527,
    "monthyear": 201305,
    "year": 2013,
    "fractiondate": "2013.4027",
    "eventcode": 193,
    "quadclass": 4,
    "nummentions": 2,
    "numsources": 1,
    "numarticles": 2,
    "avgtone": "0.0",
    "sourceurl": "http://www.foxnews.com/us/2013/05/27/man-shot-dead-at-florida-shooting-range/?utm_source=feedburner&utm_medium=feed&utm_campaign=Feed%3A+foxnews%2Fnational+%28Internal+-+US+Latest+-+Text%29",
    "feature_id": "288240",
    "feature_name": "Orlando",
    "state_alpha": "FL",
    "county_name": "Orange",
    "county_numeric": "095",
    "prim_lat_dec": "28.5383355",
    "prim_long_dec": "-81.3792365",
    "elev_in_m": "31",
    "elev_in_ft": "102",
    "lat": 28.5383355,
    "long": -81.3792365
  },
  {
    "globaleventid": 255359665,
    "sqldate": 20130527,
    "monthyear": 201305,
    "year": 2013,
    "fractiondate": "2013.4027",
    "eventcode": 190,
    "quadclass": 4,
    "nummentions": 4,
    "numsources": 1,
    "numarticles": 4,
    "avgtone": "4.66926070038911",
    "sourceurl": "http://www.foxnews.com/us/2013/05/27/america-female-soldiers-bravely-serving-and-dying-in-line-duty/?utm_source=feedburner&utm_medium=feed&utm_campaign=Feed%3A+foxnews%2Fnational+%28Internal+-+US+Latest+-+Text%29",
    "feature_id": "295427",
    "feature_name": "Manhattan",
    "state_alpha": "FL",
    "county_name": "Manatee",
    "county_numeric": "081",
    "prim_lat_dec": "27.5075391",
    "prim_long_dec": "-82.3187032",
    "elev_in_m": "22",
    "elev_in_ft": "72",
    "lat": 27.5075391,
    "long": -82.3187032
  },
  {
    "globaleventid": 255359664,
    "sqldate": 20130527,
    "monthyear": 201305,
    "year": 2013,
    "fractiondate": "2013.4027",
    "eventcode": 190,
    "quadclass": 4,
    "nummentions": 10,
    "numsources": 1,
    "numarticles": 10,
    "avgtone": "3.601108033241",
    "sourceurl": "http://www.washingtontimes.com/news/2013/may/27/obama-honor-veterans-nation-still-war/?utm_source=RSS_Feed&utm_medium=RSS",
    "feature_id": "1661377",
    "feature_name": "San Diego",
    "state_alpha": "CA",
    "county_name": "San Diego",
    "county_numeric": "073",
    "prim_lat_dec": "32.7153292",
    "prim_long_dec": "-117.1572551",
    "elev_in_m": "19",
    "elev_in_ft": "62",
    "lat": 32.7153292,
    "long": -117.1572551
  },
  {
    "globaleventid": 255359532,
    "sqldate": 20130527,
    "monthyear": 201305,
    "year": 2013,
    "fractiondate": "2013.4027",
    "eventcode": 138,
    "quadclass": 3,
    "nummentions": 15,
    "numsources": 4,
    "numarticles": 15,
    "avgtone": "3.31874015954291",
    "sourceurl": "http://www.npr.org/templates/story/story.php?storyId=186777006&ft=1&f=",
    "feature_id": "531871",
    "feature_name": "Washington",
    "state_alpha": "DC",
    "county_name": "District of Columbia",
    "county_numeric": "001",
    "prim_lat_dec": "38.8951118",
    "prim_long_dec": "-77.0363658",
    "elev_in_m": "7",
    "elev_in_ft": "23",
    "lat": 38.8951118,
    "long": -77.0363658
  },
  {
    "globaleventid": 255359522,
    "sqldate": 20130527,
    "monthyear": 201305,
    "year": 2013,
    "fractiondate": "2013.4027",
    "eventcode": 173,
    "quadclass": 4,
    "nummentions": 58,
    "numsources": 8,
    "numarticles": 58,
    "avgtone": "3.3786649870103",
    "sourceurl": "http://timesofindia.indiatimes.com/world/us/US-intelligence-embraces-debate-in-security-issues/articleshow/20304131.cms",
    "feature_id": "531871",
    "feature_name": "Washington",
    "state_alpha": "DC",
    "county_name": "District of Columbia",
    "county_numeric": "001",
    "prim_lat_dec": "38.8951118",
    "prim_long_dec": "-77.0363658",
    "elev_in_m": "7",
    "elev_in_ft": "23",
    "lat": 38.8951118,
    "long": -77.0363658
  },
  {
    "globaleventid": 255359516,
    "sqldate": 20130527,
    "monthyear": 201305,
    "year": 2013,
    "fractiondate": "2013.4027",
    "eventcode": 138,
    "quadclass": 3,
    "nummentions": 30,
    "numsources": 4,
    "numarticles": 30,
    "avgtone": "3.31874015954291",
    "sourceurl": "http://www.npr.org/templates/story/story.php?storyId=186777006&ft=1&f=",
    "feature_id": "531871",
    "feature_name": "Washington",
    "state_alpha": "DC",
    "county_name": "District of Columbia",
    "county_numeric": "001",
    "prim_lat_dec": "38.8951118",
    "prim_long_dec": "-77.0363658",
    "elev_in_m": "7",
    "elev_in_ft": "23",
    "lat": 38.8951118,
    "long": -77.0363658
  },
  {
    "globaleventid": 255359496,
    "sqldate": 20130527,
    "monthyear": 201305,
    "year": 2013,
    "fractiondate": "2013.4027",
    "eventcode": 190,
    "quadclass": 4,
    "nummentions": 20,
    "numsources": 2,
    "numarticles": 20,
    "avgtone": "1.93371641369627",
    "sourceurl": "http://www.gmanetwork.com/news/story/310321/news/world/obama-urges-americans-to-remember-countrymen-at-war",
    "feature_id": "531871",
    "feature_name": "Washington",
    "state_alpha": "DC",
    "county_name": "District of Columbia",
    "county_numeric": "001",
    "prim_lat_dec": "38.8951118",
    "prim_long_dec": "-77.0363658",
    "elev_in_m": "7",
    "elev_in_ft": "23",
    "lat": 38.8951118,
    "long": -77.0363658
  },
  {
    "globaleventid": 255359437,
    "sqldate": 20130527,
    "monthyear": 201305,
    "year": 2013,
    "fractiondate": "2013.4027",
    "eventcode": 190,
    "quadclass": 4,
    "nummentions": 18,
    "numsources": 1,
    "numarticles": 18,
    "avgtone": "2.14925373134328",
    "sourceurl": "http://www.usatoday.com/story/news/politics/2013/05/27/obama-war-media-leaks/2358059/?utm_source=feedburner&utm_medium=feed&utm_campaign=Feed%3A+usatoday-NewsTopStories+%28News+-+Top+Stories%29",
    "feature_id": "531871",
    "feature_name": "Washington",
    "state_alpha": "DC",
    "county_name": "District of Columbia",
    "county_numeric": "001",
    "prim_lat_dec": "38.8951118",
    "prim_long_dec": "-77.0363658",
    "elev_in_m": "7",
    "elev_in_ft": "23",
    "lat": 38.8951118,
    "long": -77.0363658
  },
  {
    "globaleventid": 255359436,
    "sqldate": 20130527,
    "monthyear": 201305,
    "year": 2013,
    "fractiondate": "2013.4027",
    "eventcode": 190,
    "quadclass": 4,
    "nummentions": 12,
    "numsources": 1,
    "numarticles": 12,
    "avgtone": "2.14925373134328",
    "sourceurl": "http://www.usatoday.com/story/news/politics/2013/05/27/obama-war-media-leaks/2358059/?utm_source=feedburner&utm_medium=feed&utm_campaign=Feed%3A+usatoday-NewsTopStories+%28News+-+Top+Stories%29",
    "feature_id": "1662328",
    "feature_name": "Los Angeles",
    "state_alpha": "CA",
    "county_name": "Los Angeles",
    "county_numeric": "037",
    "prim_lat_dec": "34.0522342",
    "prim_long_dec": "-118.2436849",
    "elev_in_m": "89",
    "elev_in_ft": "292",
    "lat": 34.0522342,
    "long": -118.2436849
  },
  {
    "globaleventid": 255359435,
    "sqldate": 20130527,
    "monthyear": 201305,
    "year": 2013,
    "fractiondate": "2013.4027",
    "eventcode": 112,
    "quadclass": 3,
    "nummentions": 18,
    "numsources": 1,
    "numarticles": 18,
    "avgtone": "2.14925373134328",
    "sourceurl": "http://www.usatoday.com/story/news/politics/2013/05/27/obama-war-media-leaks/2358059/?utm_source=feedburner&utm_medium=feed&utm_campaign=Feed%3A+usatoday-NewsTopStories+%28News+-+Top+Stories%29",
    "feature_id": "531871",
    "feature_name": "Washington",
    "state_alpha": "DC",
    "county_name": "District of Columbia",
    "county_numeric": "001",
    "prim_lat_dec": "38.8951118",
    "prim_long_dec": "-77.0363658",
    "elev_in_m": "7",
    "elev_in_ft": "23",
    "lat": 38.8951118,
    "long": -77.0363658
  },
  {
    "globaleventid": 255359434,
    "sqldate": 20130527,
    "monthyear": 201305,
    "year": 2013,
    "fractiondate": "2013.4027",
    "eventcode": 112,
    "quadclass": 3,
    "nummentions": 12,
    "numsources": 1,
    "numarticles": 12,
    "avgtone": "2.14925373134328",
    "sourceurl": "http://www.usatoday.com/story/news/politics/2013/05/27/obama-war-media-leaks/2358059/?utm_source=feedburner&utm_medium=feed&utm_campaign=Feed%3A+usatoday-NewsTopStories+%28News+-+Top+Stories%29",
    "feature_id": "1662328",
    "feature_name": "Los Angeles",
    "state_alpha": "CA",
    "county_name": "Los Angeles",
    "county_numeric": "037",
    "prim_lat_dec": "34.0522342",
    "prim_long_dec": "-118.2436849",
    "elev_in_m": "89",
    "elev_in_ft": "292",
    "lat": 34.0522342,
    "long": -118.2436849
  },
  {
    "globaleventid": 255359222,
    "sqldate": 20130527,
    "monthyear": 201305,
    "year": 2013,
    "fractiondate": "2013.4027",
    "eventcode": 190,
    "quadclass": 4,
    "nummentions": 6,
    "numsources": 1,
    "numarticles": 6,
    "avgtone": "2.53164556962025",
    "sourceurl": "http://bostonherald.com/news_opinion/local_politics/2013/05/leaders_gabriel_gomez_doesn_t_have_lock_on_latino_vote",
    "feature_id": "612993",
    "feature_name": "Roxbury",
    "state_alpha": "MA",
    "county_name": "Suffolk",
    "county_numeric": "025",
    "prim_lat_dec": "42.3250978",
    "prim_long_dec": "-71.0953294",
    "elev_in_m": "47",
    "elev_in_ft": "154",
    "lat": 42.3250978,
    "long": -71.0953294
  },
  {
    "globaleventid": 255359221,
    "sqldate": 20130527,
    "monthyear": 201305,
    "year": 2013,
    "fractiondate": "2013.4027",
    "eventcode": 173,
    "quadclass": 4,
    "nummentions": 8,
    "numsources": 1,
    "numarticles": 8,
    "avgtone": "1.95402298850575",
    "sourceurl": "http://www.miamiherald.com/2013/05/27/3418964/ga-civil-war-camp-turns-up-hundreds.html",
    "feature_id": "326131",
    "feature_name": "Georgia Southern",
    "state_alpha": "GA",
    "county_name": "Bulloch",
    "county_numeric": "031",
    "prim_lat_dec": "32.4135124",
    "prim_long_dec": "-81.7831675",
    "elev_in_m": "66",
    "elev_in_ft": "217",
    "lat": 32.4135124,
    "long": -81.7831675
  },
  {
    "globaleventid": 255359214,
    "sqldate": 20130527,
    "monthyear": 201305,
    "year": 2013,
    "fractiondate": "2013.4027",
    "eventcode": 193,
    "quadclass": 4,
    "nummentions": 8,
    "numsources": 1,
    "numarticles": 8,
    "avgtone": "0.276657254269194",
    "sourceurl": "http://www.suntimes.com/news/metro/20334513-418/6-dead-23-wounded-in-holiday-weekend-violence.html",
    "feature_id": "445859",
    "feature_name": "Westside",
    "state_alpha": "IN",
    "county_name": "Dearborn",
    "county_numeric": "029",
    "prim_lat_dec": "39.0639465",
    "prim_long_dec": "-84.9071738",
    "elev_in_m": "151",
    "elev_in_ft": "495",
    "lat": 39.0639465,
    "long": -84.9071738
  },
  {
    "globaleventid": 255359213,
    "sqldate": 20130527,
    "monthyear": 201305,
    "year": 2013,
    "fractiondate": "2013.4027",
    "eventcode": 193,
    "quadclass": 4,
    "nummentions": 1,
    "numsources": 1,
    "numarticles": 1,
    "avgtone": "0.396825396825397",
    "sourceurl": "http://www.upi.com/blog/2013/05/27/6-dead-Chicago-shootings-rise-for-holiday-weekend/8641369656739/",
    "feature_id": "423587",
    "feature_name": "Chicago",
    "state_alpha": "IL",
    "county_name": "Cook",
    "county_numeric": "031",
    "prim_lat_dec": "41.850033",
    "prim_long_dec": "-87.6500523",
    "elev_in_m": "179",
    "elev_in_ft": "587",
    "lat": 41.850033,
    "long": -87.6500523
  },
  {
    "globaleventid": 255359212,
    "sqldate": 20130527,
    "monthyear": 201305,
    "year": 2013,
    "fractiondate": "2013.4027",
    "eventcode": 193,
    "quadclass": 4,
    "nummentions": 8,
    "numsources": 1,
    "numarticles": 8,
    "avgtone": "0.276657254269194",
    "sourceurl": "http://www.suntimes.com/news/metro/20334513-418/6-dead-23-wounded-in-holiday-weekend-violence.html",
    "feature_id": "420902",
    "feature_name": "West Pullman",
    "state_alpha": "IL",
    "county_name": "Cook",
    "county_numeric": "031",
    "prim_lat_dec": "41.6794786",
    "prim_long_dec": "-87.6419922",
    "elev_in_m": "187",
    "elev_in_ft": "614",
    "lat": 41.6794786,
    "long": -87.6419922
  },
  {
    "globaleventid": 255359189,
    "sqldate": 20130527,
    "monthyear": 201305,
    "year": 2013,
    "fractiondate": "2013.4027",
    "eventcode": 193,
    "quadclass": 4,
    "nummentions": 6,
    "numsources": 1,
    "numarticles": 6,
    "avgtone": "0.0",
    "sourceurl": "http://www.reuters.com/article/2013/05/28/us-usa-crime-chicago-idUSBRE94R00J20130528?feedType=RSS&feedName=domesticNews",
    "feature_id": "423587",
    "feature_name": "Chicago",
    "state_alpha": "IL",
    "county_name": "Cook",
    "county_numeric": "031",
    "prim_lat_dec": "41.850033",
    "prim_long_dec": "-87.6500523",
    "elev_in_m": "179",
    "elev_in_ft": "587",
    "lat": 41.850033,
    "long": -87.6500523
  },
  {
    "globaleventid": 255359188,
    "sqldate": 20130527,
    "monthyear": 201305,
    "year": 2013,
    "fractiondate": "2013.4027",
    "eventcode": 173,
    "quadclass": 4,
    "nummentions": 4,
    "numsources": 2,
    "numarticles": 4,
    "avgtone": "0.0",
    "sourceurl": "http://news.yahoo.com/chicago-gang-member-charged-march-shooting-death-infant-002745111.html",
    "feature_id": "423587",
    "feature_name": "Chicago",
    "state_alpha": "IL",
    "county_name": "Cook",
    "county_numeric": "031",
    "prim_lat_dec": "41.850033",
    "prim_long_dec": "-87.6500523",
    "elev_in_m": "179",
    "elev_in_ft": "587",
    "lat": 41.850033,
    "long": -87.6500523
  },
  {
    "globaleventid": 255359186,
    "sqldate": 20130527,
    "monthyear": 201305,
    "year": 2013,
    "fractiondate": "2013.4027",
    "eventcode": 193,
    "quadclass": 4,
    "nummentions": 4,
    "numsources": 1,
    "numarticles": 4,
    "avgtone": "0.98314606741573",
    "sourceurl": "http://www.suntimes.com/news/metro/20363069-418/suspect-questioned-in-fatal-shooting-of-6-month-old-jonylah-watkins.html",
    "feature_id": "423587",
    "feature_name": "Chicago",
    "state_alpha": "IL",
    "county_name": "Cook",
    "county_numeric": "031",
    "prim_lat_dec": "41.850033",
    "prim_long_dec": "-87.6500523",
    "elev_in_m": "179",
    "elev_in_ft": "587",
    "lat": 41.850033,
    "long": -87.6500523
  },
  {
    "globaleventid": 255359185,
    "sqldate": 20130527,
    "monthyear": 201305,
    "year": 2013,
    "fractiondate": "2013.4027",
    "eventcode": 190,
    "quadclass": 4,
    "nummentions": 1,
    "numsources": 1,
    "numarticles": 1,
    "avgtone": "0.234192037470726",
    "sourceurl": "http://www.sfgate.com/bayarea/article/Three-killed-in-early-morning-Colma-crash-4551546.php",
    "feature_id": "1658369",
    "feature_name": "Daly City",
    "state_alpha": "CA",
    "county_name": "San Mateo",
    "county_numeric": "081",
    "prim_lat_dec": "37.7058333",
    "prim_long_dec": "-122.4619444",
    "elev_in_m": "124",
    "elev_in_ft": "407",
    "lat": 37.7058333,
    "long": -122.4619444
  },
  {
    "globaleventid": 255359184,
    "sqldate": 20130527,
    "monthyear": 201305,
    "year": 2013,
    "fractiondate": "2013.4027",
    "eventcode": 190,
    "quadclass": 4,
    "nummentions": 1,
    "numsources": 1,
    "numarticles": 1,
    "avgtone": "0.234192037470726",
    "sourceurl": "http://www.sfgate.com/bayarea/article/Three-killed-in-early-morning-Colma-crash-4551546.php",
    "feature_id": "1658303",
    "feature_name": "Colma",
    "state_alpha": "CA",
    "county_name": "San Mateo",
    "county_numeric": "081",
    "prim_lat_dec": "37.6769444",
    "prim_long_dec": "-122.4597222",
    "elev_in_m": "35",
    "elev_in_ft": "115",
    "lat": 37.6769444,
    "long": -122.4597222
  },
  {
    "globaleventid": 255359183,
    "sqldate": 20130527,
    "monthyear": 201305,
    "year": 2013,
    "fractiondate": "2013.4027",
    "eventcode": 190,
    "quadclass": 4,
    "nummentions": 6,
    "numsources": 1,
    "numarticles": 6,
    "avgtone": "0.0",
    "sourceurl": "http://www.chron.com/news/houston-texas/houston/article/Woman-killed-overnight-in-wreck-on-Memorial-Drive-4551170.php",
    "feature_id": "1380948",
    "feature_name": "Houston",
    "state_alpha": "TX",
    "county_name": "Harris",
    "county_numeric": "201",
    "prim_lat_dec": "29.7632836",
    "prim_long_dec": "-95.3632715",
    "elev_in_m": "11",
    "elev_in_ft": "36",
    "lat": 29.7632836,
    "long": -95.3632715
  },
  {
    "globaleventid": 255359182,
    "sqldate": 20130527,
    "monthyear": 201305,
    "year": 2013,
    "fractiondate": "2013.4027",
    "eventcode": 173,
    "quadclass": 4,
    "nummentions": 2,
    "numsources": 1,
    "numarticles": 2,
    "avgtone": "0.985221674876847",
    "sourceurl": "http://www.cbc.ca/news/canada/manitoba/story/2013/05/27/mb-kidnapping-arrest-brandon-manitoba.html?cmp=googleeditorspick",
    "feature_id": "201738",
    "feature_name": "Denver",
    "state_alpha": "CO",
    "county_name": "Denver",
    "county_numeric": "031",
    "prim_lat_dec": "39.7391536",
    "prim_long_dec": "-104.9847034",
    "elev_in_m": "1609",
    "elev_in_ft": "5279",
    "lat": 39.7391536,
    "long": -104.9847034
  },
  {
    "globaleventid": 255359115,
    "sqldate": 20130527,
    "monthyear": 201305,
    "year": 2013,
    "fractiondate": "2013.4027",
    "eventcode": 193,
    "quadclass": 4,
    "nummentions": 2,
    "numsources": 1,
    "numarticles": 2,
    "avgtone": "4.50819672131148",
    "sourceurl": "http://www.cbsnews.com/8301-18563_162-57586337/vietnams-last-pows-gather-for-perhaps-a-final-salute/",
    "feature_id": "531871",
    "feature_name": "Washington",
    "state_alpha": "DC",
    "county_name": "District of Columbia",
    "county_numeric": "001",
    "prim_lat_dec": "38.8951118",
    "prim_long_dec": "-77.0363658",
    "elev_in_m": "7",
    "elev_in_ft": "23",
    "lat": 38.8951118,
    "long": -77.0363658
  },
  {
    "globaleventid": 255359103,
    "sqldate": 20130527,
    "monthyear": 201305,
    "year": 2013,
    "fractiondate": "2013.4027",
    "eventcode": 160,
    "quadclass": 4,
    "nummentions": 10,
    "numsources": 1,
    "numarticles": 10,
    "avgtone": "2.91375291375291",
    "sourceurl": "http://oilprice.com/Geopolitics/South-America/Venezuelan-President-Maduro-Offers-Olive-Branch-to-Washington.html",
    "feature_id": "531871",
    "feature_name": "Washington",
    "state_alpha": "DC",
    "county_name": "District of Columbia",
    "county_numeric": "001",
    "prim_lat_dec": "38.8951118",
    "prim_long_dec": "-77.0363658",
    "elev_in_m": "7",
    "elev_in_ft": "23",
    "lat": 38.8951118,
    "long": -77.0363658
  },
  {
    "globaleventid": 255359084,
    "sqldate": 20130527,
    "monthyear": 201305,
    "year": 2013,
    "fractiondate": "2013.4027",
    "eventcode": 193,
    "quadclass": 4,
    "nummentions": 4,
    "numsources": 1,
    "numarticles": 4,
    "avgtone": "0.0",
    "sourceurl": "http://www.reuters.com/article/2013/05/28/us-usa-crime-chicago-idUSBRE94R00J20130528?feedType=RSS&feedName=domesticNews",
    "feature_id": "423587",
    "feature_name": "Chicago",
    "state_alpha": "IL",
    "county_name": "Cook",
    "county_numeric": "031",
    "prim_lat_dec": "41.850033",
    "prim_long_dec": "-87.6500523",
    "elev_in_m": "179",
    "elev_in_ft": "587",
    "lat": 41.850033,
    "long": -87.6500523
  },
  {
    "globaleventid": 255359081,
    "sqldate": 20130527,
    "monthyear": 201305,
    "year": 2013,
    "fractiondate": "2013.4027",
    "eventcode": 141,
    "quadclass": 3,
    "nummentions": 2,
    "numsources": 1,
    "numarticles": 2,
    "avgtone": "4.15704387990762",
    "sourceurl": "http://www.koreatimes.co.kr/www/news/nation/2013/05/485_136465.html",
    "feature_id": "531871",
    "feature_name": "Washington",
    "state_alpha": "DC",
    "county_name": "District of Columbia",
    "county_numeric": "001",
    "prim_lat_dec": "38.8951118",
    "prim_long_dec": "-77.0363658",
    "elev_in_m": "7",
    "elev_in_ft": "23",
    "lat": 38.8951118,
    "long": -77.0363658
  },
  {
    "globaleventid": 255359080,
    "sqldate": 20130527,
    "monthyear": 201305,
    "year": 2013,
    "fractiondate": "2013.4027",
    "eventcode": 120,
    "quadclass": 3,
    "nummentions": 2,
    "numsources": 1,
    "numarticles": 2,
    "avgtone": "1.58730158730159",
    "sourceurl": "http://news.xinhuanet.com/english/world/2013-05/28/c_132412275.htm",
    "feature_id": "531871",
    "feature_name": "Washington",
    "state_alpha": "DC",
    "county_name": "District of Columbia",
    "county_numeric": "001",
    "prim_lat_dec": "38.8951118",
    "prim_long_dec": "-77.0363658",
    "elev_in_m": "7",
    "elev_in_ft": "23",
    "lat": 38.8951118,
    "long": -77.0363658
  },
  {
    "globaleventid": 255359039,
    "sqldate": 20130527,
    "monthyear": 201305,
    "year": 2013,
    "fractiondate": "2013.4027",
    "eventcode": 173,
    "quadclass": 4,
    "nummentions": 2,
    "numsources": 1,
    "numarticles": 2,
    "avgtone": "1.95694716242661",
    "sourceurl": "http://www.suntimes.com/news/20259278-452/city-job-safe-despite-felony-convictions-after-quinn-pardon.html",
    "feature_id": "423587",
    "feature_name": "Chicago",
    "state_alpha": "IL",
    "county_name": "Cook",
    "county_numeric": "031",
    "prim_lat_dec": "41.850033",
    "prim_long_dec": "-87.6500523",
    "elev_in_m": "179",
    "elev_in_ft": "587",
    "lat": 41.850033,
    "long": -87.6500523
  },
  {
    "globaleventid": 255359033,
    "sqldate": 20130527,
    "monthyear": 201305,
    "year": 2013,
    "fractiondate": "2013.4027",
    "eventcode": 193,
    "quadclass": 4,
    "nummentions": 2,
    "numsources": 1,
    "numarticles": 2,
    "avgtone": "0.0",
    "sourceurl": "http://www.foxnews.com/us/2013/05/27/man-shot-dead-at-florida-shooting-range/?utm_source=feedburner&utm_medium=feed&utm_campaign=Feed%3A+foxnews%2Fnational+%28Internal+-+US+Latest+-+Text%29",
    "feature_id": "288240",
    "feature_name": "Orlando",
    "state_alpha": "FL",
    "county_name": "Orange",
    "county_numeric": "095",
    "prim_lat_dec": "28.5383355",
    "prim_long_dec": "-81.3792365",
    "elev_in_m": "31",
    "elev_in_ft": "102",
    "lat": 28.5383355,
    "long": -81.3792365
  },
  {
    "globaleventid": 255359029,
    "sqldate": 20130527,
    "monthyear": 201305,
    "year": 2013,
    "fractiondate": "2013.4027",
    "eventcode": 193,
    "quadclass": 4,
    "nummentions": 6,
    "numsources": 2,
    "numarticles": 6,
    "avgtone": "0.582750582750583",
    "sourceurl": "http://www.miamiherald.com/2013/05/27/3418998/man-fatally-wounded-at-florida.html",
    "feature_id": "288240",
    "feature_name": "Orlando",
    "state_alpha": "FL",
    "county_name": "Orange",
    "county_numeric": "095",
    "prim_lat_dec": "28.5383355",
    "prim_long_dec": "-81.3792365",
    "elev_in_m": "31",
    "elev_in_ft": "102",
    "lat": 28.5383355,
    "long": -81.3792365
  },
  {
    "globaleventid": 255359025,
    "sqldate": 20130527,
    "monthyear": 201305,
    "year": 2013,
    "fractiondate": "2013.4027",
    "eventcode": 190,
    "quadclass": 4,
    "nummentions": 12,
    "numsources": 3,
    "numarticles": 12,
    "avgtone": "0.0",
    "sourceurl": "http://www.cbsnews.com/8301-504083_162-57586297-504083/chicago-memorial-day-weekend-violence-six-killed-11-wounded-in-separate-shootings-police-say/",
    "feature_id": "423587",
    "feature_name": "Chicago",
    "state_alpha": "IL",
    "county_name": "Cook",
    "county_numeric": "031",
    "prim_lat_dec": "41.850033",
    "prim_long_dec": "-87.6500523",
    "elev_in_m": "179",
    "elev_in_ft": "587",
    "lat": 41.850033,
    "long": -87.6500523
  },
  {
    "globaleventid": 255359023,
    "sqldate": 20130527,
    "monthyear": 201305,
    "year": 2013,
    "fractiondate": "2013.4027",
    "eventcode": 190,
    "quadclass": 4,
    "nummentions": 2,
    "numsources": 1,
    "numarticles": 2,
    "avgtone": "0.486223662884927",
    "sourceurl": "http://www.inforum.com/event/article/id/401101/",
    "feature_id": "1617895",
    "feature_name": "Tioga",
    "state_alpha": "MI",
    "county_name": "Baraga",
    "county_numeric": "013",
    "prim_lat_dec": "46.5582708",
    "prim_long_dec": "-88.3487465",
    "elev_in_m": "513",
    "elev_in_ft": "1683",
    "lat": 46.5582708,
    "long": -88.3487465
  },
  {
    "globaleventid": 255359022,
    "sqldate": 20130527,
    "monthyear": 201305,
    "year": 2013,
    "fractiondate": "2013.4027",
    "eventcode": 173,
    "quadclass": 4,
    "nummentions": 10,
    "numsources": 1,
    "numarticles": 10,
    "avgtone": "4.18006430868167",
    "sourceurl": "http://www.upi.com/Top_News/US/2013/05/27/Obama-to-Americans-Be-worthy-of-armed-forces-sacrifices/UPI-70501369675791/",
    "feature_id": "531871",
    "feature_name": "Washington",
    "state_alpha": "DC",
    "county_name": "District of Columbia",
    "county_numeric": "001",
    "prim_lat_dec": "38.8951118",
    "prim_long_dec": "-77.0363658",
    "elev_in_m": "7",
    "elev_in_ft": "23",
    "lat": 38.8951118,
    "long": -77.0363658
  },
  {
    "globaleventid": 255359018,
    "sqldate": 20130527,
    "monthyear": 201305,
    "year": 2013,
    "fractiondate": "2013.4027",
    "eventcode": 120,
    "quadclass": 3,
    "nummentions": 8,
    "numsources": 1,
    "numarticles": 8,
    "avgtone": "2.88315629742033",
    "sourceurl": "http://rt.com/news/lavrov-kerry-syria-peace-829/",
    "feature_id": "531871",
    "feature_name": "Washington",
    "state_alpha": "DC",
    "county_name": "District of Columbia",
    "county_numeric": "001",
    "prim_lat_dec": "38.8951118",
    "prim_long_dec": "-77.0363658",
    "elev_in_m": "7",
    "elev_in_ft": "23",
    "lat": 38.8951118,
    "long": -77.0363658
  },
  {
    "globaleventid": 255358938,
    "sqldate": 20130527,
    "monthyear": 201305,
    "year": 2013,
    "fractiondate": "2013.4027",
    "eventcode": 192,
    "quadclass": 4,
    "nummentions": 2,
    "numsources": 1,
    "numarticles": 2,
    "avgtone": "2.14168039538715",
    "sourceurl": "http://abcnews.go.com/US/memorial-day-fateful-day-pulls-survivor-back-normandy/story?id=19245253",
    "feature_id": "643177",
    "feature_name": "Edina",
    "state_alpha": "MN",
    "county_name": "Hennepin",
    "county_numeric": "053",
    "prim_lat_dec": "44.8896866",
    "prim_long_dec": "-93.3499489",
    "elev_in_m": "281",
    "elev_in_ft": "922",
    "lat": 44.8896866,
    "long": -93.3499489
  },
  {
    "globaleventid": 255358936,
    "sqldate": 20130527,
    "monthyear": 201305,
    "year": 2013,
    "fractiondate": "2013.4027",
    "eventcode": 1712,
    "quadclass": 4,
    "nummentions": 1,
    "numsources": 1,
    "numarticles": 1,
    "avgtone": "1.93482688391039",
    "sourceurl": "http://www.seattlepi.com/news/science/article/Maine-seaside-village-seeks-solution-to-erosion-4551055.php",
    "feature_id": "563396",
    "feature_name": "Camp Ellis",
    "state_alpha": "ME",
    "county_name": "York",
    "county_numeric": "031",
    "prim_lat_dec": "43.4636965",
    "prim_long_dec": "-70.3803271",
    "elev_in_m": "0",
    "elev_in_ft": "0",
    "lat": 43.4636965,
    "long": -70.3803271
  },
  {
    "globaleventid": 255358927,
    "sqldate": 20130527,
    "monthyear": 201305,
    "year": 2013,
    "fractiondate": "2013.4027",
    "eventcode": 193,
    "quadclass": 4,
    "nummentions": 12,
    "numsources": 3,
    "numarticles": 10,
    "avgtone": "0.0",
    "sourceurl": "http://news.yahoo.com/chicago-gang-member-charged-march-shooting-death-infant-002745111.html",
    "feature_id": "423587",
    "feature_name": "Chicago",
    "state_alpha": "IL",
    "county_name": "Cook",
    "county_numeric": "031",
    "prim_lat_dec": "41.850033",
    "prim_long_dec": "-87.6500523",
    "elev_in_m": "179",
    "elev_in_ft": "587",
    "lat": 41.850033,
    "long": -87.6500523
  },
  {
    "globaleventid": 255358926,
    "sqldate": 20130527,
    "monthyear": 201305,
    "year": 2013,
    "fractiondate": "2013.4027",
    "eventcode": 112,
    "quadclass": 3,
    "nummentions": 4,
    "numsources": 2,
    "numarticles": 4,
    "avgtone": "0.0",
    "sourceurl": "http://news.yahoo.com/chicago-gang-member-charged-march-shooting-death-infant-002745111.html",
    "feature_id": "423587",
    "feature_name": "Chicago",
    "state_alpha": "IL",
    "county_name": "Cook",
    "county_numeric": "031",
    "prim_lat_dec": "41.850033",
    "prim_long_dec": "-87.6500523",
    "elev_in_m": "179",
    "elev_in_ft": "587",
    "lat": 41.850033,
    "long": -87.6500523
  },
  {
    "globaleventid": 255358925,
    "sqldate": 20130527,
    "monthyear": 201305,
    "year": 2013,
    "fractiondate": "2013.4027",
    "eventcode": 193,
    "quadclass": 4,
    "nummentions": 8,
    "numsources": 2,
    "numarticles": 8,
    "avgtone": "0.491573033707865",
    "sourceurl": "http://www.upi.com/Top_News/US/2013/05/27/Suspect-questioned-in-fatal-shooting-of-toddler/UPI-39051369699364/",
    "feature_id": "423587",
    "feature_name": "Chicago",
    "state_alpha": "IL",
    "county_name": "Cook",
    "county_numeric": "031",
    "prim_lat_dec": "41.850033",
    "prim_long_dec": "-87.6500523",
    "elev_in_m": "179",
    "elev_in_ft": "587",
    "lat": 41.850033,
    "long": -87.6500523
  },
  {
    "globaleventid": 255358924,
    "sqldate": 20130527,
    "monthyear": 201305,
    "year": 2013,
    "fractiondate": "2013.4027",
    "eventcode": 190,
    "quadclass": 4,
    "nummentions": 4,
    "numsources": 1,
    "numarticles": 4,
    "avgtone": "0.649350649350649",
    "sourceurl": "http://abclocal.go.com/wls/story?section=news/local&id=9116604",
    "feature_id": "423587",
    "feature_name": "Chicago",
    "state_alpha": "IL",
    "county_name": "Cook",
    "county_numeric": "031",
    "prim_lat_dec": "41.850033",
    "prim_long_dec": "-87.6500523",
    "elev_in_m": "179",
    "elev_in_ft": "587",
    "lat": 41.850033,
    "long": -87.6500523
  },
  {
    "globaleventid": 255358923,
    "sqldate": 20130527,
    "monthyear": 201305,
    "year": 2013,
    "fractiondate": "2013.4027",
    "eventcode": 190,
    "quadclass": 4,
    "nummentions": 4,
    "numsources": 1,
    "numarticles": 4,
    "avgtone": "0.0",
    "sourceurl": "http://www.chron.com/news/houston-texas/houston/article/Woman-killed-overnight-in-wreck-on-Memorial-Drive-4551170.php",
    "feature_id": "1380948",
    "feature_name": "Houston",
    "state_alpha": "TX",
    "county_name": "Harris",
    "county_numeric": "201",
    "prim_lat_dec": "29.7632836",
    "prim_long_dec": "-95.3632715",
    "elev_in_m": "11",
    "elev_in_ft": "36",
    "lat": 29.7632836,
    "long": -95.3632715
  },
  {
    "globaleventid": 255358922,
    "sqldate": 20130527,
    "monthyear": 201305,
    "year": 2013,
    "fractiondate": "2013.4027",
    "eventcode": 180,
    "quadclass": 4,
    "nummentions": 2,
    "numsources": 1,
    "numarticles": 2,
    "avgtone": "0.0",
    "sourceurl": "http://www.news.com.au/breaking-news/national/wa-policeman-quits-over-assault-claims/story-e6frfku9-1226651628083?from=public_rss",
    "feature_id": "531871",
    "feature_name": "Washington",
    "state_alpha": "DC",
    "county_name": "District of Columbia",
    "county_numeric": "001",
    "prim_lat_dec": "38.8951118",
    "prim_long_dec": "-77.0363658",
    "elev_in_m": "7",
    "elev_in_ft": "23",
    "lat": 38.8951118,
    "long": -77.0363658
  },
  {
    "globaleventid": 255358921,
    "sqldate": 20130527,
    "monthyear": 201305,
    "year": 2013,
    "fractiondate": "2013.4027",
    "eventcode": 173,
    "quadclass": 4,
    "nummentions": 4,
    "numsources": 1,
    "numarticles": 4,
    "avgtone": "0.0",
    "sourceurl": "http://www.thestate.com/2013/05/25/2786497/woman-arrested-in-myrtle-beach.html",
    "feature_id": "1249770",
    "feature_name": "Myrtle Beach",
    "state_alpha": "SC",
    "county_name": "Horry",
    "county_numeric": "051",
    "prim_lat_dec": "33.6890603",
    "prim_long_dec": "-78.8866943",
    "elev_in_m": "8",
    "elev_in_ft": "26",
    "lat": 33.6890603,
    "long": -78.8866943
  },
  {
    "globaleventid": 255358920,
    "sqldate": 20130527,
    "monthyear": 201305,
    "year": 2013,
    "fractiondate": "2013.4027",
    "eventcode": 173,
    "quadclass": 4,
    "nummentions": 4,
    "numsources": 1,
    "numarticles": 4,
    "avgtone": "0.0",
    "sourceurl": "http://www.thestate.com/2013/05/25/2786497/woman-arrested-in-myrtle-beach.html",
    "feature_id": "1249770",
    "feature_name": "Myrtle Beach",
    "state_alpha": "SC",
    "county_name": "Horry",
    "county_numeric": "051",
    "prim_lat_dec": "33.6890603",
    "prim_long_dec": "-78.8866943",
    "elev_in_m": "8",
    "elev_in_ft": "26",
    "lat": 33.6890603,
    "long": -78.8866943
  },
  {
    "globaleventid": 255358847,
    "sqldate": 20130527,
    "monthyear": 201305,
    "year": 2013,
    "fractiondate": "2013.4027",
    "eventcode": 192,
    "quadclass": 4,
    "nummentions": 10,
    "numsources": 3,
    "numarticles": 10,
    "avgtone": "2.28260180252116",
    "sourceurl": "http://www.foxnews.com/us/2013/05/27/senator-mccain-frequent-critic-us-mideast-policy-visits-with-rebels-in-syria/?utm_source=feedburner&utm_medium=feed&utm_campaign=Feed%3A+foxnews%2Fnational+%28Internal+-+US+Latest+-+Text%29",
    "feature_id": "531871",
    "feature_name": "Washington",
    "state_alpha": "DC",
    "county_name": "District of Columbia",
    "county_numeric": "001",
    "prim_lat_dec": "38.8951118",
    "prim_long_dec": "-77.0363658",
    "elev_in_m": "7",
    "elev_in_ft": "23",
    "lat": 38.8951118,
    "long": -77.0363658
  },
  {
    "globaleventid": 255358845,
    "sqldate": 20130527,
    "monthyear": 201305,
    "year": 2013,
    "fractiondate": "2013.4027",
    "eventcode": 190,
    "quadclass": 4,
    "nummentions": 1,
    "numsources": 1,
    "numarticles": 1,
    "avgtone": "2.84900284900285",
    "sourceurl": "http://www.telegraph.co.uk/news/worldnews/middleeast/syria/10083005/John-McCain-slips-into-Syria-to-meet-rebels.html",
    "feature_id": "531871",
    "feature_name": "Washington",
    "state_alpha": "DC",
    "county_name": "District of Columbia",
    "county_numeric": "001",
    "prim_lat_dec": "38.8951118",
    "prim_long_dec": "-77.0363658",
    "elev_in_m": "7",
    "elev_in_ft": "23",
    "lat": 38.8951118,
    "long": -77.0363658
  },
  {
    "globaleventid": 255358603,
    "sqldate": 20130527,
    "monthyear": 201305,
    "year": 2013,
    "fractiondate": "2013.4027",
    "eventcode": 172,
    "quadclass": 4,
    "nummentions": 10,
    "numsources": 1,
    "numarticles": 10,
    "avgtone": "3.32480818414322",
    "sourceurl": "http://www.dailymail.co.uk/sciencetech/article-2331620/Want-Glass-photographer-Hilarious-new-video-reveal-contortions-snappers-perfect-picture-Googles-wearable-computer.html?ito=feeds-newsxml",
    "feature_id": "956335",
    "feature_name": "Manchester",
    "state_alpha": "NY",
    "county_name": "Ontario",
    "county_numeric": "069",
    "prim_lat_dec": "42.9697857",
    "prim_long_dec": "-77.2302586",
    "elev_in_m": "180",
    "elev_in_ft": "591",
    "lat": 42.9697857,
    "long": -77.2302586
  },
  {
    "globaleventid": 255358578,
    "sqldate": 20130527,
    "monthyear": 201305,
    "year": 2013,
    "fractiondate": "2013.4027",
    "eventcode": 180,
    "quadclass": 4,
    "nummentions": 2,
    "numsources": 1,
    "numarticles": 2,
    "avgtone": "2.89855072463768",
    "sourceurl": "http://www.bostonglobe.com/news/nation/2013/05/26/senator-would-fire-commanders-allowing-assault/0sJekLiFLGWgwHcb6BIyWN/story.html",
    "feature_id": "531871",
    "feature_name": "Washington",
    "state_alpha": "DC",
    "county_name": "District of Columbia",
    "county_numeric": "001",
    "prim_lat_dec": "38.8951118",
    "prim_long_dec": "-77.0363658",
    "elev_in_m": "7",
    "elev_in_ft": "23",
    "lat": 38.8951118,
    "long": -77.0363658
  },
  {
    "globaleventid": 255358577,
    "sqldate": 20130527,
    "monthyear": 201305,
    "year": 2013,
    "fractiondate": "2013.4027",
    "eventcode": 180,
    "quadclass": 4,
    "nummentions": 18,
    "numsources": 2,
    "numarticles": 18,
    "avgtone": "2.88283591333559",
    "sourceurl": "http://www.news24.com/World/News/US-commanders-under-fire-for-sex-assaults-20130527",
    "feature_id": "531871",
    "feature_name": "Washington",
    "state_alpha": "DC",
    "county_name": "District of Columbia",
    "county_numeric": "001",
    "prim_lat_dec": "38.8951118",
    "prim_long_dec": "-77.0363658",
    "elev_in_m": "7",
    "elev_in_ft": "23",
    "lat": 38.8951118,
    "long": -77.0363658
  },
  {
    "globaleventid": 255358573,
    "sqldate": 20130527,
    "monthyear": 201305,
    "year": 2013,
    "fractiondate": "2013.4027",
    "eventcode": 130,
    "quadclass": 3,
    "nummentions": 8,
    "numsources": 1,
    "numarticles": 8,
    "avgtone": "0.847457627118644",
    "sourceurl": "http://www.prnewswire.com/news-releases/grandeur-of-the-seas-arrives-in-freeport-the-bahamas-209064431.html",
    "feature_id": "282806",
    "feature_name": "Freeport",
    "state_alpha": "FL",
    "county_name": "Walton",
    "county_numeric": "131",
    "prim_lat_dec": "30.4982516",
    "prim_long_dec": "-86.1360517",
    "elev_in_m": "10",
    "elev_in_ft": "33",
    "lat": 30.4982516,
    "long": -86.1360517
  },
  {
    "globaleventid": 255358498,
    "sqldate": 20130527,
    "monthyear": 201305,
    "year": 2013,
    "fractiondate": "2013.4027",
    "eventcode": 173,
    "quadclass": 4,
    "nummentions": 6,
    "numsources": 1,
    "numarticles": 6,
    "avgtone": "3.69318181818182",
    "sourceurl": "http://www.bbc.co.uk/news/technology-22680297#sa-ns_mchannel=rss&ns_source=PublicRSS20-sa",
    "feature_id": "944840",
    "feature_name": "Brooklyn",
    "state_alpha": "NY",
    "county_name": "Delaware",
    "county_numeric": "025",
    "prim_lat_dec": "42.3442482",
    "prim_long_dec": "-75.1704468",
    "elev_in_m": "366",
    "elev_in_ft": "1201",
    "lat": 42.3442482,
    "long": -75.1704468
  },
  {
    "globaleventid": 255358496,
    "sqldate": 20130527,
    "monthyear": 201305,
    "year": 2013,
    "fractiondate": "2013.4027",
    "eventcode": 172,
    "quadclass": 4,
    "nummentions": 2,
    "numsources": 1,
    "numarticles": 2,
    "avgtone": "2.58136924803591",
    "sourceurl": "http://edition.cnn.com/2013/05/22/opinion/iraq-dark-days-returning/index.html?eref=edition",
    "feature_id": "423587",
    "feature_name": "Chicago",
    "state_alpha": "IL",
    "county_name": "Cook",
    "county_numeric": "031",
    "prim_lat_dec": "41.850033",
    "prim_long_dec": "-87.6500523",
    "elev_in_m": "179",
    "elev_in_ft": "587",
    "lat": 41.850033,
    "long": -87.6500523
  },
  {
    "globaleventid": 255358495,
    "sqldate": 20130527,
    "monthyear": 201305,
    "year": 2013,
    "fractiondate": "2013.4027",
    "eventcode": 125,
    "quadclass": 3,
    "nummentions": 3,
    "numsources": 1,
    "numarticles": 3,
    "avgtone": "2.66666666666667",
    "sourceurl": "http://www.suntimes.com/news/metro/20320807-418/streetwise-gave-homeless-veteran-russell-adamas-shelter-from-lifes-storms.html",
    "feature_id": "423587",
    "feature_name": "Chicago",
    "state_alpha": "IL",
    "county_name": "Cook",
    "county_numeric": "031",
    "prim_lat_dec": "41.850033",
    "prim_long_dec": "-87.6500523",
    "elev_in_m": "179",
    "elev_in_ft": "587",
    "lat": 41.850033,
    "long": -87.6500523
  },
  {
    "globaleventid": 255358462,
    "sqldate": 20130527,
    "monthyear": 201305,
    "year": 2013,
    "fractiondate": "2013.4027",
    "eventcode": 190,
    "quadclass": 4,
    "nummentions": 8,
    "numsources": 1,
    "numarticles": 8,
    "avgtone": "4.66926070038911",
    "sourceurl": "http://www.foxnews.com/us/2013/05/27/america-female-soldiers-bravely-serving-and-dying-in-line-duty/?utm_source=feedburner&utm_medium=feed&utm_campaign=Feed%3A+foxnews%2Fnational+%28Internal+-+US+Latest+-+Text%29",
    "feature_id": "295427",
    "feature_name": "Manhattan",
    "state_alpha": "FL",
    "county_name": "Manatee",
    "county_numeric": "081",
    "prim_lat_dec": "27.5075391",
    "prim_long_dec": "-82.3187032",
    "elev_in_m": "22",
    "elev_in_ft": "72",
    "lat": 27.5075391,
    "long": -82.3187032
  },
  {
    "globaleventid": 255358458,
    "sqldate": 20130527,
    "monthyear": 201305,
    "year": 2013,
    "fractiondate": "2013.4027",
    "eventcode": 174,
    "quadclass": 4,
    "nummentions": 2,
    "numsources": 1,
    "numarticles": 2,
    "avgtone": "2.86707211120765",
    "sourceurl": "http://news.yahoo.com/detroits-foundations-spread-money-broken-city-121354383.html",
    "feature_id": "1617959",
    "feature_name": "Detroit",
    "state_alpha": "MI",
    "county_name": "Wayne",
    "county_numeric": "163",
    "prim_lat_dec": "42.331427",
    "prim_long_dec": "-83.0457538",
    "elev_in_m": "182",
    "elev_in_ft": "597",
    "lat": 42.331427,
    "long": -83.0457538
  },
  {
    "globaleventid": 255358456,
    "sqldate": 20130527,
    "monthyear": 201305,
    "year": 2013,
    "fractiondate": "2013.4027",
    "eventcode": 174,
    "quadclass": 4,
    "nummentions": 4,
    "numsources": 1,
    "numarticles": 4,
    "avgtone": "3.02026350786273",
    "sourceurl": "http://www.reuters.com/article/2013/05/27/us-usa-detroit-foundations-idUSBRE94Q09F20130527?feedType=RSS&feedName=domesticNews",
    "feature_id": "1617959",
    "feature_name": "Detroit",
    "state_alpha": "MI",
    "county_name": "Wayne",
    "county_numeric": "163",
    "prim_lat_dec": "42.331427",
    "prim_long_dec": "-83.0457538",
    "elev_in_m": "182",
    "elev_in_ft": "597",
    "lat": 42.331427,
    "long": -83.0457538
  },
  {
    "globaleventid": 255358453,
    "sqldate": 20130527,
    "monthyear": 201305,
    "year": 2013,
    "fractiondate": "2013.4027",
    "eventcode": 110,
    "quadclass": 3,
    "nummentions": 8,
    "numsources": 1,
    "numarticles": 8,
    "avgtone": "2.54681647940075",
    "sourceurl": "http://www.independent.co.uk/news/uk/home-news/international-moves-for-womens-suffrage-8631718.html",
    "feature_id": "531871",
    "feature_name": "Washington",
    "state_alpha": "DC",
    "county_name": "District of Columbia",
    "county_numeric": "001",
    "prim_lat_dec": "38.8951118",
    "prim_long_dec": "-77.0363658",
    "elev_in_m": "7",
    "elev_in_ft": "23",
    "lat": 38.8951118,
    "long": -77.0363658
  },
  {
    "globaleventid": 255358451,
    "sqldate": 20130527,
    "monthyear": 201305,
    "year": 2013,
    "fractiondate": "2013.4027",
    "eventcode": 100,
    "quadclass": 3,
    "nummentions": 4,
    "numsources": 1,
    "numarticles": 4,
    "avgtone": "2.87026406429392",
    "sourceurl": "http://www.news24.com/World/News/US-commanders-under-fire-for-sex-assaults-20130527",
    "feature_id": "506467",
    "feature_name": "West Point",
    "state_alpha": "KY",
    "county_name": "Hardin",
    "county_numeric": "093",
    "prim_lat_dec": "37.9995164",
    "prim_long_dec": "-85.9435746",
    "elev_in_m": "132",
    "elev_in_ft": "433",
    "lat": 37.9995164,
    "long": -85.9435746
  },
  {
    "globaleventid": 255358424,
    "sqldate": 20130527,
    "monthyear": 201305,
    "year": 2013,
    "fractiondate": "2013.4027",
    "eventcode": 1712,
    "quadclass": 4,
    "nummentions": 6,
    "numsources": 1,
    "numarticles": 6,
    "avgtone": "3.01910043130006",
    "sourceurl": "http://weather.aol.com/2013/05/24/sandydevastated-casino-pier-open-for-memorial-day-business/",
    "feature_id": "880450",
    "feature_name": "Seaside Heights",
    "state_alpha": "NJ",
    "county_name": "Ocean",
    "county_numeric": "029",
    "prim_lat_dec": "39.944285",
    "prim_long_dec": "-74.0729139",
    "elev_in_m": "2",
    "elev_in_ft": "7",
    "lat": 39.944285,
    "long": -74.0729139
  },
  {
    "globaleventid": 255358412,
    "sqldate": 20130527,
    "monthyear": 201305,
    "year": 2013,
    "fractiondate": "2013.4027",
    "eventcode": 173,
    "quadclass": 4,
    "nummentions": 2,
    "numsources": 1,
    "numarticles": 2,
    "avgtone": "3.92857142857143",
    "sourceurl": "http://www.upi.com/Top_News/US/2013/05/27/NH-man-appealing-hate-crime-conviction/UPI-55801369691924/",
    "feature_id": "867586",
    "feature_name": "Hooksett",
    "state_alpha": "NH",
    "county_name": "Merrimack",
    "county_numeric": "013",
    "prim_lat_dec": "43.0967495",
    "prim_long_dec": "-71.4650684",
    "elev_in_m": "64",
    "elev_in_ft": "210",
    "lat": 43.0967495,
    "long": -71.4650684
  },
  {
    "globaleventid": 255358374,
    "sqldate": 20130527,
    "monthyear": 201305,
    "year": 2013,
    "fractiondate": "2013.4027",
    "eventcode": 141,
    "quadclass": 3,
    "nummentions": 10,
    "numsources": 1,
    "numarticles": 10,
    "avgtone": "2.088772845953",
    "sourceurl": "http://www.thehindu.com/news/international/world/protesters-march-against-monsanto-across-the-globe/article4757017.ece",
    "feature_id": "1662328",
    "feature_name": "Los Angeles",
    "state_alpha": "CA",
    "county_name": "Los Angeles",
    "county_numeric": "037",
    "prim_lat_dec": "34.0522342",
    "prim_long_dec": "-118.2436849",
    "elev_in_m": "89",
    "elev_in_ft": "292",
    "lat": 34.0522342,
    "long": -118.2436849
  },
  {
    "globaleventid": 255358305,
    "sqldate": 20130527,
    "monthyear": 201305,
    "year": 2013,
    "fractiondate": "2013.4027",
    "eventcode": 190,
    "quadclass": 4,
    "nummentions": 8,
    "numsources": 1,
    "numarticles": 8,
    "avgtone": "1.9047619047619",
    "sourceurl": "http://www.thenews.com.pk/Todays-News-13-23125-Members-want-content-of--report-to-be-made-public",
    "feature_id": "531871",
    "feature_name": "Washington",
    "state_alpha": "DC",
    "county_name": "District of Columbia",
    "county_numeric": "001",
    "prim_lat_dec": "38.8951118",
    "prim_long_dec": "-77.0363658",
    "elev_in_m": "7",
    "elev_in_ft": "23",
    "lat": 38.8951118,
    "long": -77.0363658
  },
  {
    "globaleventid": 255358291,
    "sqldate": 20130527,
    "monthyear": 201305,
    "year": 2013,
    "fractiondate": "2013.4027",
    "eventcode": 173,
    "quadclass": 4,
    "nummentions": 10,
    "numsources": 1,
    "numarticles": 10,
    "avgtone": "2.22363405336722",
    "sourceurl": "http://www.wyomingnews.com/articles/2013/05/26/news/01top_05-26-13.txt",
    "feature_id": "531871",
    "feature_name": "Washington",
    "state_alpha": "DC",
    "county_name": "District of Columbia",
    "county_numeric": "001",
    "prim_lat_dec": "38.8951118",
    "prim_long_dec": "-77.0363658",
    "elev_in_m": "7",
    "elev_in_ft": "23",
    "lat": 38.8951118,
    "long": -77.0363658
  },
  {
    "globaleventid": 255358248,
    "sqldate": 20130527,
    "monthyear": 201305,
    "year": 2013,
    "fractiondate": "2013.4027",
    "eventcode": 193,
    "quadclass": 4,
    "nummentions": 1,
    "numsources": 1,
    "numarticles": 1,
    "avgtone": "0.0",
    "sourceurl": "http://www.seattlepi.com/news/crime/article/Man-fatally-wounded-at-Florida-shooting-range-4550979.php",
    "feature_id": "288240",
    "feature_name": "Orlando",
    "state_alpha": "FL",
    "county_name": "Orange",
    "county_numeric": "095",
    "prim_lat_dec": "28.5383355",
    "prim_long_dec": "-81.3792365",
    "elev_in_m": "31",
    "elev_in_ft": "102",
    "lat": 28.5383355,
    "long": -81.3792365
  },
  {
    "globaleventid": 255358244,
    "sqldate": 20130527,
    "monthyear": 201305,
    "year": 2013,
    "fractiondate": "2013.4027",
    "eventcode": 173,
    "quadclass": 4,
    "nummentions": 4,
    "numsources": 1,
    "numarticles": 4,
    "avgtone": "2.76381909547739",
    "sourceurl": "http://www.natureworldnews.com/articles/2131/20130527/children-poisoned-candy-looking-marijuana-products.htm",
    "feature_id": "531871",
    "feature_name": "Washington",
    "state_alpha": "DC",
    "county_name": "District of Columbia",
    "county_numeric": "001",
    "prim_lat_dec": "38.8951118",
    "prim_long_dec": "-77.0363658",
    "elev_in_m": "7",
    "elev_in_ft": "23",
    "lat": 38.8951118,
    "long": -77.0363658
  },
  {
    "globaleventid": 255358242,
    "sqldate": 20130527,
    "monthyear": 201305,
    "year": 2013,
    "fractiondate": "2013.4027",
    "eventcode": 173,
    "quadclass": 4,
    "nummentions": 12,
    "numsources": 3,
    "numarticles": 12,
    "avgtone": "1.90985559935573",
    "sourceurl": "http://www.natureworldnews.com/articles/2131/20130527/children-poisoned-candy-looking-marijuana-products.htm",
    "feature_id": "531871",
    "feature_name": "Washington",
    "state_alpha": "DC",
    "county_name": "District of Columbia",
    "county_numeric": "001",
    "prim_lat_dec": "38.8951118",
    "prim_long_dec": "-77.0363658",
    "elev_in_m": "7",
    "elev_in_ft": "23",
    "lat": 38.8951118,
    "long": -77.0363658
  },
  {
    "globaleventid": 255358231,
    "sqldate": 20130527,
    "monthyear": 201305,
    "year": 2013,
    "fractiondate": "2013.4027",
    "eventcode": 112,
    "quadclass": 3,
    "nummentions": 2,
    "numsources": 1,
    "numarticles": 2,
    "avgtone": "2.7114967462039",
    "sourceurl": "http://www.bloomberg.com/news/2013-05-27/washington-stalls-the-food-truck-lobby.html",
    "feature_id": "531871",
    "feature_name": "Washington",
    "state_alpha": "DC",
    "county_name": "District of Columbia",
    "county_numeric": "001",
    "prim_lat_dec": "38.8951118",
    "prim_long_dec": "-77.0363658",
    "elev_in_m": "7",
    "elev_in_ft": "23",
    "lat": 38.8951118,
    "long": -77.0363658
  },
  {
    "globaleventid": 255358230,
    "sqldate": 20130527,
    "monthyear": 201305,
    "year": 2013,
    "fractiondate": "2013.4027",
    "eventcode": 112,
    "quadclass": 3,
    "nummentions": 16,
    "numsources": 2,
    "numarticles": 16,
    "avgtone": "3.13970830389082",
    "sourceurl": "http://uk.reuters.com/article/2013/05/27/us-kids-motor-delays-idUKBRE94Q02920130527?feedType=RSS&feedName=healthNews&utm_source=feedburner&utm_medium=feed&utm_campaign=Feed%3A+reuters%2FUKHealthNews+%28News+%2F+UK+%2F+Health+News%29",
    "feature_id": "1080996",
    "feature_name": "Columbus",
    "state_alpha": "OH",
    "county_name": "Franklin",
    "county_numeric": "049",
    "prim_lat_dec": "39.9611755",
    "prim_long_dec": "-82.9987942",
    "elev_in_m": "238",
    "elev_in_ft": "781",
    "lat": 39.9611755,
    "long": -82.9987942
  },
  {
    "globaleventid": 255358225,
    "sqldate": 20130527,
    "monthyear": 201305,
    "year": 2013,
    "fractiondate": "2013.4027",
    "eventcode": 100,
    "quadclass": 3,
    "nummentions": 8,
    "numsources": 2,
    "numarticles": 8,
    "avgtone": "1.3564623625138",
    "sourceurl": "http://www.perthnow.com.au/realestate/part-ii-of-the-changing-face-of-perth-series-the-suburbs-and-the-hills/story-fnhlgriw-1226651394640?utm_source=feedburner&utm_medium=feed&utm_campaign=Feed%3A+PerthnowTopStories+%28PerthNow+%7C+Top+Stories%29",
    "feature_id": "531871",
    "feature_name": "Washington",
    "state_alpha": "DC",
    "county_name": "District of Columbia",
    "county_numeric": "001",
    "prim_lat_dec": "38.8951118",
    "prim_long_dec": "-77.0363658",
    "elev_in_m": "7",
    "elev_in_ft": "23",
    "lat": 38.8951118,
    "long": -77.0363658
  },
  {
    "globaleventid": 255358082,
    "sqldate": 20130527,
    "monthyear": 201305,
    "year": 2013,
    "fractiondate": "2013.4027",
    "eventcode": 190,
    "quadclass": 4,
    "nummentions": 2,
    "numsources": 1,
    "numarticles": 2,
    "avgtone": "2.7027027027027",
    "sourceurl": "http://www.washingtonpost.com/world/middle_east/israeli-president-shimon-peres-calls-peace-talks-urgent/2013/05/26/f340c460-c606-11e2-9cd9-3b9a22a4000a_story.html",
    "feature_id": "531871",
    "feature_name": "Washington",
    "state_alpha": "DC",
    "county_name": "District of Columbia",
    "county_numeric": "001",
    "prim_lat_dec": "38.8951118",
    "prim_long_dec": "-77.0363658",
    "elev_in_m": "7",
    "elev_in_ft": "23",
    "lat": 38.8951118,
    "long": -77.0363658
  },
  {
    "globaleventid": 255358066,
    "sqldate": 20130527,
    "monthyear": 201305,
    "year": 2013,
    "fractiondate": "2013.4027",
    "eventcode": 1712,
    "quadclass": 4,
    "nummentions": 4,
    "numsources": 1,
    "numarticles": 4,
    "avgtone": "2.65486725663717",
    "sourceurl": "http://www.usatoday.com/story/money/business/2013/05/27/career-academies-find-seat-in-schools/2364421/?utm_source=feedburner&utm_medium=feed&utm_campaign=Feed%3A+UsatodaycomMoney-TopStories+%28Money+-+Top+Stories%29",
    "feature_id": "423587",
    "feature_name": "Chicago",
    "state_alpha": "IL",
    "county_name": "Cook",
    "county_numeric": "031",
    "prim_lat_dec": "41.850033",
    "prim_long_dec": "-87.6500523",
    "elev_in_m": "179",
    "elev_in_ft": "587",
    "lat": 41.850033,
    "long": -87.6500523
  },
  {
    "globaleventid": 255358002,
    "sqldate": 20130527,
    "monthyear": 201305,
    "year": 2013,
    "fractiondate": "2013.4027",
    "eventcode": 192,
    "quadclass": 4,
    "nummentions": 2,
    "numsources": 1,
    "numarticles": 2,
    "avgtone": "2.14168039538715",
    "sourceurl": "http://abcnews.go.com/US/memorial-day-fateful-day-pulls-survivor-back-normandy/story?id=19245253",
    "feature_id": "643177",
    "feature_name": "Edina",
    "state_alpha": "MN",
    "county_name": "Hennepin",
    "county_numeric": "053",
    "prim_lat_dec": "44.8896866",
    "prim_long_dec": "-93.3499489",
    "elev_in_m": "281",
    "elev_in_ft": "922",
    "lat": 44.8896866,
    "long": -93.3499489
  },
  {
    "globaleventid": 255357996,
    "sqldate": 20130527,
    "monthyear": 201305,
    "year": 2013,
    "fractiondate": "2013.4027",
    "eventcode": 190,
    "quadclass": 4,
    "nummentions": 4,
    "numsources": 1,
    "numarticles": 4,
    "avgtone": "2.53164556962025",
    "sourceurl": "http://bostonherald.com/news_opinion/local_politics/2013/05/leaders_gabriel_gomez_doesn_t_have_lock_on_latino_vote",
    "feature_id": "612993",
    "feature_name": "Roxbury",
    "state_alpha": "MA",
    "county_name": "Suffolk",
    "county_numeric": "025",
    "prim_lat_dec": "42.3250978",
    "prim_long_dec": "-71.0953294",
    "elev_in_m": "47",
    "elev_in_ft": "154",
    "lat": 42.3250978,
    "long": -71.0953294
  },
  {
    "globaleventid": 255357988,
    "sqldate": 20130527,
    "monthyear": 201305,
    "year": 2013,
    "fractiondate": "2013.4027",
    "eventcode": 1712,
    "quadclass": 4,
    "nummentions": 2,
    "numsources": 1,
    "numarticles": 2,
    "avgtone": "1.93482688391039",
    "sourceurl": "http://www.seattlepi.com/news/science/article/Maine-seaside-village-seeks-solution-to-erosion-4551055.php",
    "feature_id": "563396",
    "feature_name": "Camp Ellis",
    "state_alpha": "ME",
    "county_name": "York",
    "county_numeric": "031",
    "prim_lat_dec": "43.4636965",
    "prim_long_dec": "-70.3803271",
    "elev_in_m": "0",
    "elev_in_ft": "0",
    "lat": 43.4636965,
    "long": -70.3803271
  },
  {
    "globaleventid": 255357987,
    "sqldate": 20130527,
    "monthyear": 201305,
    "year": 2013,
    "fractiondate": "2013.4027",
    "eventcode": 1712,
    "quadclass": 4,
    "nummentions": 2,
    "numsources": 1,
    "numarticles": 2,
    "avgtone": "1.93482688391039",
    "sourceurl": "http://www.seattlepi.com/news/science/article/Maine-seaside-village-seeks-solution-to-erosion-4551055.php",
    "feature_id": "563396",
    "feature_name": "Camp Ellis",
    "state_alpha": "ME",
    "county_name": "York",
    "county_numeric": "031",
    "prim_lat_dec": "43.4636965",
    "prim_long_dec": "-70.3803271",
    "elev_in_m": "0",
    "elev_in_ft": "0",
    "lat": 43.4636965,
    "long": -70.3803271
  },
  {
    "globaleventid": 255357937,
    "sqldate": 20130527,
    "monthyear": 201305,
    "year": 2013,
    "fractiondate": "2013.4027",
    "eventcode": 173,
    "quadclass": 4,
    "nummentions": 2,
    "numsources": 1,
    "numarticles": 2,
    "avgtone": "1.5828677839851",
    "sourceurl": "http://www.cnn.com/2013/05/27/world/americas/cuba-american-fugitive/index.html?eref=rss_mostpopular&utm_source=feedburner&utm_medium=feed&utm_campaign=Feed%3A+rss%2Fcnn_mostpopular+%28RSS%3A+Most+Popular%29",
    "feature_id": "295004",
    "feature_name": "Miami",
    "state_alpha": "FL",
    "county_name": "Miami-Dade",
    "county_numeric": "086",
    "prim_lat_dec": "25.7742658",
    "prim_long_dec": "-80.1936589",
    "elev_in_m": "2",
    "elev_in_ft": "7",
    "lat": 25.7742658,
    "long": -80.1936589
  },
  {
    "globaleventid": 255357928,
    "sqldate": 20130527,
    "monthyear": 201305,
    "year": 2013,
    "fractiondate": "2013.4027",
    "eventcode": 190,
    "quadclass": 4,
    "nummentions": 1,
    "numsources": 1,
    "numarticles": 1,
    "avgtone": "1.86567164179104",
    "sourceurl": "http://www.examiner.com/article/experts-question-death-penalty-for-ariel-castro",
    "feature_id": "1061447",
    "feature_name": "Louisville",
    "state_alpha": "OH",
    "county_name": "Stark",
    "county_numeric": "151",
    "prim_lat_dec": "40.8372809",
    "prim_long_dec": "-81.2595519",
    "elev_in_m": "347",
    "elev_in_ft": "1138",
    "lat": 40.8372809,
    "long": -81.2595519
  },
  {
    "globaleventid": 255357927,
    "sqldate": 20130527,
    "monthyear": 201305,
    "year": 2013,
    "fractiondate": "2013.4027",
    "eventcode": 173,
    "quadclass": 4,
    "nummentions": 29,
    "numsources": 2,
    "numarticles": 29,
    "avgtone": "0.3866716015874",
    "sourceurl": "http://www.nypost.com/p/news/national/chicago_man_charged_with_shooting_U6BoafMsmhzi9klzbauH8K?utm_medium=rss&utm_content=%20National",
    "feature_id": "423587",
    "feature_name": "Chicago",
    "state_alpha": "IL",
    "county_name": "Cook",
    "county_numeric": "031",
    "prim_lat_dec": "41.850033",
    "prim_long_dec": "-87.6500523",
    "elev_in_m": "179",
    "elev_in_ft": "587",
    "lat": 41.850033,
    "long": -87.6500523
  },
  {
    "globaleventid": 255357926,
    "sqldate": 20130527,
    "monthyear": 201305,
    "year": 2013,
    "fractiondate": "2013.4027",
    "eventcode": 173,
    "quadclass": 4,
    "nummentions": 9,
    "numsources": 2,
    "numarticles": 9,
    "avgtone": "0.398290598290598",
    "sourceurl": "http://cnsnews.com/news/article/chicago-man-charged-slaying-6-month-old-girl",
    "feature_id": "421448",
    "feature_name": "Woodlawn",
    "state_alpha": "IL",
    "county_name": "Jefferson",
    "county_numeric": "081",
    "prim_lat_dec": "38.3300497",
    "prim_long_dec": "-89.0325693",
    "elev_in_m": "150",
    "elev_in_ft": "492",
    "lat": 38.3300497,
    "long": -89.0325693
  },
  {
    "globaleventid": 255357923,
    "sqldate": 20130527,
    "monthyear": 201305,
    "year": 2013,
    "fractiondate": "2013.4027",
    "eventcode": 112,
    "quadclass": 3,
    "nummentions": 20,
    "numsources": 1,
    "numarticles": 20,
    "avgtone": "1.33333333333333",
    "sourceurl": "http://edition.cnn.com/2013/05/27/us/illinois-baby-shooting/index.html?eref=edition",
    "feature_id": "423587",
    "feature_name": "Chicago",
    "state_alpha": "IL",
    "county_name": "Cook",
    "county_numeric": "031",
    "prim_lat_dec": "41.850033",
    "prim_long_dec": "-87.6500523",
    "elev_in_m": "179",
    "elev_in_ft": "587",
    "lat": 41.850033,
    "long": -87.6500523
  },
  {
    "globaleventid": 255357914,
    "sqldate": 20130527,
    "monthyear": 201305,
    "year": 2013,
    "fractiondate": "2013.4027",
    "eventcode": 141,
    "quadclass": 3,
    "nummentions": 8,
    "numsources": 1,
    "numarticles": 8,
    "avgtone": "4.15704387990762",
    "sourceurl": "http://www.koreatimes.co.kr/www/news/nation/2013/05/485_136465.html",
    "feature_id": "531871",
    "feature_name": "Washington",
    "state_alpha": "DC",
    "county_name": "District of Columbia",
    "county_numeric": "001",
    "prim_lat_dec": "38.8951118",
    "prim_long_dec": "-77.0363658",
    "elev_in_m": "7",
    "elev_in_ft": "23",
    "lat": 38.8951118,
    "long": -77.0363658
  },
  {
    "globaleventid": 255357911,
    "sqldate": 20130527,
    "monthyear": 201305,
    "year": 2013,
    "fractiondate": "2013.4027",
    "eventcode": 193,
    "quadclass": 4,
    "nummentions": 6,
    "numsources": 3,
    "numarticles": 6,
    "avgtone": "0.0",
    "sourceurl": "http://news.yahoo.com/chicago-gang-member-charged-march-shooting-death-infant-002745111.html",
    "feature_id": "423587",
    "feature_name": "Chicago",
    "state_alpha": "IL",
    "county_name": "Cook",
    "county_numeric": "031",
    "prim_lat_dec": "41.850033",
    "prim_long_dec": "-87.6500523",
    "elev_in_m": "179",
    "elev_in_ft": "587",
    "lat": 41.850033,
    "long": -87.6500523
  },
  {
    "globaleventid": 255357909,
    "sqldate": 20130527,
    "monthyear": 201305,
    "year": 2013,
    "fractiondate": "2013.4027",
    "eventcode": 193,
    "quadclass": 4,
    "nummentions": 8,
    "numsources": 1,
    "numarticles": 8,
    "avgtone": "1.0",
    "sourceurl": "http://www.foxnews.com/us/2013/05/28/california-man-shoots-2-adult-daughters-himself-with-young-grandkids-in-home/",
    "feature_id": "277606",
    "feature_name": "Fresno",
    "state_alpha": "CA",
    "county_name": "Fresno",
    "county_numeric": "019",
    "prim_lat_dec": "36.7477272",
    "prim_long_dec": "-119.7723661",
    "elev_in_m": "94",
    "elev_in_ft": "308",
    "lat": 36.7477272,
    "long": -119.7723661
  },
  {
    "globaleventid": 255357906,
    "sqldate": 20130527,
    "monthyear": 201305,
    "year": 2013,
    "fractiondate": "2013.4027",
    "eventcode": 193,
    "quadclass": 4,
    "nummentions": 6,
    "numsources": 1,
    "numarticles": 6,
    "avgtone": "0.472813238770686",
    "sourceurl": "http://usnews.nbcnews.com/_news/2013/05/26/18517847-two-dead-five-injured-including-sheriff-in-two-county-texas-shooting-spree?lite",
    "feature_id": "1357044",
    "feature_name": "Eola",
    "state_alpha": "TX",
    "county_name": "Concho",
    "county_numeric": "095",
    "prim_lat_dec": "31.3987727",
    "prim_long_dec": "-100.0892475",
    "elev_in_m": "551",
    "elev_in_ft": "1808",
    "lat": 31.3987727,
    "long": -100.0892475
  },
  {
    "globaleventid": 255357904,
    "sqldate": 20130527,
    "monthyear": 201305,
    "year": 2013,
    "fractiondate": "2013.4027",
    "eventcode": 190,
    "quadclass": 4,
    "nummentions": 6,
    "numsources": 3,
    "numarticles": 6,
    "avgtone": "0.0",
    "sourceurl": "http://news.yahoo.com/chicago-gang-member-charged-march-shooting-death-infant-002745111.html",
    "feature_id": "423587",
    "feature_name": "Chicago",
    "state_alpha": "IL",
    "county_name": "Cook",
    "county_numeric": "031",
    "prim_lat_dec": "41.850033",
    "prim_long_dec": "-87.6500523",
    "elev_in_m": "179",
    "elev_in_ft": "587",
    "lat": 41.850033,
    "long": -87.6500523
  },
  {
    "globaleventid": 255357903,
    "sqldate": 20130527,
    "monthyear": 201305,
    "year": 2013,
    "fractiondate": "2013.4027",
    "eventcode": 190,
    "quadclass": 4,
    "nummentions": 2,
    "numsources": 1,
    "numarticles": 2,
    "avgtone": "1.1090573012939",
    "sourceurl": "http://www.suntimes.com/news/metro/20374809-418/man-charged-with-killing-6-month-old-jonylah-watkins-in-retaliation-for-videogame-theft.html",
    "feature_id": "423587",
    "feature_name": "Chicago",
    "state_alpha": "IL",
    "county_name": "Cook",
    "county_numeric": "031",
    "prim_lat_dec": "41.850033",
    "prim_long_dec": "-87.6500523",
    "elev_in_m": "179",
    "elev_in_ft": "587",
    "lat": 41.850033,
    "long": -87.6500523
  },
  {
    "globaleventid": 255357902,
    "sqldate": 20130527,
    "monthyear": 201305,
    "year": 2013,
    "fractiondate": "2013.4027",
    "eventcode": 190,
    "quadclass": 4,
    "nummentions": 2,
    "numsources": 1,
    "numarticles": 2,
    "avgtone": "2.01511335012594",
    "sourceurl": "http://stream.wsj.com/story/latest-headlines/SS-2-63399/SS-2-240659/",
    "feature_id": "1422736",
    "feature_name": "Indian",
    "state_alpha": "AK",
    "county_name": "Anchorage",
    "county_numeric": "020",
    "prim_lat_dec": "60.9872222",
    "prim_long_dec": "-149.5136111",
    "elev_in_m": "18",
    "elev_in_ft": "59",
    "lat": 60.9872222,
    "long": -149.5136111
  },
  {
    "globaleventid": 255357901,
    "sqldate": 20130527,
    "monthyear": 201305,
    "year": 2013,
    "fractiondate": "2013.4027",
    "eventcode": 190,
    "quadclass": 4,
    "nummentions": 2,
    "numsources": 1,
    "numarticles": 2,
    "avgtone": "0.919117647058824",
    "sourceurl": "http://www.nbcphiladelphia.com/news/local/Teen-Boy-Accused-of-Stabbing-Girlfriend-to-Death-on-Hiking-Trail-208985431.html",
    "feature_id": "1200139",
    "feature_name": "Royersford",
    "state_alpha": "PA",
    "county_name": "Montgomery",
    "county_numeric": "091",
    "prim_lat_dec": "40.1842688",
    "prim_long_dec": "-75.5379639",
    "elev_in_m": "64",
    "elev_in_ft": "210",
    "lat": 40.1842688,
    "long": -75.5379639
  },
  {
    "globaleventid": 255357899,
    "sqldate": 20130527,
    "monthyear": 201305,
    "year": 2013,
    "fractiondate": "2013.4027",
    "eventcode": 186,
    "quadclass": 4,
    "nummentions": 1,
    "numsources": 1,
    "numarticles": 1,
    "avgtone": "1.99789695057834",
    "sourceurl": "http://www.latimes.com/business/la-fi-muni-debt-20130528,0,2539627.story?track=rss&utm_source=feedburner&utm_medium=feed&utm_campaign=Feed%3A+latimes%2Fbusiness+%28L.A.+Times+-+Business%29",
    "feature_id": "1662328",
    "feature_name": "Los Angeles",
    "state_alpha": "CA",
    "county_name": "Los Angeles",
    "county_numeric": "037",
    "prim_lat_dec": "34.0522342",
    "prim_long_dec": "-118.2436849",
    "elev_in_m": "89",
    "elev_in_ft": "292",
    "lat": 34.0522342,
    "long": -118.2436849
  },
  {
    "globaleventid": 255357898,
    "sqldate": 20130527,
    "monthyear": 201305,
    "year": 2013,
    "fractiondate": "2013.4027",
    "eventcode": 1823,
    "quadclass": 4,
    "nummentions": 20,
    "numsources": 1,
    "numarticles": 20,
    "avgtone": "0.0",
    "sourceurl": "http://www.foxnews.com/us/2013/05/27/pennsylvania-teen-accused-stabbing-girlfriend-to-death-during-hike/?utm_source=feedburner&utm_medium=feed&utm_campaign=Feed%3A+foxnews%2Fnational+%28Internal+-+US+Latest+-+Text%29",
    "feature_id": "1209052",
    "feature_name": "Philadelphia",
    "state_alpha": "PA",
    "county_name": "Philadelphia",
    "county_numeric": "101",
    "prim_lat_dec": "39.952335",
    "prim_long_dec": "-75.163789",
    "elev_in_m": "14",
    "elev_in_ft": "46",
    "lat": 39.952335,
    "long": -75.163789
  },
  {
    "globaleventid": 255357894,
    "sqldate": 20130527,
    "monthyear": 201305,
    "year": 2013,
    "fractiondate": "2013.4027",
    "eventcode": 173,
    "quadclass": 4,
    "nummentions": 32,
    "numsources": 8,
    "numarticles": 32,
    "avgtone": "1.85632189178762",
    "sourceurl": "http://www.huffingtonpost.com/2013/05/27/rob-ford-crackstarter-video-toronto-mayor-press-advisers-quit_n_3343241.html",
    "feature_id": "531871",
    "feature_name": "Washington",
    "state_alpha": "DC",
    "county_name": "District of Columbia",
    "county_numeric": "001",
    "prim_lat_dec": "38.8951118",
    "prim_long_dec": "-77.0363658",
    "elev_in_m": "7",
    "elev_in_ft": "23",
    "lat": 38.8951118,
    "long": -77.0363658
  },
  {
    "globaleventid": 255357893,
    "sqldate": 20130527,
    "monthyear": 201305,
    "year": 2013,
    "fractiondate": "2013.4027",
    "eventcode": 173,
    "quadclass": 4,
    "nummentions": 8,
    "numsources": 1,
    "numarticles": 8,
    "avgtone": "0.98314606741573",
    "sourceurl": "http://www.suntimes.com/news/metro/20363069-418/suspect-questioned-in-fatal-shooting-of-6-month-old-jonylah-watkins.html",
    "feature_id": "423587",
    "feature_name": "Chicago",
    "state_alpha": "IL",
    "county_name": "Cook",
    "county_numeric": "031",
    "prim_lat_dec": "41.850033",
    "prim_long_dec": "-87.6500523",
    "elev_in_m": "179",
    "elev_in_ft": "587",
    "lat": 41.850033,
    "long": -87.6500523
  },
  {
    "globaleventid": 255357891,
    "sqldate": 20130527,
    "monthyear": 201305,
    "year": 2013,
    "fractiondate": "2013.4027",
    "eventcode": 173,
    "quadclass": 4,
    "nummentions": 2,
    "numsources": 1,
    "numarticles": 2,
    "avgtone": "0.0",
    "sourceurl": "http://www.thestate.com/2013/05/25/2786497/woman-arrested-in-myrtle-beach.html",
    "feature_id": "1249770",
    "feature_name": "Myrtle Beach",
    "state_alpha": "SC",
    "county_name": "Horry",
    "county_numeric": "051",
    "prim_lat_dec": "33.6890603",
    "prim_long_dec": "-78.8866943",
    "elev_in_m": "8",
    "elev_in_ft": "26",
    "lat": 33.6890603,
    "long": -78.8866943
  },
  {
    "globaleventid": 255357885,
    "sqldate": 20130527,
    "monthyear": 201305,
    "year": 2013,
    "fractiondate": "2013.4027",
    "eventcode": 100,
    "quadclass": 3,
    "nummentions": 4,
    "numsources": 1,
    "numarticles": 4,
    "avgtone": "0.847457627118644",
    "sourceurl": "http://www.upi.com/blog/2013/05/27/Man-arrested-for-putting-crying-baby-in-freezer/4251369674919/",
    "feature_id": "531871",
    "feature_name": "Washington",
    "state_alpha": "DC",
    "county_name": "District of Columbia",
    "county_numeric": "001",
    "prim_lat_dec": "38.8951118",
    "prim_long_dec": "-77.0363658",
    "elev_in_m": "7",
    "elev_in_ft": "23",
    "lat": 38.8951118,
    "long": -77.0363658
  },
  {
    "globaleventid": 255357841,
    "sqldate": 20130527,
    "monthyear": 201305,
    "year": 2013,
    "fractiondate": "2013.4027",
    "eventcode": 190,
    "quadclass": 4,
    "nummentions": 6,
    "numsources": 1,
    "numarticles": 6,
    "avgtone": "2.78810408921933",
    "sourceurl": "http://www.defense.gov//news/newsarticle.aspx?id=120155",
    "feature_id": "1005683",
    "feature_name": "Arlington",
    "state_alpha": "NC",
    "county_name": "Mecklenburg",
    "county_numeric": "119",
    "prim_lat_dec": "35.2693066",
    "prim_long_dec": "-80.9725736",
    "elev_in_m": "220",
    "elev_in_ft": "722",
    "lat": 35.2693066,
    "long": -80.9725736
  },
  {
    "globaleventid": 255357790,
    "sqldate": 20130527,
    "monthyear": 201305,
    "year": 2013,
    "fractiondate": "2013.4027",
    "eventcode": 173,
    "quadclass": 4,
    "nummentions": 4,
    "numsources": 1,
    "numarticles": 4,
    "avgtone": "1.35542168674699",
    "sourceurl": "http://www.miamiherald.com/2013/05/27/3419332/colorado-mom-awaits-return-of.html",
    "feature_id": "202560",
    "feature_name": "Longmont",
    "state_alpha": "CO",
    "county_name": "Boulder",
    "county_numeric": "013",
    "prim_lat_dec": "40.1672069",
    "prim_long_dec": "-105.1019275",
    "elev_in_m": "1519",
    "elev_in_ft": "4984",
    "lat": 40.1672069,
    "long": -105.1019275
  },
  {
    "globaleventid": 255357739,
    "sqldate": 20130527,
    "monthyear": 201305,
    "year": 2013,
    "fractiondate": "2013.4027",
    "eventcode": 174,
    "quadclass": 4,
    "nummentions": 1,
    "numsources": 1,
    "numarticles": 1,
    "avgtone": "4.08830744071954",
    "sourceurl": "http://www.huffingtonpost.com/simon-hewitt/tselkov-in-new-york-bruta_b_3332495.html",
    "feature_id": "971945",
    "feature_name": "Manhattan",
    "state_alpha": "NY",
    "county_name": "New York",
    "county_numeric": "061",
    "prim_lat_dec": "40.7834345",
    "prim_long_dec": "-73.9662495",
    "elev_in_m": "35",
    "elev_in_ft": "115",
    "lat": 40.7834345,
    "long": -73.9662495
  },
  {
    "globaleventid": 255356460,
    "sqldate": 20130527,
    "monthyear": 201305,
    "year": 2013,
    "fractiondate": "2013.4027",
    "eventcode": 194,
    "quadclass": 4,
    "nummentions": 2,
    "numsources": 1,
    "numarticles": 2,
    "avgtone": "1.72786177105832",
    "sourceurl": "http://wap.news.bigpond.com/articles/World/2013/05/24/Aussies_Kiwis_saw_tornado_in_Oklahoma_874731.html",
    "feature_id": "1102140",
    "feature_name": "Oklahoma City",
    "state_alpha": "OK",
    "county_name": "Oklahoma",
    "county_numeric": "109",
    "prim_lat_dec": "35.4675602",
    "prim_long_dec": "-97.5164276",
    "elev_in_m": "365",
    "elev_in_ft": "1197",
    "lat": 35.4675602,
    "long": -97.5164276
  },
  {
    "globaleventid": 255356455,
    "sqldate": 20130527,
    "monthyear": 201305,
    "year": 2013,
    "fractiondate": "2013.4027",
    "eventcode": 190,
    "quadclass": 4,
    "nummentions": 2,
    "numsources": 1,
    "numarticles": 2,
    "avgtone": "1.72786177105832",
    "sourceurl": "http://wap.news.bigpond.com/articles/World/2013/05/24/Aussies_Kiwis_saw_tornado_in_Oklahoma_874731.html",
    "feature_id": "1102140",
    "feature_name": "Oklahoma City",
    "state_alpha": "OK",
    "county_name": "Oklahoma",
    "county_numeric": "109",
    "prim_lat_dec": "35.4675602",
    "prim_long_dec": "-97.5164276",
    "elev_in_m": "365",
    "elev_in_ft": "1197",
    "lat": 35.4675602,
    "long": -97.5164276
  },
  {
    "globaleventid": 255356447,
    "sqldate": 20130527,
    "monthyear": 201305,
    "year": 2013,
    "fractiondate": "2013.4027",
    "eventcode": 100,
    "quadclass": 3,
    "nummentions": 12,
    "numsources": 1,
    "numarticles": 12,
    "avgtone": "2.25221355539158",
    "sourceurl": "http://edition.cnn.com/2013/05/27/world/meast/syria-civil-war/index.html?eref=edition",
    "feature_id": "531871",
    "feature_name": "Washington",
    "state_alpha": "DC",
    "county_name": "District of Columbia",
    "county_numeric": "001",
    "prim_lat_dec": "38.8951118",
    "prim_long_dec": "-77.0363658",
    "elev_in_m": "7",
    "elev_in_ft": "23",
    "lat": 38.8951118,
    "long": -77.0363658
  },
  {
    "globaleventid": 255354339,
    "sqldate": 20130527,
    "monthyear": 201305,
    "year": 2013,
    "fractiondate": "2013.4027",
    "eventcode": 100,
    "quadclass": 3,
    "nummentions": 86,
    "numsources": 8,
    "numarticles": 86,
    "avgtone": "3.37050989300885",
    "sourceurl": "http://timesofindia.indiatimes.com/world/us/US-intelligence-embraces-debate-in-security-issues/articleshow/20304131.cms",
    "feature_id": "531871",
    "feature_name": "Washington",
    "state_alpha": "DC",
    "county_name": "District of Columbia",
    "county_numeric": "001",
    "prim_lat_dec": "38.8951118",
    "prim_long_dec": "-77.0363658",
    "elev_in_m": "7",
    "elev_in_ft": "23",
    "lat": 38.8951118,
    "long": -77.0363658
  },
  {
    "globaleventid": 255354317,
    "sqldate": 20130527,
    "monthyear": 201305,
    "year": 2013,
    "fractiondate": "2013.4027",
    "eventcode": 100,
    "quadclass": 3,
    "nummentions": 140,
    "numsources": 8,
    "numarticles": 140,
    "avgtone": "3.36721793975133",
    "sourceurl": "http://timesofindia.indiatimes.com/world/us/US-intelligence-embraces-debate-in-security-issues/articleshow/20304131.cms",
    "feature_id": "531871",
    "feature_name": "Washington",
    "state_alpha": "DC",
    "county_name": "District of Columbia",
    "county_numeric": "001",
    "prim_lat_dec": "38.8951118",
    "prim_long_dec": "-77.0363658",
    "elev_in_m": "7",
    "elev_in_ft": "23",
    "lat": 38.8951118,
    "long": -77.0363658
  },
  {
    "globaleventid": 255353939,
    "sqldate": 20130527,
    "monthyear": 201305,
    "year": 2013,
    "fractiondate": "2013.4027",
    "eventcode": 190,
    "quadclass": 4,
    "nummentions": 10,
    "numsources": 1,
    "numarticles": 10,
    "avgtone": "3.00157977883096",
    "sourceurl": "http://www.lakewyliepilot.com/2013/05/27/1926271/fierce-fighting-between-sudan.html",
    "feature_id": "1233775",
    "feature_name": "Lake Wylie",
    "state_alpha": "SC",
    "county_name": "York",
    "county_numeric": "091",
    "prim_lat_dec": "35.108476",
    "prim_long_dec": "-81.0428538",
    "elev_in_m": "179",
    "elev_in_ft": "587",
    "lat": 35.108476,
    "long": -81.0428538
  },
  {
    "globaleventid": 255353522,
    "sqldate": 20130527,
    "monthyear": 201305,
    "year": 2013,
    "fractiondate": "2013.4027",
    "eventcode": 111,
    "quadclass": 3,
    "nummentions": 2,
    "numsources": 1,
    "numarticles": 2,
    "avgtone": "2.33962264150943",
    "sourceurl": "http://edition.cnn.com/2013/05/27/world/meast/syria-civil-war/?hpt=hp_t3",
    "feature_id": "531871",
    "feature_name": "Washington",
    "state_alpha": "DC",
    "county_name": "District of Columbia",
    "county_numeric": "001",
    "prim_lat_dec": "38.8951118",
    "prim_long_dec": "-77.0363658",
    "elev_in_m": "7",
    "elev_in_ft": "23",
    "lat": 38.8951118,
    "long": -77.0363658
  },
  {
    "globaleventid": 255353014,
    "sqldate": 20130527,
    "monthyear": 201305,
    "year": 2013,
    "fractiondate": "2013.4027",
    "eventcode": 1244,
    "quadclass": 3,
    "nummentions": 4,
    "numsources": 2,
    "numarticles": 4,
    "avgtone": "3.11593664014278",
    "sourceurl": "http://www.seattlepi.com/news/world/article/Britain-EU-ends-arms-embargo-on-Syrian-opposition-4550690.php",
    "feature_id": "531871",
    "feature_name": "Washington",
    "state_alpha": "DC",
    "county_name": "District of Columbia",
    "county_numeric": "001",
    "prim_lat_dec": "38.8951118",
    "prim_long_dec": "-77.0363658",
    "elev_in_m": "7",
    "elev_in_ft": "23",
    "lat": 38.8951118,
    "long": -77.0363658
  },