[
  {
    "globaleventid": 272558364,
    "sqldate": 20131022,
    "monthyear": 201310,
    "year": 2013,
    "fractiondate": "2013.8",
    "eventcode": 173,
    "quadclass": 4,
    "nummentions": 4,
    "numsources": 2,
    "numarticles": 4,
    "avgtone": "0.696872571872571",
    "sourceurl": "http://www.sfgate.com/news/crime/article/Man-in-Monday-police-chase-arrested-in-South-Ogden-4917203.php",
    "feature_id": "1433664",
    "feature_name": "Tremonton",
    "state_alpha": "UT",
    "county_name": "Box Elder",
    "county_numeric": "003",
    "prim_lat_dec": "41.7118728",
    "prim_long_dec": "-112.1655079",
    "elev_in_m": "1318",
    "elev_in_ft": "4324",
    "lat": 41.7118728,
    "long": -112.1655079
  },
  {
    "globaleventid": 272558360,
    "sqldate": 20131022,
    "monthyear": 201310,
    "year": 2013,
    "fractiondate": "2013.8",
    "eventcode": 173,
    "quadclass": 4,
    "nummentions": 2,
    "numsources": 1,
    "numarticles": 2,
    "avgtone": "0.0",
    "sourceurl": "http://www.news-record.com/news/local_news/article_51cf1222-3b58-11e3-90bf-0019bb30f31a.html",
    "feature_id": "331583",
    "feature_name": "Douglasville",
    "state_alpha": "GA",
    "county_name": "Early",
    "county_numeric": "099",
    "prim_lat_dec": "31.3599",
    "prim_long_dec": "-84.6701951",
    "elev_in_m": "68",
    "elev_in_ft": "223",
    "lat": 31.3599,
    "long": -84.6701951
  },
  {
    "globaleventid": 272558353,
    "sqldate": 20131022,
    "monthyear": 201310,
    "year": 2013,
    "fractiondate": "2013.8",
    "eventcode": 173,
    "quadclass": 4,
    "nummentions": 4,
    "numsources": 1,
    "numarticles": 4,
    "avgtone": "1.54308587414253",
    "sourceurl": "http://www.dailymail.co.uk/news/article-2471798/Girl-3-rescued-watching-father-die-Philadelphia-home.html?ITO=1490&ns_campaign=1490",
    "feature_id": "1209052",
    "feature_name": "Philadelphia",
    "state_alpha": "PA",
    "county_name": "Philadelphia",
    "county_numeric": "101",
    "prim_lat_dec": "39.952335",
    "prim_long_dec": "-75.163789",
    "elev_in_m": "14",
    "elev_in_ft": "46",
    "lat": 39.952335,
    "long": -75.163789
  },
  {
    "globaleventid": 272558345,
    "sqldate": 20131022,
    "monthyear": 201310,
    "year": 2013,
    "fractiondate": "2013.8",
    "eventcode": 173,
    "quadclass": 4,
    "nummentions": 16,
    "numsources": 2,
    "numarticles": 16,
    "avgtone": "0.315956554725871",
    "sourceurl": "http://www.middletownjournal.com/news/news/middletown-woman-sent-to-prison-for-child-endanger/nbWDJ/",
    "feature_id": "989808",
    "feature_name": "Middletown",
    "state_alpha": "NC",
    "county_name": "Hyde",
    "county_numeric": "095",
    "prim_lat_dec": "35.4782271",
    "prim_long_dec": "-76.0121294",
    "elev_in_m": "0",
    "elev_in_ft": "0",
    "lat": 35.4782271,
    "long": -76.0121294
  },
  {
    "globaleventid": 272558342,
    "sqldate": 20131022,
    "monthyear": 201310,
    "year": 2013,
    "fractiondate": "2013.8",
    "eventcode": 173,
    "quadclass": 4,
    "nummentions": 6,
    "numsources": 1,
    "numarticles": 6,
    "avgtone": "1.00376411543287",
    "sourceurl": "http://www.berkshireeagle.com/news/ci_24358896/pittsfield-police-log-friday-sunday-oct-18-20",
    "feature_id": "970901",
    "feature_name": "Westchester",
    "state_alpha": "NY",
    "county_name": "Bronx",
    "county_numeric": "005",
    "prim_lat_dec": "40.84722",
    "prim_long_dec": "-73.85528",
    "elev_in_m": "20",
    "elev_in_ft": "66",
    "lat": 40.84722,
    "long": -73.85528
  },
  {
    "globaleventid": 272558341,
    "sqldate": 20131022,
    "monthyear": 201310,
    "year": 2013,
    "fractiondate": "2013.8",
    "eventcode": 173,
    "quadclass": 4,
    "nummentions": 2,
    "numsources": 1,
    "numarticles": 2,
    "avgtone": "0.679347826086957",
    "sourceurl": "http://westhampton-hamptonbays.patch.com/groups/police-and-fire/p/man-arrested-on-dwi-charge-after-nearly-colliding-with-eyewitness",
    "feature_id": "962568",
    "feature_name": "Riverside",
    "state_alpha": "NY",
    "county_name": "Broome",
    "county_numeric": "007",
    "prim_lat_dec": "42.0067443",
    "prim_long_dec": "-75.7643542",
    "elev_in_m": "267",
    "elev_in_ft": "876",
    "lat": 42.0067443,
    "long": -75.7643542
  },
  {
    "globaleventid": 272558340,
    "sqldate": 20131022,
    "monthyear": 201310,
    "year": 2013,
    "fractiondate": "2013.8",
    "eventcode": 173,
    "quadclass": 4,
    "nummentions": 2,
    "numsources": 1,
    "numarticles": 2,
    "avgtone": "0.679347826086957",
    "sourceurl": "http://westhampton-hamptonbays.patch.com/groups/police-and-fire/p/man-arrested-on-dwi-charge-after-nearly-colliding-with-eyewitness",
    "feature_id": "962565",
    "feature_name": "Riverhead",
    "state_alpha": "NY",
    "county_name": "Suffolk",
    "county_numeric": "103",
    "prim_lat_dec": "40.9170435",
    "prim_long_dec": "-72.6620402",
    "elev_in_m": "4",
    "elev_in_ft": "13",
    "lat": 40.9170435,
    "long": -72.6620402
  },
  {
    "globaleventid": 272558337,
    "sqldate": 20131022,
    "monthyear": 201310,
    "year": 2013,
    "fractiondate": "2013.8",
    "eventcode": 173,
    "quadclass": 4,
    "nummentions": 5,
    "numsources": 1,
    "numarticles": 5,
    "avgtone": "1.00376411543287",
    "sourceurl": "http://www.berkshireeagle.com/news/ci_24358896/pittsfield-police-log-friday-sunday-oct-18-20",
    "feature_id": "943730",
    "feature_name": "Berkshire",
    "state_alpha": "NY",
    "county_name": "Tioga",
    "county_numeric": "107",
    "prim_lat_dec": "42.3042403",
    "prim_long_dec": "-76.1865965",
    "elev_in_m": "319",
    "elev_in_ft": "1047",
    "lat": 42.3042403,
    "long": -76.1865965
  },
  {
    "globaleventid": 272558336,
    "sqldate": 20131022,
    "monthyear": 201310,
    "year": 2013,
    "fractiondate": "2013.8",
    "eventcode": 173,
    "quadclass": 4,
    "nummentions": 5,
    "numsources": 1,
    "numarticles": 5,
    "avgtone": "1.37221269296741",
    "sourceurl": "http://m.centraljersey.com/articles/2013/10/21/hopewell_valley_news/news/doc525eff4abea02837813575.txt",
    "feature_id": "881197",
    "feature_name": "Titusville",
    "state_alpha": "NJ",
    "county_name": "Mercer",
    "county_numeric": "021",
    "prim_lat_dec": "40.3095516",
    "prim_long_dec": "-74.8804428",
    "elev_in_m": "26",
    "elev_in_ft": "85",
    "lat": 40.3095516,
    "long": -74.8804428
  },
  {
    "globaleventid": 272558335,
    "sqldate": 20131022,
    "monthyear": 201310,
    "year": 2013,
    "fractiondate": "2013.8",
    "eventcode": 173,
    "quadclass": 4,
    "nummentions": 34,
    "numsources": 3,
    "numarticles": 34,
    "avgtone": "0.802460769253938",
    "sourceurl": "http://www.boston.com/news/local/new-hampshire/2013/10/22/home-invasion-convict-injured-prison-fight/oeFeAazBDWrvenbLkvf36H/story.html",
    "feature_id": "868607",
    "feature_name": "Mont Vernon",
    "state_alpha": "NH",
    "county_name": "Hillsborough",
    "county_numeric": "011",
    "prim_lat_dec": "42.8945294",
    "prim_long_dec": "-71.6742393",
    "elev_in_m": "250",
    "elev_in_ft": "820",
    "lat": 42.8945294,
    "long": -71.6742393
  },
  {
    "globaleventid": 272558333,
    "sqldate": 20131022,
    "monthyear": 201310,
    "year": 2013,
    "fractiondate": "2013.8",
    "eventcode": 173,
    "quadclass": 4,
    "nummentions": 12,
    "numsources": 1,
    "numarticles": 12,
    "avgtone": "0.747384155455904",
    "sourceurl": "http://www.nevadaappeal.com/news/crime/8548596-113/arrested-bail-carson-suspicion",
    "feature_id": "863976",
    "feature_name": "Carson City",
    "state_alpha": "NV",
    "county_name": "Carson City (city)",
    "county_numeric": "510",
    "prim_lat_dec": "39.1637984",
    "prim_long_dec": "-119.7674034",
    "elev_in_m": "1427",
    "elev_in_ft": "4682",
    "lat": 39.1637984,
    "long": -119.7674034
  },
  {
    "globaleventid": 272558332,
    "sqldate": 20131022,
    "monthyear": 201310,
    "year": 2013,
    "fractiondate": "2013.8",
    "eventcode": 173,
    "quadclass": 4,
    "nummentions": 8,
    "numsources": 1,
    "numarticles": 8,
    "avgtone": "0.747384155455904",
    "sourceurl": "http://www.nevadaappeal.com/news/crime/8548596-113/arrested-bail-carson-suspicion",
    "feature_id": "856321",
    "feature_name": "Mound House",
    "state_alpha": "NV",
    "county_name": "Lyon",
    "county_numeric": "019",
    "prim_lat_dec": "39.2171338",
    "prim_long_dec": "-119.675178",
    "elev_in_m": "1516",
    "elev_in_ft": "4974",
    "lat": 39.2171338,
    "long": -119.675178
  },
  {
    "globaleventid": 272558331,
    "sqldate": 20131022,
    "monthyear": 201310,
    "year": 2013,
    "fractiondate": "2013.8",
    "eventcode": 173,
    "quadclass": 4,
    "nummentions": 4,
    "numsources": 1,
    "numarticles": 4,
    "avgtone": "0.696055684454756",
    "sourceurl": "http://www.kxlh.com/news/woman-sentenced-for-running-over-missoula-police-officer/",
    "feature_id": "787504",
    "feature_name": "Missoula",
    "state_alpha": "MT",
    "county_name": "Missoula",
    "county_numeric": "063",
    "prim_lat_dec": "46.872146",
    "prim_long_dec": "-113.9939982",
    "elev_in_m": "978",
    "elev_in_ft": "3209",
    "lat": 46.872146,
    "long": -113.9939982
  },
  {
    "globaleventid": 272558330,
    "sqldate": 20131022,
    "monthyear": 201310,
    "year": 2013,
    "fractiondate": "2013.8",
    "eventcode": 173,
    "quadclass": 4,
    "nummentions": 2,
    "numsources": 1,
    "numarticles": 2,
    "avgtone": "1.69902912621359",
    "sourceurl": "http://www.greatfallstribune.com/viewart/20131022/NEWS01/310220021/New-drug-charges-man-linked-Bakken-ring",
    "feature_id": "771288",
    "feature_name": "Fairview",
    "state_alpha": "MT",
    "county_name": "Richland",
    "county_numeric": "083",
    "prim_lat_dec": "47.8564075",
    "prim_long_dec": "-104.0449328",
    "elev_in_m": "583",
    "elev_in_ft": "1913",
    "lat": 47.8564075,
    "long": -104.0449328
  },
  {
    "globaleventid": 272558328,
    "sqldate": 20131022,
    "monthyear": 201310,
    "year": 2013,
    "fractiondate": "2013.8",
    "eventcode": 173,
    "quadclass": 4,
    "nummentions": 8,
    "numsources": 2,
    "numarticles": 8,
    "avgtone": "0.280898876404495",
    "sourceurl": "http://www.stlouisstar.com/index.php/sid/217902395/scat/cf4abed8fe2be564",
    "feature_id": "756495",
    "feature_name": "Pagedale",
    "state_alpha": "MO",
    "county_name": "St. Louis",
    "county_numeric": "189",
    "prim_lat_dec": "38.6833847",
    "prim_long_dec": "-90.3076143",
    "elev_in_m": "173",
    "elev_in_ft": "568",
    "lat": 38.6833847,
    "long": -90.3076143
  },
  {
    "globaleventid": 272558327,
    "sqldate": 20131022,
    "monthyear": 201310,
    "year": 2013,
    "fractiondate": "2013.8",
    "eventcode": 173,
    "quadclass": 4,
    "nummentions": 2,
    "numsources": 1,
    "numarticles": 2,
    "avgtone": "0.53475935828877",
    "sourceurl": "http://www.kmov.com/news/local/California-kidnapping-suspect-caught-in-Missouri-Michigan-victim-okay-228842961.html",
    "feature_id": "755941",
    "feature_name": "Crestwood",
    "state_alpha": "MO",
    "county_name": "St. Louis",
    "county_numeric": "189",
    "prim_lat_dec": "38.5569974",
    "prim_long_dec": "-90.3817845",
    "elev_in_m": "190",
    "elev_in_ft": "623",
    "lat": 38.5569974,
    "long": -90.3817845
  },
  {
    "globaleventid": 272558326,
    "sqldate": 20131022,
    "monthyear": 201310,
    "year": 2013,
    "fractiondate": "2013.8",
    "eventcode": 173,
    "quadclass": 4,
    "nummentions": 4,
    "numsources": 1,
    "numarticles": 4,
    "avgtone": "0.75642965204236",
    "sourceurl": "http://thenewsdispatch.com/articles/2013/10/22/news/local/doc525f5bf8c60d2858842537.txt",
    "feature_id": "622409",
    "feature_name": "Byron Center",
    "state_alpha": "MI",
    "county_name": "Kent",
    "county_numeric": "081",
    "prim_lat_dec": "42.8122508",
    "prim_long_dec": "-85.7228062",
    "elev_in_m": "228",
    "elev_in_ft": "748",
    "lat": 42.8122508,
    "long": -85.7228062
  },
  {
    "globaleventid": 272558325,
    "sqldate": 20131022,
    "monthyear": 201310,
    "year": 2013,
    "fractiondate": "2013.8",
    "eventcode": 173,
    "quadclass": 4,
    "nummentions": 4,
    "numsources": 1,
    "numarticles": 4,
    "avgtone": "0.336700336700337",
    "sourceurl": "http://westborough.patch.com/groups/police-and-fire/p/2-larcenies-reported-monday",
    "feature_id": "617867",
    "feature_name": "Worcester",
    "state_alpha": "MA",
    "county_name": "Worcester",
    "county_numeric": "027",
    "prim_lat_dec": "42.2625932",
    "prim_long_dec": "-71.8022934",
    "elev_in_m": "146",
    "elev_in_ft": "479",
    "lat": 42.2625932,
    "long": -71.8022934
  },
  {
    "globaleventid": 272558324,
    "sqldate": 20131022,
    "monthyear": 201310,
    "year": 2013,
    "fractiondate": "2013.8",
    "eventcode": 173,
    "quadclass": 4,
    "nummentions": 25,
    "numsources": 3,
    "numarticles": 21,
    "avgtone": "0.952580641912645",
    "sourceurl": "http://www.bostonstar.com/index.php/sid/217892344/scat/141778e5a055112e",
    "feature_id": "617565",
    "feature_name": "Boston",
    "state_alpha": "MA",
    "county_name": "Suffolk",
    "county_numeric": "025",
    "prim_lat_dec": "42.3584308",
    "prim_long_dec": "-71.0597732",
    "elev_in_m": "14",
    "elev_in_ft": "46",
    "lat": 42.3584308,
    "long": -71.0597732
  },
  {
    "globaleventid": 272558320,
    "sqldate": 20131022,
    "monthyear": 201310,
    "year": 2013,
    "fractiondate": "2013.8",
    "eventcode": 173,
    "quadclass": 4,
    "nummentions": 4,
    "numsources": 1,
    "numarticles": 2,
    "avgtone": "1.01112234580384",
    "sourceurl": "http://www.wickedlocal.com/ashland/news/x915434810/Critic-of-Ashland-P-D-charged-with-assaulting-an-officer",
    "feature_id": "617384",
    "feature_name": "Ashland",
    "state_alpha": "MA",
    "county_name": "Middlesex",
    "county_numeric": "017",
    "prim_lat_dec": "42.2612067",
    "prim_long_dec": "-71.4633956",
    "elev_in_m": "55",
    "elev_in_ft": "180",
    "lat": 42.2612067,
    "long": -71.4633956
  },
  {
    "globaleventid": 272558319,
    "sqldate": 20131022,
    "monthyear": 201310,
    "year": 2013,
    "fractiondate": "2013.8",
    "eventcode": 173,
    "quadclass": 4,
    "nummentions": 2,
    "numsources": 1,
    "numarticles": 2,
    "avgtone": "0.0",
    "sourceurl": "http://news.providencejournal.com/breaking-news/2013/10/mass-state-police-say-they-captured-man-driving-recklessly-on-motorcyclerea.html",
    "feature_id": "613010",
    "feature_name": "Stoughton",
    "state_alpha": "MA",
    "county_name": "Norfolk",
    "county_numeric": "021",
    "prim_lat_dec": "42.1250995",
    "prim_long_dec": "-71.1022712",
    "elev_in_m": "71",
    "elev_in_ft": "233",
    "lat": 42.1250995,
    "long": -71.1022712
  },
  {
    "globaleventid": 272558318,
    "sqldate": 20131022,
    "monthyear": 201310,
    "year": 2013,
    "fractiondate": "2013.8",
    "eventcode": 173,
    "quadclass": 4,
    "nummentions": 7,
    "numsources": 1,
    "numarticles": 7,
    "avgtone": "0.205338809034908",
    "sourceurl": "http://www.tauntongazette.com/topstories/x1745248675/Taunton-police-arrest-two-after-White-Street-incident",
    "feature_id": "612955",
    "feature_name": "Mattapan",
    "state_alpha": "MA",
    "county_name": "Suffolk",
    "county_numeric": "025",
    "prim_lat_dec": "42.2723208",
    "prim_long_dec": "-71.0869953",
    "elev_in_m": "18",
    "elev_in_ft": "59",
    "lat": 42.2723208,
    "long": -71.0869953
  },
  {
    "globaleventid": 272558317,
    "sqldate": 20131022,
    "monthyear": 201310,
    "year": 2013,
    "fractiondate": "2013.8",
    "eventcode": 173,
    "quadclass": 4,
    "nummentions": 4,
    "numsources": 1,
    "numarticles": 2,
    "avgtone": "0.0",
    "sourceurl": "http://www.wickedlocal.com/waltham/news/x1275634893/Four-have-applied-for-Waltham-police-chief-job",
    "feature_id": "612400",
    "feature_name": "Waltham",
    "state_alpha": "MA",
    "county_name": "Middlesex",
    "county_numeric": "017",
    "prim_lat_dec": "42.3764852",
    "prim_long_dec": "-71.2356113",
    "elev_in_m": "20",
    "elev_in_ft": "66",
    "lat": 42.3764852,
    "long": -71.2356113
  },
  {
    "globaleventid": 272558316,
    "sqldate": 20131022,
    "monthyear": 201310,
    "year": 2013,
    "fractiondate": "2013.8",
    "eventcode": 173,
    "quadclass": 4,
    "nummentions": 4,
    "numsources": 1,
    "numarticles": 4,
    "avgtone": "2.42718446601942",
    "sourceurl": "http://www.eagletribune.com/newhampshire/x934964383/Woman-jailed-for-selling-fatal-dose",
    "feature_id": "612355",
    "feature_name": "North Andover",
    "state_alpha": "MA",
    "county_name": "Essex",
    "county_numeric": "009",
    "prim_lat_dec": "42.6987024",
    "prim_long_dec": "-71.1350575",
    "elev_in_m": "30",
    "elev_in_ft": "98",
    "lat": 42.6987024,
    "long": -71.1350575
  },
  {
    "globaleventid": 272558315,
    "sqldate": 20131022,
    "monthyear": 201310,
    "year": 2013,
    "fractiondate": "2013.8",
    "eventcode": 173,
    "quadclass": 4,
    "nummentions": 17,
    "numsources": 2,
    "numarticles": 17,
    "avgtone": "0.213903743315508",
    "sourceurl": "http://news.providencejournal.com/breaking-news/2013/10/mass-state-police-say-they-captured-man-driving-recklessly-on-motorcyclerea.html",
    "feature_id": "612141",
    "feature_name": "Arlington",
    "state_alpha": "MA",
    "county_name": "Middlesex",
    "county_numeric": "017",
    "prim_lat_dec": "42.4153739",
    "prim_long_dec": "-71.1564428",
    "elev_in_m": "21",
    "elev_in_ft": "69",
    "lat": 42.4153739,
    "long": -71.1564428
  },
  {
    "globaleventid": 272558314,
    "sqldate": 20131022,
    "monthyear": 201310,
    "year": 2013,
    "fractiondate": "2013.8",
    "eventcode": 173,
    "quadclass": 4,
    "nummentions": 24,
    "numsources": 1,
    "numarticles": 12,
    "avgtone": "0.658042658042658",
    "sourceurl": "http://www.metrowestdailynews.com/news/x915435068/Wayland-Police-arrest-Marlborough-man-for-breaking-and-entering",
    "feature_id": "611641",
    "feature_name": "Framingham",
    "state_alpha": "MA",
    "county_name": "Middlesex",
    "county_numeric": "017",
    "prim_lat_dec": "42.2792625",
    "prim_long_dec": "-71.416172",
    "elev_in_m": "50",
    "elev_in_ft": "164",
    "lat": 42.2792625,
    "long": -71.416172
  },
  {
    "globaleventid": 272558311,
    "sqldate": 20131022,
    "monthyear": 201310,
    "year": 2013,
    "fractiondate": "2013.8",
    "eventcode": 173,
    "quadclass": 4,
    "nummentions": 4,
    "numsources": 1,
    "numarticles": 3,
    "avgtone": "1.35905304690925",
    "sourceurl": "http://somd.com/news/headlines/2013/17320.shtml",
    "feature_id": "594728",
    "feature_name": "Great Mills",
    "state_alpha": "MD",
    "county_name": "St. Mary's",
    "county_numeric": "037",
    "prim_lat_dec": "38.2367924",
    "prim_long_dec": "-76.4971762",
    "elev_in_m": "4",
    "elev_in_ft": "13",
    "lat": 38.2367924,
    "long": -76.4971762
  },
  {
    "globaleventid": 272558310,
    "sqldate": 20131022,
    "monthyear": 201310,
    "year": 2013,
    "fractiondate": "2013.8",
    "eventcode": 173,
    "quadclass": 4,
    "nummentions": 2,
    "numsources": 1,
    "numarticles": 2,
    "avgtone": "4.48275862068965",
    "sourceurl": "http://www.abc2news.com/dpp/news/state/maryland-state-police-organizing-5k-to-benefit-injured-trooper",
    "feature_id": "591389",
    "feature_name": "Sykesville",
    "state_alpha": "MD",
    "county_name": "Carroll",
    "county_numeric": "013",
    "prim_lat_dec": "39.3737149",
    "prim_long_dec": "-76.9677566",
    "elev_in_m": "166",
    "elev_in_ft": "545",
    "lat": 39.3737149,
    "long": -76.9677566
  },
  {
    "globaleventid": 272558309,
    "sqldate": 20131022,
    "monthyear": 201310,
    "year": 2013,
    "fractiondate": "2013.8",
    "eventcode": 173,
    "quadclass": 4,
    "nummentions": 1,
    "numsources": 1,
    "numarticles": 1,
    "avgtone": "4.67479674796748",
    "sourceurl": "http://annearundel.patch.com/groups/giving/p/state-police-host-5k-run-to-benefit-trooper-injured-in-pasadena",
    "feature_id": "590983",
    "feature_name": "Pasadena",
    "state_alpha": "MD",
    "county_name": "Anne Arundel",
    "county_numeric": "003",
    "prim_lat_dec": "39.1073317",
    "prim_long_dec": "-76.5710753",
    "elev_in_m": "25",
    "elev_in_ft": "82",
    "lat": 39.1073317,
    "long": -76.5710753
  },
  {
    "globaleventid": 272558306,
    "sqldate": 20131022,
    "monthyear": 201310,
    "year": 2013,
    "fractiondate": "2013.8",
    "eventcode": 173,
    "quadclass": 4,
    "nummentions": 8,
    "numsources": 1,
    "numarticles": 8,
    "avgtone": "0.0",
    "sourceurl": "http://www.necn.com/10/21/13/3-arrested-on-drug-charges-in-Maine/landing_nation.html?&apID=1ffa4d72bd89441a966706058427eec0",
    "feature_id": "577782",
    "feature_name": "Waldoboro",
    "state_alpha": "ME",
    "county_name": "Lincoln",
    "county_numeric": "015",
    "prim_lat_dec": "44.0953569",
    "prim_long_dec": "-69.3756017",
    "elev_in_m": "22",
    "elev_in_ft": "72",
    "lat": 44.0953569,
    "long": -69.3756017
  },
  {
    "globaleventid": 272558305,
    "sqldate": 20131022,
    "monthyear": 201310,
    "year": 2013,
    "fractiondate": "2013.8",
    "eventcode": 173,
    "quadclass": 4,
    "nummentions": 32,
    "numsources": 4,
    "numarticles": 32,
    "avgtone": "3.05429682222608",
    "sourceurl": "http://www.starherald.com/news/nation_world/joker-charged-with-driving-drunk-in-maine/article_e46d0f7a-3abe-11e3-800f-0019bb2963f4.html",
    "feature_id": "573464",
    "feature_name": "Pittsfield",
    "state_alpha": "ME",
    "county_name": "Somerset",
    "county_numeric": "025",
    "prim_lat_dec": "44.7825642",
    "prim_long_dec": "-69.3833814",
    "elev_in_m": "64",
    "elev_in_ft": "210",
    "lat": 44.7825642,
    "long": -69.3833814
  },
  {
    "globaleventid": 272558303,
    "sqldate": 20131022,
    "monthyear": 201310,
    "year": 2013,
    "fractiondate": "2013.8",
    "eventcode": 173,
    "quadclass": 4,
    "nummentions": 1,
    "numsources": 1,
    "numarticles": 1,
    "avgtone": "0.834202294056309",
    "sourceurl": "http://theadvocate.com/home/7347034-125/story.html",
    "feature_id": "543600",
    "feature_name": "Prairieville",
    "state_alpha": "LA",
    "county_name": "Ascension",
    "county_numeric": "005",
    "prim_lat_dec": "30.3029721",
    "prim_long_dec": "-90.9720451",
    "elev_in_m": "7",
    "elev_in_ft": "23",
    "lat": 30.3029721,
    "long": -90.9720451
  },
  {
    "globaleventid": 272558302,
    "sqldate": 20131022,
    "monthyear": 201310,
    "year": 2013,
    "fractiondate": "2013.8",
    "eventcode": 173,
    "quadclass": 4,
    "nummentions": 4,
    "numsources": 1,
    "numarticles": 4,
    "avgtone": "2.98507462686567",
    "sourceurl": "http://www.ksla.com/story/23761749/stolen-planter-turns-up-in-florist-shop-employee-arrested?t=2013-10-22T20:50:37Z",
    "feature_id": "541195",
    "feature_name": "Spring Lake",
    "state_alpha": "LA",
    "county_name": "Claiborne",
    "county_numeric": "027",
    "prim_lat_dec": "32.7334816",
    "prim_long_dec": "-93.0551623",
    "elev_in_m": "99",
    "elev_in_ft": "325",
    "lat": 32.7334816,
    "long": -93.0551623
  },
  {
    "globaleventid": 272558301,
    "sqldate": 20131022,
    "monthyear": 201310,
    "year": 2013,
    "fractiondate": "2013.8",
    "eventcode": 173,
    "quadclass": 4,
    "nummentions": 7,
    "numsources": 3,
    "numarticles": 7,
    "avgtone": "1.0910961758883",
    "sourceurl": "http://www.kingmandailyminer.com/main.asp?SectionID=74&SubSectionID=548&ArticleID=58432",
    "feature_id": "531871",
    "feature_name": "Washington",
    "state_alpha": "DC",
    "county_name": "District of Columbia",
    "county_numeric": "001",
    "prim_lat_dec": "38.8951118",
    "prim_long_dec": "-77.0363658",
    "elev_in_m": "7",
    "elev_in_ft": "23",
    "lat": 38.8951118,
    "long": -77.0363658
  },
  {
    "globaleventid": 272558300,
    "sqldate": 20131022,
    "monthyear": 201310,
    "year": 2013,
    "fractiondate": "2013.8",
    "eventcode": 173,
    "quadclass": 4,
    "nummentions": 2,
    "numsources": 1,
    "numarticles": 2,
    "avgtone": "0.518134715025907",
    "sourceurl": "http://www.therepublic.com/view/story/a962bde2ca4a44a2afb8b39392bcbbf5/IA--Child-Stealing-Iowa&c=Ute1P_mRkxCo0i8fGvWYFiMCzP6PmEX_KASVDtVl9Lk&mkt=en-us",
    "feature_id": "465941",
    "feature_name": "Cedar Rapids",
    "state_alpha": "IA",
    "county_name": "Linn",
    "county_numeric": "113",
    "prim_lat_dec": "42.0083328",
    "prim_long_dec": "-91.6440683",
    "elev_in_m": "246",
    "elev_in_ft": "807",
    "lat": 42.0083328,
    "long": -91.6440683
  },
  {
    "globaleventid": 272558299,
    "sqldate": 20131022,
    "monthyear": 201310,
    "year": 2013,
    "fractiondate": "2013.8",
    "eventcode": 173,
    "quadclass": 4,
    "nummentions": 8,
    "numsources": 1,
    "numarticles": 8,
    "avgtone": "0.518134715025907",
    "sourceurl": "http://www.therepublic.com/view/story/a962bde2ca4a44a2afb8b39392bcbbf5/IA--Child-Stealing-Iowa&c=Ute1P_mRkxCo0i8fGvWYFiMCzP6PmEX_KASVDtVl9Lk&mkt=en-us",
    "feature_id": "465941",
    "feature_name": "Cedar Rapids",
    "state_alpha": "IA",
    "county_name": "Linn",
    "county_numeric": "113",
    "prim_lat_dec": "42.0083328",
    "prim_long_dec": "-91.6440683",
    "elev_in_m": "246",
    "elev_in_ft": "807",
    "lat": 42.0083328,
    "long": -91.6440683
  },
  {
    "globaleventid": 272558298,
    "sqldate": 20131022,
    "monthyear": 201310,
    "year": 2013,
    "fractiondate": "2013.8",
    "eventcode": 173,
    "quadclass": 4,
    "nummentions": 5,
    "numsources": 1,
    "numarticles": 5,
    "avgtone": "0.0",
    "sourceurl": "http://www.esthervilledailynews.com/page/content.detail/id/395097/Police-arrest-inmate-who-didn-t-return-to-facility.html?isap=1&nav=5012",
    "feature_id": "456686",
    "feature_name": "Fort Dodge",
    "state_alpha": "IA",
    "county_name": "Webster",
    "county_numeric": "187",
    "prim_lat_dec": "42.4974694",
    "prim_long_dec": "-94.1680158",
    "elev_in_m": "339",
    "elev_in_ft": "1112",
    "lat": 42.4974694,
    "long": -94.1680158
  },
  {
    "globaleventid": 272558297,
    "sqldate": 20131022,
    "monthyear": 201310,
    "year": 2013,
    "fractiondate": "2013.8",
    "eventcode": 173,
    "quadclass": 4,
    "nummentions": 4,
    "numsources": 1,
    "numarticles": 4,
    "avgtone": "0.0",
    "sourceurl": "http://www.esthervilledailynews.com/page/content.detail/id/395097/Police-arrest-inmate-who-didn-t-return-to-facility.html?isap=1&nav=5012",
    "feature_id": "456686",
    "feature_name": "Fort Dodge",
    "state_alpha": "IA",
    "county_name": "Webster",
    "county_numeric": "187",
    "prim_lat_dec": "42.4974694",
    "prim_long_dec": "-94.1680158",
    "elev_in_m": "339",
    "elev_in_ft": "1112",
    "lat": 42.4974694,
    "long": -94.1680158
  },
  {
    "globaleventid": 272558296,
    "sqldate": 20131022,
    "monthyear": 201310,
    "year": 2013,
    "fractiondate": "2013.8",
    "eventcode": 173,
    "quadclass": 4,
    "nummentions": 30,
    "numsources": 3,
    "numarticles": 30,
    "avgtone": "0.0",
    "sourceurl": "http://www.thonline.com/news/iowa-illinois-wisconsin/article_e4b7883a-3b21-11e3-bf0e-0019bb30f31a.html",
    "feature_id": "455465",
    "feature_name": "Clear Lake",
    "state_alpha": "IA",
    "county_name": "Cerro Gordo",
    "county_numeric": "033",
    "prim_lat_dec": "43.1380151",
    "prim_long_dec": "-93.3793725",
    "elev_in_m": "376",
    "elev_in_ft": "1234",
    "lat": 43.1380151,
    "long": -93.3793725
  },
  {
    "globaleventid": 272558293,
    "sqldate": 20131022,
    "monthyear": 201310,
    "year": 2013,
    "fractiondate": "2013.8",
    "eventcode": 173,
    "quadclass": 4,
    "nummentions": 14,
    "numsources": 2,
    "numarticles": 14,
    "avgtone": "0.692904886453274",
    "sourceurl": "http://abclocal.go.com/wls/story?section=news/iteam&id=9296594",
    "feature_id": "423587",
    "feature_name": "Chicago",
    "state_alpha": "IL",
    "county_name": "Cook",
    "county_numeric": "031",
    "prim_lat_dec": "41.850033",
    "prim_long_dec": "-87.6500523",
    "elev_in_m": "179",
    "elev_in_ft": "587",
    "lat": 41.850033,
    "long": -87.6500523
  },
  {
    "globaleventid": 272558292,
    "sqldate": 20131022,
    "monthyear": 201310,
    "year": 2013,
    "fractiondate": "2013.8",
    "eventcode": 173,
    "quadclass": 4,
    "nummentions": 8,
    "numsources": 1,
    "numarticles": 8,
    "avgtone": "0.539568345323741",
    "sourceurl": "http://www.chicagotribune.com/news/local/suburbs/orland_park_homer_glen/ct-tl-1024-ssw-orland-homer-blotter-20131024,0,1294605.story",
    "feature_id": "415178",
    "feature_name": "Orland Park",
    "state_alpha": "IL",
    "county_name": "Cook",
    "county_numeric": "031",
    "prim_lat_dec": "41.6303103",
    "prim_long_dec": "-87.8539425",
    "elev_in_m": "215",
    "elev_in_ft": "705",
    "lat": 41.6303103,
    "long": -87.8539425
  },
  {
    "globaleventid": 272558291,
    "sqldate": 20131022,
    "monthyear": 201310,
    "year": 2013,
    "fractiondate": "2013.8",
    "eventcode": 173,
    "quadclass": 4,
    "nummentions": 8,
    "numsources": 1,
    "numarticles": 8,
    "avgtone": "0.252525252525253",
    "sourceurl": "http://joliet.patch.com/groups/police-and-fire/p/blotter-id-theft-drug-trespass-license-and-gun-charges",
    "feature_id": "411192",
    "feature_name": "Joliet",
    "state_alpha": "IL",
    "county_name": "Will",
    "county_numeric": "197",
    "prim_lat_dec": "41.525031",
    "prim_long_dec": "-88.0817252",
    "elev_in_m": "165",
    "elev_in_ft": "541",
    "lat": 41.525031,
    "long": -88.0817252
  },
  {
    "globaleventid": 272558290,
    "sqldate": 20131022,
    "monthyear": 201310,
    "year": 2013,
    "fractiondate": "2013.8",
    "eventcode": 173,
    "quadclass": 4,
    "nummentions": 1,
    "numsources": 1,
    "numarticles": 1,
    "avgtone": "1.12994350282486",
    "sourceurl": "http://effinghamdailynews.com/local/x934964591/No-Headline-Provided",
    "feature_id": "407809",
    "feature_name": "Effingham",
    "state_alpha": "IL",
    "county_name": "Effingham",
    "county_numeric": "049",
    "prim_lat_dec": "39.1200418",
    "prim_long_dec": "-88.5433829",
    "elev_in_m": "182",
    "elev_in_ft": "597",
    "lat": 39.1200418,
    "long": -88.5433829
  },
  {
    "globaleventid": 272558289,
    "sqldate": 20131022,
    "monthyear": 201310,
    "year": 2013,
    "fractiondate": "2013.8",
    "eventcode": 173,
    "quadclass": 4,
    "nummentions": 4,
    "numsources": 1,
    "numarticles": 4,
    "avgtone": "0.0",
    "sourceurl": "http://www.kpvi.com/content/news/local/story/Ft-Hall-Escapee-in-Custody/LC8o89ILEUObuvnvkmkX1w.cspx",
    "feature_id": "397060",
    "feature_name": "Portneuf",
    "state_alpha": "ID",
    "county_name": "Bannock",
    "county_numeric": "005",
    "prim_lat_dec": "42.7949145",
    "prim_long_dec": "-112.3635862",
    "elev_in_m": "1371",
    "elev_in_ft": "4498",
    "lat": 42.7949145,
    "long": -112.3635862
  },
  {
    "globaleventid": 272558287,
    "sqldate": 20131022,
    "monthyear": 201310,
    "year": 2013,
    "fractiondate": "2013.8",
    "eventcode": 173,
    "quadclass": 4,
    "nummentions": 6,
    "numsources": 1,
    "numarticles": 6,
    "avgtone": "1.35135135135135",
    "sourceurl": "http://www.staradvertiser.com/news/breaking/20131022_Police_arrest_man_21_for_alleged_kidnapping_in_Waimanalo.html",
    "feature_id": "366212",
    "feature_name": "Honolulu",
    "state_alpha": "HI",
    "county_name": "Honolulu",
    "county_numeric": "003",
    "prim_lat_dec": "21.3069444",
    "prim_long_dec": "-157.8583333",
    "elev_in_m": "5",
    "elev_in_ft": "16",
    "lat": 21.3069444,
    "long": -157.8583333
  },
  {
    "globaleventid": 272558286,
    "sqldate": 20131022,
    "monthyear": 201310,
    "year": 2013,
    "fractiondate": "2013.8",
    "eventcode": 173,
    "quadclass": 4,
    "nummentions": 2,
    "numsources": 1,
    "numarticles": 2,
    "avgtone": "0.672645739910314",
    "sourceurl": "http://www.daily-tribune.com/view/full_story/23887039/article-Bartow-Blotter-10-20?instance=most_popular",
    "feature_id": "355017",
    "feature_name": "Cartersville",
    "state_alpha": "GA",
    "county_name": "Bartow",
    "county_numeric": "015",
    "prim_lat_dec": "34.1650972",
    "prim_long_dec": "-84.7999383",
    "elev_in_m": "234",
    "elev_in_ft": "768",
    "lat": 34.1650972,
    "long": -84.7999383
  },
  {
    "globaleventid": 272558285,
    "sqldate": 20131022,
    "monthyear": 201310,
    "year": 2013,
    "fractiondate": "2013.8",
    "eventcode": 173,
    "quadclass": 4,
    "nummentions": 2,
    "numsources": 1,
    "numarticles": 2,
    "avgtone": "0.672645739910314",
    "sourceurl": "http://www.daily-tribune.com/view/full_story/23887039/article-Bartow-Blotter-10-20?instance=most_popular",
    "feature_id": "355017",
    "feature_name": "Cartersville",
    "state_alpha": "GA",
    "county_name": "Bartow",
    "county_numeric": "015",
    "prim_lat_dec": "34.1650972",
    "prim_long_dec": "-84.7999383",
    "elev_in_m": "234",
    "elev_in_ft": "768",
    "lat": 34.1650972,
    "long": -84.7999383
  },
  {
    "globaleventid": 272558282,
    "sqldate": 20131022,
    "monthyear": 201310,
    "year": 2013,
    "fractiondate": "2013.8",
    "eventcode": 173,
    "quadclass": 4,
    "nummentions": 18,
    "numsources": 5,
    "numarticles": 18,
    "avgtone": "0.672522623965874",
    "sourceurl": "http://www.reflector.com/ap/staten/woman-accused-nc-slaying-arrested-georgia-2201255",
    "feature_id": "331583",
    "feature_name": "Douglasville",
    "state_alpha": "GA",
    "county_name": "Early",
    "county_numeric": "099",
    "prim_lat_dec": "31.3599",
    "prim_long_dec": "-84.6701951",
    "elev_in_m": "68",
    "elev_in_ft": "223",
    "lat": 31.3599,
    "long": -84.6701951
  },
  {
    "globaleventid": 272558281,
    "sqldate": 20131022,
    "monthyear": 201310,
    "year": 2013,
    "fractiondate": "2013.8",
    "eventcode": 173,
    "quadclass": 4,
    "nummentions": 2,
    "numsources": 1,
    "numarticles": 2,
    "avgtone": "0.709219858156028",
    "sourceurl": "http://www.foxcarolina.com/story/23762071/woman-accused-in-nc-slaying-arrested-in-georgia",
    "feature_id": "1005554",
    "feature_name": "Carolina",
    "state_alpha": "NC",
    "county_name": "Gaston",
    "county_numeric": "071",
    "prim_lat_dec": "35.3884665",
    "prim_long_dec": "-81.3714737",
    "elev_in_m": "284",
    "elev_in_ft": "932",
    "lat": 35.3884665,
    "long": -81.3714737
  },
  {
    "globaleventid": 272558280,
    "sqldate": 20131022,
    "monthyear": 201310,
    "year": 2013,
    "fractiondate": "2013.8",
    "eventcode": 173,
    "quadclass": 4,
    "nummentions": 6,
    "numsources": 2,
    "numarticles": 6,
    "avgtone": "3.15360266108697",
    "sourceurl": "http://personalliberty.com/2013/10/22/police-duck-dynasty-scarecrow-thief-a-juvenile/",
    "feature_id": "331382",
    "feature_name": "Cherokee",
    "state_alpha": "GA",
    "county_name": "Cherokee",
    "county_numeric": "057",
    "prim_lat_dec": "34.1681526",
    "prim_long_dec": "-84.570765",
    "elev_in_m": "268",
    "elev_in_ft": "879",
    "lat": 34.1681526,
    "long": -84.570765
  },
  {
    "globaleventid": 272558279,
    "sqldate": 20131022,
    "monthyear": 201310,
    "year": 2013,
    "fractiondate": "2013.8",
    "eventcode": 173,
    "quadclass": 4,
    "nummentions": 4,
    "numsources": 1,
    "numarticles": 4,
    "avgtone": "0.672645739910314",
    "sourceurl": "http://www.daily-tribune.com/view/full_story/23887039/article-Bartow-Blotter-10-20?instance=most_popular",
    "feature_id": "316387",
    "feature_name": "Kennesaw",
    "state_alpha": "GA",
    "county_name": "Cobb",
    "county_numeric": "067",
    "prim_lat_dec": "34.0234337",
    "prim_long_dec": "-84.6154897",
    "elev_in_m": "332",
    "elev_in_ft": "1089",
    "lat": 34.0234337,
    "long": -84.6154897
  },
  {
    "globaleventid": 272558278,
    "sqldate": 20131022,
    "monthyear": 201310,
    "year": 2013,
    "fractiondate": "2013.8",
    "eventcode": 173,
    "quadclass": 4,
    "nummentions": 1,
    "numsources": 1,
    "numarticles": 1,
    "avgtone": "0.672645739910314",
    "sourceurl": "http://www.daily-tribune.com/view/full_story/23887039/article-Bartow-Blotter-10-20?instance=most_popular",
    "feature_id": "313985",
    "feature_name": "Euharlee",
    "state_alpha": "GA",
    "county_name": "Bartow",
    "county_numeric": "015",
    "prim_lat_dec": "34.1448193",
    "prim_long_dec": "-84.9329986",
    "elev_in_m": "208",
    "elev_in_ft": "682",
    "lat": 34.1448193,
    "long": -84.9329986
  },
  {
    "globaleventid": 272558277,
    "sqldate": 20131022,
    "monthyear": 201310,
    "year": 2013,
    "fractiondate": "2013.8",
    "eventcode": 173,
    "quadclass": 4,
    "nummentions": 1,
    "numsources": 1,
    "numarticles": 1,
    "avgtone": "0.672645739910314",
    "sourceurl": "http://www.daily-tribune.com/view/full_story/23887039/article-Bartow-Blotter-10-20?instance=most_popular",
    "feature_id": "310389",
    "feature_name": "Adairsville",
    "state_alpha": "GA",
    "county_name": "Bartow",
    "county_numeric": "015",
    "prim_lat_dec": "34.3687021",
    "prim_long_dec": "-84.9341093",
    "elev_in_m": "219",
    "elev_in_ft": "718",
    "lat": 34.3687021,
    "long": -84.9341093
  },
  {
    "globaleventid": 272558276,
    "sqldate": 20131022,
    "monthyear": 201310,
    "year": 2013,
    "fractiondate": "2013.8",
    "eventcode": 173,
    "quadclass": 4,
    "nummentions": 1,
    "numsources": 1,
    "numarticles": 1,
    "avgtone": "0.672645739910314",
    "sourceurl": "http://www.daily-tribune.com/view/full_story/23887039/article-Bartow-Blotter-10-20?instance=most_popular",
    "feature_id": "310389",
    "feature_name": "Adairsville",
    "state_alpha": "GA",
    "county_name": "Bartow",
    "county_numeric": "015",
    "prim_lat_dec": "34.3687021",
    "prim_long_dec": "-84.9341093",
    "elev_in_m": "219",
    "elev_in_ft": "718",
    "lat": 34.3687021,
    "long": -84.9341093
  },
  {
    "globaleventid": 272558275,
    "sqldate": 20131022,
    "monthyear": 201310,
    "year": 2013,
    "fractiondate": "2013.8",
    "eventcode": 173,
    "quadclass": 4,
    "nummentions": 238,
    "numsources": 21,
    "numarticles": 238,
    "avgtone": "1.71454419020895",
    "sourceurl": "http://www.bayoubuzz.com/us-news/item/541493-police-in-fla-son-of-paraguays-president-arrested-accuse",
    "feature_id": "295004",
    "feature_name": "Miami",
    "state_alpha": "FL",
    "county_name": "Miami-Dade",
    "county_numeric": "086",
    "prim_lat_dec": "25.7742658",
    "prim_long_dec": "-80.1936589",
    "elev_in_m": "2",
    "elev_in_ft": "7",
    "lat": 25.7742658,
    "long": -80.1936589
  },
  {
    "globaleventid": 272558273,
    "sqldate": 20131022,
    "monthyear": 201310,
    "year": 2013,
    "fractiondate": "2013.8",
    "eventcode": 173,
    "quadclass": 4,
    "nummentions": 4,
    "numsources": 1,
    "numarticles": 4,
    "avgtone": "0.581395348837209",
    "sourceurl": "http://www.floridastatesman.com/index.php/sid/217904906/scat/3951354e01311858",
    "feature_id": "292005",
    "feature_name": "Tampa",
    "state_alpha": "FL",
    "county_name": "Hillsborough",
    "county_numeric": "057",
    "prim_lat_dec": "27.9475216",
    "prim_long_dec": "-82.4584279",
    "elev_in_m": "5",
    "elev_in_ft": "16",
    "lat": 27.9475216,
    "long": -82.4584279
  },
  {
    "globaleventid": 272558272,
    "sqldate": 20131022,
    "monthyear": 201310,
    "year": 2013,
    "fractiondate": "2013.8",
    "eventcode": 173,
    "quadclass": 4,
    "nummentions": 10,
    "numsources": 1,
    "numarticles": 10,
    "avgtone": "0.0",
    "sourceurl": "http://horsetalk.co.nz/2013/10/23/florida-man-arrested-punching-police-horse/",
    "feature_id": "288240",
    "feature_name": "Orlando",
    "state_alpha": "FL",
    "county_name": "Orange",
    "county_numeric": "095",
    "prim_lat_dec": "28.5383355",
    "prim_long_dec": "-81.3792365",
    "elev_in_m": "31",
    "elev_in_ft": "102",
    "lat": 28.5383355,
    "long": -81.3792365
  },
  {
    "globaleventid": 272558270,
    "sqldate": 20131022,
    "monthyear": 201310,
    "year": 2013,
    "fractiondate": "2013.8",
    "eventcode": 173,
    "quadclass": 4,
    "nummentions": 4,
    "numsources": 1,
    "numarticles": 4,
    "avgtone": "3.65497076023392",
    "sourceurl": "http://abclocal.go.com/kfsn/story?section=news/local&id=9293608",
    "feature_id": "277606",
    "feature_name": "Fresno",
    "state_alpha": "CA",
    "county_name": "Fresno",
    "county_numeric": "019",
    "prim_lat_dec": "36.7477272",
    "prim_long_dec": "-119.7723661",
    "elev_in_m": "94",
    "elev_in_ft": "308",
    "lat": 36.7477272,
    "long": -119.7723661
  },
  {
    "globaleventid": 272558266,
    "sqldate": 20131022,
    "monthyear": 201310,
    "year": 2013,
    "fractiondate": "2013.8",
    "eventcode": 173,
    "quadclass": 4,
    "nummentions": 2,
    "numsources": 1,
    "numarticles": 2,
    "avgtone": "1.28676470588235",
    "sourceurl": "http://www.recordnet.com/apps/pbcs.dll/article?AID=/20131022/A_NEWS0201/310220316/-1/rss01",
    "feature_id": "252785",
    "feature_name": "Ryde",
    "state_alpha": "CA",
    "county_name": "Sacramento",
    "county_numeric": "067",
    "prim_lat_dec": "38.2385259",
    "prim_long_dec": "-121.5605093",
    "elev_in_m": "0",
    "elev_in_ft": "0",
    "lat": 38.2385259,
    "long": -121.5605093
  },
  {
    "globaleventid": 272558265,
    "sqldate": 20131022,
    "monthyear": 201310,
    "year": 2013,
    "fractiondate": "2013.8",
    "eventcode": 173,
    "quadclass": 4,
    "nummentions": 1,
    "numsources": 1,
    "numarticles": 1,
    "avgtone": "2.40700218818381",
    "sourceurl": "http://www.kingmandailyminer.com/main.asp?SectionID=74&SubSectionID=548&ArticleID=58432",
    "feature_id": "25032",
    "feature_name": "Quail Lane",
    "state_alpha": "AZ",
    "county_name": "Maricopa",
    "county_numeric": "013",
    "prim_lat_dec": "33.5833735",
    "prim_long_dec": "-112.1957098",
    "elev_in_m": "361",
    "elev_in_ft": "1184",
    "lat": 33.5833735,
    "long": -112.1957098
  },
  {
    "globaleventid": 272558264,
    "sqldate": 20131022,
    "monthyear": 201310,
    "year": 2013,
    "fractiondate": "2013.8",
    "eventcode": 173,
    "quadclass": 4,
    "nummentions": 1,
    "numsources": 1,
    "numarticles": 1,
    "avgtone": "2.40700218818381",
    "sourceurl": "http://www.kingmandailyminer.com/main.asp?SectionID=74&SubSectionID=548&ArticleID=58432",
    "feature_id": "25032",
    "feature_name": "Quail Lane",
    "state_alpha": "AZ",
    "county_name": "Maricopa",
    "county_numeric": "013",
    "prim_lat_dec": "33.5833735",
    "prim_long_dec": "-112.1957098",
    "elev_in_m": "361",
    "elev_in_ft": "1184",
    "lat": 33.5833735,
    "long": -112.1957098
  },
  {
    "globaleventid": 272558262,
    "sqldate": 20131022,
    "monthyear": 201310,
    "year": 2013,
    "fractiondate": "2013.8",
    "eventcode": 173,
    "quadclass": 4,
    "nummentions": 6,
    "numsources": 1,
    "numarticles": 6,
    "avgtone": "1.66666666666667",
    "sourceurl": "http://www.wmdt.com/story/23751326/leipsi-teen-arrested-on-burglary-charges",
    "feature_id": "214213",
    "feature_name": "Leipsic",
    "state_alpha": "DE",
    "county_name": "Kent",
    "county_numeric": "001",
    "prim_lat_dec": "39.2409454",
    "prim_long_dec": "-75.5168683",
    "elev_in_m": "2",
    "elev_in_ft": "7",
    "lat": 39.2409454,
    "long": -75.5168683
  },
  {
    "globaleventid": 272558260,
    "sqldate": 20131022,
    "monthyear": 201310,
    "year": 2013,
    "fractiondate": "2013.8",
    "eventcode": 173,
    "quadclass": 4,
    "nummentions": 1,
    "numsources": 1,
    "numarticles": 1,
    "avgtone": "2.57731958762887",
    "sourceurl": "http://southwindsor.patch.com/groups/police-and-fire/p/south-windsor-police-log-oct-2122",
    "feature_id": "211017",
    "feature_name": "South Windsor",
    "state_alpha": "CT",
    "county_name": "Hartford",
    "county_numeric": "003",
    "prim_lat_dec": "41.8237099",
    "prim_long_dec": "-72.6212015",
    "elev_in_m": "12",
    "elev_in_ft": "39",
    "lat": 41.8237099,
    "long": -72.6212015
  },
  {
    "globaleventid": 272558259,
    "sqldate": 20131022,
    "monthyear": 201310,
    "year": 2013,
    "fractiondate": "2013.8",
    "eventcode": 173,
    "quadclass": 4,
    "nummentions": 4,
    "numsources": 1,
    "numarticles": 4,
    "avgtone": "1.00755667506297",
    "sourceurl": "http://www.theday.com/article/20131022/NWS02/131029921/1047",
    "feature_id": "209237",
    "feature_name": "New London",
    "state_alpha": "CT",
    "county_name": "New London",
    "county_numeric": "011",
    "prim_lat_dec": "41.3556539",
    "prim_long_dec": "-72.0995209",
    "elev_in_m": "17",
    "elev_in_ft": "56",
    "lat": 41.3556539,
    "long": -72.0995209
  },
  {
    "globaleventid": 272558258,
    "sqldate": 20131022,
    "monthyear": 201310,
    "year": 2013,
    "fractiondate": "2013.8",
    "eventcode": 173,
    "quadclass": 4,
    "nummentions": 2,
    "numsources": 1,
    "numarticles": 2,
    "avgtone": "1.95758564437194",
    "sourceurl": "http://www.theday.com/article/20131022/NWS12/310229952/1044",
    "feature_id": "206823",
    "feature_name": "East Haven",
    "state_alpha": "CT",
    "county_name": "New Haven",
    "county_numeric": "009",
    "prim_lat_dec": "41.2762081",
    "prim_long_dec": "-72.8684337",
    "elev_in_m": "7",
    "elev_in_ft": "23",
    "lat": 41.2762081,
    "long": -72.8684337
  },
  {
    "globaleventid": 272558257,
    "sqldate": 20131022,
    "monthyear": 201310,
    "year": 2013,
    "fractiondate": "2013.8",
    "eventcode": 173,
    "quadclass": 4,
    "nummentions": 2,
    "numsources": 1,
    "numarticles": 2,
    "avgtone": "2.12765957446809",
    "sourceurl": "http://kdvr.com/2013/10/22/jensen-brothers-plead-guilty-in-in-fatal-cantaloupe-case/",
    "feature_id": "201738",
    "feature_name": "Denver",
    "state_alpha": "CO",
    "county_name": "Denver",
    "county_numeric": "031",
    "prim_lat_dec": "39.7391536",
    "prim_long_dec": "-104.9847034",
    "elev_in_m": "1609",
    "elev_in_ft": "5279",
    "lat": 39.7391536,
    "long": -104.9847034
  },
  {
    "globaleventid": 272558245,
    "sqldate": 20131022,
    "monthyear": 201310,
    "year": 2013,
    "fractiondate": "2013.8",
    "eventcode": 173,
    "quadclass": 4,
    "nummentions": 21,
    "numsources": 2,
    "numarticles": 21,
    "avgtone": "1.84697211986372",
    "sourceurl": "http://www.foxnews.com/world/2013/10/22/engineer-us-anti-piracy-ship-attempts-suicide-after-entire-crew-seized-by/",
    "feature_id": "1497660",
    "feature_name": "Indian",
    "state_alpha": "VA",
    "county_name": "Tazewell",
    "county_numeric": "185",
    "prim_lat_dec": "37.0876141",
    "prim_long_dec": "-81.7581697",
    "elev_in_m": "596",
    "elev_in_ft": "1955",
    "lat": 37.0876141,
    "long": -81.7581697
  },
  {
    "globaleventid": 272558244,
    "sqldate": 20131022,
    "monthyear": 201310,
    "year": 2013,
    "fractiondate": "2013.8",
    "eventcode": 173,
    "quadclass": 4,
    "nummentions": 2,
    "numsources": 1,
    "numarticles": 2,
    "avgtone": "1.00376411543287",
    "sourceurl": "http://www.berkshireeagle.com/news/ci_24358896/pittsfield-police-log-friday-sunday-oct-18-20",
    "feature_id": "1496982",
    "feature_name": "Lenox",
    "state_alpha": "VA",
    "county_name": "Norfolk (city)",
    "county_numeric": "710",
    "prim_lat_dec": "36.942925",
    "prim_long_dec": "-76.254662",
    "elev_in_m": "4",
    "elev_in_ft": "13",
    "lat": 36.942925,
    "long": -76.254662
  },
  {
    "globaleventid": 272558243,
    "sqldate": 20131022,
    "monthyear": 201310,
    "year": 2013,
    "fractiondate": "2013.8",
    "eventcode": 173,
    "quadclass": 4,
    "nummentions": 14,
    "numsources": 1,
    "numarticles": 8,
    "avgtone": "1.00376411543287",
    "sourceurl": "http://www.berkshireeagle.com/news/ci_24358896/pittsfield-police-log-friday-sunday-oct-18-20",
    "feature_id": "1496982",
    "feature_name": "Lenox",
    "state_alpha": "VA",
    "county_name": "Norfolk (city)",
    "county_numeric": "710",
    "prim_lat_dec": "36.942925",
    "prim_long_dec": "-76.254662",
    "elev_in_m": "4",
    "elev_in_ft": "13",
    "lat": 36.942925,
    "long": -76.254662
  },
  {
    "globaleventid": 272558242,
    "sqldate": 20131022,
    "monthyear": 201310,
    "year": 2013,
    "fractiondate": "2013.8",
    "eventcode": 173,
    "quadclass": 4,
    "nummentions": 2,
    "numsources": 1,
    "numarticles": 2,
    "avgtone": "0.447427293064877",
    "sourceurl": "http://www.timesdispatch.com/news/state-regional/crime-and-police-news-for-tuesday-oct/article_1099afa8-7cf9-518e-bc65-ce4369ee14d5.html",
    "feature_id": "1477407",
    "feature_name": "Henrico",
    "state_alpha": "VA",
    "county_name": "Mecklenburg",
    "county_numeric": "117",
    "prim_lat_dec": "36.5926409",
    "prim_long_dec": "-78.6161132",
    "elev_in_m": "123",
    "elev_in_ft": "404",
    "lat": 36.5926409,
    "long": -78.6161132
  },
  {
    "globaleventid": 272558241,
    "sqldate": 20131022,
    "monthyear": 201310,
    "year": 2013,
    "fractiondate": "2013.8",
    "eventcode": 173,
    "quadclass": 4,
    "nummentions": 4,
    "numsources": 2,
    "numarticles": 4,
    "avgtone": "0.696872571872571",
    "sourceurl": "http://www.sfgate.com/news/crime/article/Man-in-Monday-police-chase-arrested-in-South-Ogden-4917203.php",
    "feature_id": "1445910",
    "feature_name": "South Ogden",
    "state_alpha": "UT",
    "county_name": "Weber",
    "county_numeric": "057",
    "prim_lat_dec": "41.1918886",
    "prim_long_dec": "-111.9713304",
    "elev_in_m": "1356",
    "elev_in_ft": "4449",
    "lat": 41.1918886,
    "long": -111.9713304
  },
  {
    "globaleventid": 272558236,
    "sqldate": 20131022,
    "monthyear": 201310,
    "year": 2013,
    "fractiondate": "2013.8",
    "eventcode": 173,
    "quadclass": 4,
    "nummentions": 15,
    "numsources": 2,
    "numarticles": 15,
    "avgtone": "0.917431192660553",
    "sourceurl": "http://www.sanantoniopost.com/index.php/sid/217896511/scat/f18f75b7970654da",
    "feature_id": "1380951",
    "feature_name": "San Antonio",
    "state_alpha": "TX",
    "county_name": "Bexar",
    "county_numeric": "029",
    "prim_lat_dec": "29.4241219",
    "prim_long_dec": "-98.4936282",
    "elev_in_m": "198",
    "elev_in_ft": "650",
    "lat": 29.4241219,
    "long": -98.4936282
  },
  {
    "globaleventid": 272558235,
    "sqldate": 20131022,
    "monthyear": 201310,
    "year": 2013,
    "fractiondate": "2013.8",
    "eventcode": 173,
    "quadclass": 4,
    "nummentions": 12,
    "numsources": 2,
    "numarticles": 12,
    "avgtone": "1.00840478674232",
    "sourceurl": "http://www.kens5.com/news/Dallas-chief-deflects-questions-about-police-shooting-228810381.html",
    "feature_id": "1380944",
    "feature_name": "Dallas",
    "state_alpha": "TX",
    "county_name": "Dallas",
    "county_numeric": "113",
    "prim_lat_dec": "32.7830556",
    "prim_long_dec": "-96.8066667",
    "elev_in_m": "128",
    "elev_in_ft": "420",
    "lat": 32.7830556,
    "long": -96.8066667
  },
  {
    "globaleventid": 272558234,
    "sqldate": 20131022,
    "monthyear": 201310,
    "year": 2013,
    "fractiondate": "2013.8",
    "eventcode": 173,
    "quadclass": 4,
    "nummentions": 4,
    "numsources": 1,
    "numarticles": 4,
    "avgtone": "0.662251655629139",
    "sourceurl": "http://www.ksfy.com/story/23755456/overnight-police-chase-ends-with-two-arrests-in-sioux-falls",
    "feature_id": "1267670",
    "feature_name": "Sioux Falls",
    "state_alpha": "SD",
    "county_name": "Minnehaha",
    "county_numeric": "099",
    "prim_lat_dec": "43.5499749",
    "prim_long_dec": "-96.700327",
    "elev_in_m": "449",
    "elev_in_ft": "1473",
    "lat": 43.5499749,
    "long": -96.700327
  },
  {
    "globaleventid": 272558232,
    "sqldate": 20131022,
    "monthyear": 201310,
    "year": 2013,
    "fractiondate": "2013.8",
    "eventcode": 173,
    "quadclass": 4,
    "nummentions": 1,
    "numsources": 1,
    "numarticles": 1,
    "avgtone": "0.668896321070234",
    "sourceurl": "http://tribune-democrat.com/local/x2112902471/Court-Businessman-plotted-to-get-rid-of-gay-employee",
    "feature_id": "1174589",
    "feature_name": "Fallentimber",
    "state_alpha": "PA",
    "county_name": "Cambria",
    "county_numeric": "021",
    "prim_lat_dec": "40.6867305",
    "prim_long_dec": "-78.4991866",
    "elev_in_m": "438",
    "elev_in_ft": "1437",
    "lat": 40.6867305,
    "long": -78.4991866
  },
  {
    "globaleventid": 272558228,
    "sqldate": 20131022,
    "monthyear": 201310,
    "year": 2013,
    "fractiondate": "2013.8",
    "eventcode": 173,
    "quadclass": 4,
    "nummentions": 1,
    "numsources": 1,
    "numarticles": 1,
    "avgtone": "0.480769230769231",
    "sourceurl": "http://www.mcall.com/news/breaking/mc-c-towamencin-twp-home-invasion-key-20131022,0,4197742.story",
    "feature_id": "1209052",
    "feature_name": "Philadelphia",
    "state_alpha": "PA",
    "county_name": "Philadelphia",
    "county_numeric": "101",
    "prim_lat_dec": "39.952335",
    "prim_long_dec": "-75.163789",
    "elev_in_m": "14",
    "elev_in_ft": "46",
    "lat": 39.952335,
    "long": -75.163789
  },
  {
    "globaleventid": 272558227,
    "sqldate": 20131022,
    "monthyear": 201310,
    "year": 2013,
    "fractiondate": "2013.8",
    "eventcode": 173,
    "quadclass": 4,
    "nummentions": 4,
    "numsources": 1,
    "numarticles": 4,
    "avgtone": "0.555555555555556",
    "sourceurl": "http://www.vindy.com/news/2013/oct/23/couple-arrested-in-robbery/",
    "feature_id": "1191919",
    "feature_name": "Youngstown",
    "state_alpha": "PA",
    "county_name": "Fayette",
    "county_numeric": "051",
    "prim_lat_dec": "39.9309089",
    "prim_long_dec": "-79.6578191",
    "elev_in_m": "342",
    "elev_in_ft": "1122",
    "lat": 39.9309089,
    "long": -79.6578191
  },
  {
    "globaleventid": 272558226,
    "sqldate": 20131022,
    "monthyear": 201310,
    "year": 2013,
    "fractiondate": "2013.8",
    "eventcode": 173,
    "quadclass": 4,
    "nummentions": 4,
    "numsources": 1,
    "numarticles": 4,
    "avgtone": "0.622406639004149",
    "sourceurl": "http://www.centraljersey.com/articles/2013/10/22/the_register_news/news/doc5244533500b97968011942.txt",
    "feature_id": "1180304",
    "feature_name": "Mansfield",
    "state_alpha": "PA",
    "county_name": "Tioga",
    "county_numeric": "117",
    "prim_lat_dec": "41.8072961",
    "prim_long_dec": "-77.077468",
    "elev_in_m": "350",
    "elev_in_ft": "1148",
    "lat": 41.8072961,
    "long": -77.077468
  },
  {
    "globaleventid": 272558225,
    "sqldate": 20131022,
    "monthyear": 201310,
    "year": 2013,
    "fractiondate": "2013.8",
    "eventcode": 173,
    "quadclass": 4,
    "nummentions": 1,
    "numsources": 1,
    "numarticles": 1,
    "avgtone": "0.668896321070234",
    "sourceurl": "http://tribune-democrat.com/local/x2112902471/Court-Businessman-plotted-to-get-rid-of-gay-employee",
    "feature_id": "1174589",
    "feature_name": "Fallentimber",
    "state_alpha": "PA",
    "county_name": "Cambria",
    "county_numeric": "021",
    "prim_lat_dec": "40.6867305",
    "prim_long_dec": "-78.4991866",
    "elev_in_m": "438",
    "elev_in_ft": "1437",
    "lat": 40.6867305,
    "long": -78.4991866
  },
  {
    "globaleventid": 272558224,
    "sqldate": 20131022,
    "monthyear": 201310,
    "year": 2013,
    "fractiondate": "2013.8",
    "eventcode": 173,
    "quadclass": 4,
    "nummentions": 6,
    "numsources": 1,
    "numarticles": 6,
    "avgtone": "2.29885057471264",
    "sourceurl": "http://www.katu.com/news/investigators/Once-isnt-enough-to-clean-up-Southeast-Portland-nuisance-home-228860081.html",
    "feature_id": "1128399",
    "feature_name": "Umatilla",
    "state_alpha": "OR",
    "county_name": "Umatilla",
    "county_numeric": "059",
    "prim_lat_dec": "45.9173549",
    "prim_long_dec": "-119.3425179",
    "elev_in_m": "98",
    "elev_in_ft": "322",
    "lat": 45.9173549,
    "long": -119.3425179
  },
  {
    "globaleventid": 272558223,
    "sqldate": 20131022,
    "monthyear": 201310,
    "year": 2013,
    "fractiondate": "2013.8",
    "eventcode": 173,
    "quadclass": 4,
    "nummentions": 1,
    "numsources": 1,
    "numarticles": 1,
    "avgtone": "4.83870967741935",
    "sourceurl": "http://www.oklahomastar.com/index.php/sid/217904923/scat/84aeba5e9b6e1230",
    "feature_id": "1100962",
    "feature_name": "Tulsa",
    "state_alpha": "OK",
    "county_name": "Tulsa",
    "county_numeric": "143",
    "prim_lat_dec": "36.1539816",
    "prim_long_dec": "-95.992775",
    "elev_in_m": "220",
    "elev_in_ft": "722",
    "lat": 36.1539816,
    "long": -95.992775
  },
  {
    "globaleventid": 272558221,
    "sqldate": 20131022,
    "monthyear": 201310,
    "year": 2013,
    "fractiondate": "2013.8",
    "eventcode": 173,
    "quadclass": 4,
    "nummentions": 2,
    "numsources": 1,
    "numarticles": 2,
    "avgtone": "0.980392156862745",
    "sourceurl": "http://sapulpaheraldonline.com/articles/2013/10/22/news/doc5266ccff0db0c103137180.txt",
    "feature_id": "1097835",
    "feature_name": "Sapulpa",
    "state_alpha": "OK",
    "county_name": "Creek",
    "county_numeric": "037",
    "prim_lat_dec": "35.9987007",
    "prim_long_dec": "-96.1141664",
    "elev_in_m": "218",
    "elev_in_ft": "715",
    "lat": 35.9987007,
    "long": -96.1141664
  },
  {
    "globaleventid": 272558216,
    "sqldate": 20131022,
    "monthyear": 201310,
    "year": 2013,
    "fractiondate": "2013.8",
    "eventcode": 173,
    "quadclass": 4,
    "nummentions": 12,
    "numsources": 2,
    "numarticles": 12,
    "avgtone": "0.0",
    "sourceurl": "http://www.timesreporter.com/newsnow/x1467726098/Boy-11-charged-with-burning-Lorain-playground",
    "feature_id": "1066654",
    "feature_name": "Cleveland",
    "state_alpha": "OH",
    "county_name": "Cuyahoga",
    "county_numeric": "035",
    "prim_lat_dec": "41.4994954",
    "prim_long_dec": "-81.6954088",
    "elev_in_m": "199",
    "elev_in_ft": "653",
    "lat": 41.4994954,
    "long": -81.6954088
  },
  {
    "globaleventid": 272558215,
    "sqldate": 20131022,
    "monthyear": 201310,
    "year": 2013,
    "fractiondate": "2013.8",
    "eventcode": 173,
    "quadclass": 4,
    "nummentions": 8,
    "numsources": 1,
    "numarticles": 8,
    "avgtone": "0.276243093922652",
    "sourceurl": "http://heraldbulletin.com/local/x1442590485/Arrest-log-Oct-23",
    "feature_id": "1066650",
    "feature_name": "Cincinnati",
    "state_alpha": "OH",
    "county_name": "Hamilton",
    "county_numeric": "061",
    "prim_lat_dec": "39.1620036",
    "prim_long_dec": "-84.4568863",
    "elev_in_m": "191",
    "elev_in_ft": "627",
    "lat": 39.1620036,
    "long": -84.4568863
  },
  {
    "globaleventid": 272558213,
    "sqldate": 20131022,
    "monthyear": 201310,
    "year": 2013,
    "fractiondate": "2013.8",
    "eventcode": 173,
    "quadclass": 4,
    "nummentions": 2,
    "numsources": 1,
    "numarticles": 2,
    "avgtone": "0.917431192660551",
    "sourceurl": "http://www.opposingviews.com/i/religion/man-charged-assaulting-western-ohio-pastor-after-sunday-sermon-video",
    "feature_id": "1065471",
    "feature_name": "North Hampton",
    "state_alpha": "OH",
    "county_name": "Clark",
    "county_numeric": "023",
    "prim_lat_dec": "39.9900594",
    "prim_long_dec": "-83.9399333",
    "elev_in_m": "334",
    "elev_in_ft": "1096",
    "lat": 39.9900594,
    "long": -83.9399333
  },
  {
    "globaleventid": 272558212,
    "sqldate": 20131022,
    "monthyear": 201310,
    "year": 2013,
    "fractiondate": "2013.8",
    "eventcode": 173,
    "quadclass": 4,
    "nummentions": 16,
    "numsources": 4,
    "numarticles": 16,
    "avgtone": "0.671183203962338",
    "sourceurl": "http://www.ohio.com/news/break-news/man-charged-in-attack-on-ohio-pastor-after-service-1.438952",
    "feature_id": "1065370",
    "feature_name": "Springfield",
    "state_alpha": "OH",
    "county_name": "Clark",
    "county_numeric": "023",
    "prim_lat_dec": "39.9242266",
    "prim_long_dec": "-83.8088172",
    "elev_in_m": "297",
    "elev_in_ft": "974",
    "lat": 39.9242266,
    "long": -83.8088172
  },
  {
    "globaleventid": 272558211,
    "sqldate": 20131022,
    "monthyear": 201310,
    "year": 2013,
    "fractiondate": "2013.8",
    "eventcode": 173,
    "quadclass": 4,
    "nummentions": 18,
    "numsources": 3,
    "numarticles": 18,
    "avgtone": "0.640396589876579",
    "sourceurl": "http://www.weirtondailytimes.com/page/content.detail/id/395369/Man-charged-in-attack-on-Ohio-pastor-after-service.html?isap=1&nav=5028&c=yZnL16REvFGJcBdDVVPCc7PW_OthddKTIRTPsSBIzcQ&mkt=en-us",
    "feature_id": "1064514",
    "feature_name": "Dayton",
    "state_alpha": "OH",
    "county_name": "Montgomery",
    "county_numeric": "113",
    "prim_lat_dec": "39.7589478",
    "prim_long_dec": "-84.1916069",
    "elev_in_m": "225",
    "elev_in_ft": "738",
    "lat": 39.7589478,
    "long": -84.1916069
  },
  {
    "globaleventid": 272558210,
    "sqldate": 20131022,
    "monthyear": 201310,
    "year": 2013,
    "fractiondate": "2013.8",
    "eventcode": 173,
    "quadclass": 4,
    "nummentions": 36,
    "numsources": 7,
    "numarticles": 36,
    "avgtone": "0.480709498937892",
    "sourceurl": "http://www.fox19.com/story/23753672/man-charged-in-attack-on-ohio-pastor-after-service",
    "feature_id": "1064514",
    "feature_name": "Dayton",
    "state_alpha": "OH",
    "county_name": "Montgomery",
    "county_numeric": "113",
    "prim_lat_dec": "39.7589478",
    "prim_long_dec": "-84.1916069",
    "elev_in_m": "225",
    "elev_in_ft": "738",
    "lat": 39.7589478,
    "long": -84.1916069
  },
  {
    "globaleventid": 272558208,
    "sqldate": 20131022,
    "monthyear": 201310,
    "year": 2013,
    "fractiondate": "2013.8",
    "eventcode": 173,
    "quadclass": 4,
    "nummentions": 4,
    "numsources": 1,
    "numarticles": 4,
    "avgtone": "0.662251655629139",
    "sourceurl": "http://abclocal.go.com/wtvd/story?section=news/local&id=9297590",
    "feature_id": "1019549",
    "feature_name": "Cartersville",
    "state_alpha": "NC",
    "county_name": "Duplin",
    "county_numeric": "061",
    "prim_lat_dec": "34.7732234",
    "prim_long_dec": "-77.9194269",
    "elev_in_m": "10",
    "elev_in_ft": "33",
    "lat": 34.7732234,
    "long": -77.9194269
  },
  {
    "globaleventid": 272558207,
    "sqldate": 20131022,
    "monthyear": 201310,
    "year": 2013,
    "fractiondate": "2013.8",
    "eventcode": 173,
    "quadclass": 4,
    "nummentions": 8,
    "numsources": 1,
    "numarticles": 8,
    "avgtone": "0.709219858156028",
    "sourceurl": "http://www.foxcarolina.com/story/23762071/woman-accused-in-nc-slaying-arrested-in-georgia",
    "feature_id": "1005554",
    "feature_name": "Carolina",
    "state_alpha": "NC",
    "county_name": "Gaston",
    "county_numeric": "071",
    "prim_lat_dec": "35.3884665",
    "prim_long_dec": "-81.3714737",
    "elev_in_m": "284",
    "elev_in_ft": "932",
    "lat": 35.3884665,
    "long": -81.3714737
  },
  {
    "globaleventid": 272558192,
    "sqldate": 20131022,
    "monthyear": 201310,
    "year": 2013,
    "fractiondate": "2013.8",
    "eventcode": 172,
    "quadclass": 4,
    "nummentions": 1,
    "numsources": 1,
    "numarticles": 1,
    "avgtone": "2.28013029315961",
    "sourceurl": "http://www.sunherald.com/2013/10/22/5050891/man-gets-prison-fine-for-mail.html",
    "feature_id": "1019610",
    "feature_name": "Charlotte",
    "state_alpha": "NC",
    "county_name": "Mecklenburg",
    "county_numeric": "119",
    "prim_lat_dec": "35.2270869",
    "prim_long_dec": "-80.8431268",
    "elev_in_m": "232",
    "elev_in_ft": "761",
    "lat": 35.2270869,
    "long": -80.8431268
  },
  {
    "globaleventid": 272558191,
    "sqldate": 20131022,
    "monthyear": 201310,
    "year": 2013,
    "fractiondate": "2013.8",
    "eventcode": 172,
    "quadclass": 4,
    "nummentions": 1,
    "numsources": 1,
    "numarticles": 1,
    "avgtone": "2.28013029315961",
    "sourceurl": "http://www.sunherald.com/2013/10/22/5050891/man-gets-prison-fine-for-mail.html",
    "feature_id": "1019610",
    "feature_name": "Charlotte",
    "state_alpha": "NC",
    "county_name": "Mecklenburg",
    "county_numeric": "119",
    "prim_lat_dec": "35.2270869",
    "prim_long_dec": "-80.8431268",
    "elev_in_m": "232",
    "elev_in_ft": "761",
    "lat": 35.2270869,
    "long": -80.8431268
  },
  {
    "globaleventid": 272558190,
    "sqldate": 20131022,
    "monthyear": 201310,
    "year": 2013,
    "fractiondate": "2013.8",
    "eventcode": 1712,
    "quadclass": 4,
    "nummentions": 4,
    "numsources": 1,
    "numarticles": 4,
    "avgtone": "1.07334525939177",
    "sourceurl": "http://www.frontiersman.com/for_the_record/police-beat-oct/article_242e6d90-3acc-11e3-b51f-0019bb2963f4.html",
    "feature_id": "1410591",
    "feature_name": "Talkeetna",
    "state_alpha": "AK",
    "county_name": "Matanuska-Susitna",
    "county_numeric": "170",
    "prim_lat_dec": "62.3238889",
    "prim_long_dec": "-150.1094444",
    "elev_in_m": "104",
    "elev_in_ft": "341",
    "lat": 62.3238889,
    "long": -150.1094444
  },
  {
    "globaleventid": 272558189,
    "sqldate": 20131022,
    "monthyear": 201310,
    "year": 2013,
    "fractiondate": "2013.8",
    "eventcode": 1711,
    "quadclass": 4,
    "nummentions": 4,
    "numsources": 1,
    "numarticles": 4,
    "avgtone": "0.0",
    "sourceurl": "http://www.upi.com/Top_News/US/2013/10/21/Three-teens-in-custody-after-stolen-bullets-found-in-their-vehicle/UPI-50721382385998/?spt=rln&or=1",
    "feature_id": "531871",
    "feature_name": "Washington",
    "state_alpha": "DC",
    "county_name": "District of Columbia",
    "county_numeric": "001",
    "prim_lat_dec": "38.8951118",
    "prim_long_dec": "-77.0363658",
    "elev_in_m": "7",
    "elev_in_ft": "23",
    "lat": 38.8951118,
    "long": -77.0363658
  },
  {
    "globaleventid": 272558185,
    "sqldate": 20131022,
    "monthyear": 201310,
    "year": 2013,
    "fractiondate": "2013.8",
    "eventcode": 171,
    "quadclass": 4,
    "nummentions": 1,
    "numsources": 1,
    "numarticles": 1,
    "avgtone": "0.0",
    "sourceurl": "http://www.metrowestdailynews.com/news/x1155596376/Northborough-police-Drunken-teen-crashed-stolen-car-then-broke-into-others",
    "feature_id": "611641",
    "feature_name": "Framingham",
    "state_alpha": "MA",
    "county_name": "Middlesex",
    "county_numeric": "017",
    "prim_lat_dec": "42.2792625",
    "prim_long_dec": "-71.416172",
    "elev_in_m": "50",
    "elev_in_ft": "164",
    "lat": 42.2792625,
    "long": -71.416172
  },
  {
    "globaleventid": 272558184,
    "sqldate": 20131022,
    "monthyear": 201310,
    "year": 2013,
    "fractiondate": "2013.8",
    "eventcode": 171,
    "quadclass": 4,
    "nummentions": 4,
    "numsources": 1,
    "numarticles": 4,
    "avgtone": "1.8348623853211",
    "sourceurl": "http://www.wboc.com/story/23753733/del-man-charged-with-stealing-guns",
    "feature_id": "214213",
    "feature_name": "Leipsic",
    "state_alpha": "DE",
    "county_name": "Kent",
    "county_numeric": "001",
    "prim_lat_dec": "39.2409454",
    "prim_long_dec": "-75.5168683",
    "elev_in_m": "2",
    "elev_in_ft": "7",
    "lat": 39.2409454,
    "long": -75.5168683
  },
  {
    "globaleventid": 272558182,
    "sqldate": 20131022,
    "monthyear": 201310,
    "year": 2013,
    "fractiondate": "2013.8",
    "eventcode": 170,
    "quadclass": 4,
    "nummentions": 18,
    "numsources": 2,
    "numarticles": 12,
    "avgtone": "0.546448087431693",
    "sourceurl": "http://www.westport-news.com/news/article/100-citations-issued-in-construction-zone-4916976.php",
    "feature_id": "214385",
    "feature_name": "Newark",
    "state_alpha": "DE",
    "county_name": "New Castle",
    "county_numeric": "003",
    "prim_lat_dec": "39.6837226",
    "prim_long_dec": "-75.7496572",
    "elev_in_m": "39",
    "elev_in_ft": "128",
    "lat": 39.6837226,
    "long": -75.7496572
  },
  {
    "globaleventid": 272558181,
    "sqldate": 20131022,
    "monthyear": 201310,
    "year": 2013,
    "fractiondate": "2013.8",
    "eventcode": 170,
    "quadclass": 4,
    "nummentions": 1,
    "numsources": 1,
    "numarticles": 1,
    "avgtone": "4.53857791225416",
    "sourceurl": "http://www.wickedlocal.com/rockland/news/x638683314/Rockland-police-announce-crackdown-on-seatbelt-violations",
    "feature_id": "613412",
    "feature_name": "Rockland",
    "state_alpha": "MA",
    "county_name": "Plymouth",
    "county_numeric": "023",
    "prim_lat_dec": "42.1306563",
    "prim_long_dec": "-70.9161551",
    "elev_in_m": "49",
    "elev_in_ft": "161",
    "lat": 42.1306563,
    "long": -70.9161551
  },
  {
    "globaleventid": 272558180,
    "sqldate": 20131022,
    "monthyear": 201310,
    "year": 2013,
    "fractiondate": "2013.8",
    "eventcode": 150,
    "quadclass": 4,
    "nummentions": 6,
    "numsources": 1,
    "numarticles": 6,
    "avgtone": "0.687285223367698",
    "sourceurl": "http://www.1011now.com/home/headlines/Rollover-Crash-at-Platte-River-Bridge--Driver-Seriously-Injured--228721431.html",
    "feature_id": "827094",
    "feature_name": "Ashland",
    "state_alpha": "NE",
    "county_name": "Saunders",
    "county_numeric": "155",
    "prim_lat_dec": "41.039165",
    "prim_long_dec": "-96.368346",
    "elev_in_m": "332",
    "elev_in_ft": "1089",
    "lat": 41.039165,
    "long": -96.368346
  },
  {
    "globaleventid": 272558173,
    "sqldate": 20131022,
    "monthyear": 201310,
    "year": 2013,
    "fractiondate": "2013.8",
    "eventcode": 130,
    "quadclass": 3,
    "nummentions": 16,
    "numsources": 2,
    "numarticles": 16,
    "avgtone": "0.315956554725871",
    "sourceurl": "http://www.middletownjournal.com/news/news/middletown-woman-sent-to-prison-for-child-endanger/nbWDJ/",
    "feature_id": "989808",
    "feature_name": "Middletown",
    "state_alpha": "NC",
    "county_name": "Hyde",
    "county_numeric": "095",
    "prim_lat_dec": "35.4782271",
    "prim_long_dec": "-76.0121294",
    "elev_in_m": "0",
    "elev_in_ft": "0",
    "lat": 35.4782271,
    "long": -76.0121294
  },
  {
    "globaleventid": 272558172,
    "sqldate": 20131022,
    "monthyear": 201310,
    "year": 2013,
    "fractiondate": "2013.8",
    "eventcode": 130,
    "quadclass": 3,
    "nummentions": 4,
    "numsources": 1,
    "numarticles": 2,
    "avgtone": "0.205338809034908",
    "sourceurl": "http://www.tauntongazette.com/topstories/x1745248675/Taunton-police-arrest-two-after-White-Street-incident",
    "feature_id": "612955",
    "feature_name": "Mattapan",
    "state_alpha": "MA",
    "county_name": "Suffolk",
    "county_numeric": "025",
    "prim_lat_dec": "42.2723208",
    "prim_long_dec": "-71.0869953",
    "elev_in_m": "18",
    "elev_in_ft": "59",
    "lat": 42.2723208,
    "long": -71.0869953
  },
  {
    "globaleventid": 272558169,
    "sqldate": 20131022,
    "monthyear": 201310,
    "year": 2013,
    "fractiondate": "2013.8",
    "eventcode": 130,
    "quadclass": 3,
    "nummentions": 5,
    "numsources": 1,
    "numarticles": 5,
    "avgtone": "0.480769230769231",
    "sourceurl": "http://www.mcall.com/news/breaking/mc-c-towamencin-twp-home-invasion-key-20131022,0,4197742.story",
    "feature_id": "1209052",
    "feature_name": "Philadelphia",
    "state_alpha": "PA",
    "county_name": "Philadelphia",
    "county_numeric": "101",
    "prim_lat_dec": "39.952335",
    "prim_long_dec": "-75.163789",
    "elev_in_m": "14",
    "elev_in_ft": "46",
    "lat": 39.952335,
    "long": -75.163789
  },
  {
    "globaleventid": 272558168,
    "sqldate": 20131022,
    "monthyear": 201310,
    "year": 2013,
    "fractiondate": "2013.8",
    "eventcode": 130,
    "quadclass": 3,
    "nummentions": 2,
    "numsources": 1,
    "numarticles": 2,
    "avgtone": "0.0",
    "sourceurl": "http://www.timesleaderonline.com/page/content.detail/id/395065/Police--Man-made-2-Ohio-school-threats-in-dispute.html?isap=1&nav=5019",
    "feature_id": "1066654",
    "feature_name": "Cleveland",
    "state_alpha": "OH",
    "county_name": "Cuyahoga",
    "county_numeric": "035",
    "prim_lat_dec": "41.4994954",
    "prim_long_dec": "-81.6954088",
    "elev_in_m": "199",
    "elev_in_ft": "653",
    "lat": 41.4994954,
    "long": -81.6954088
  },
  {
    "globaleventid": 272558167,
    "sqldate": 20131022,
    "monthyear": 201310,
    "year": 2013,
    "fractiondate": "2013.8",
    "eventcode": 124,
    "quadclass": 3,
    "nummentions": 20,
    "numsources": 2,
    "numarticles": 20,
    "avgtone": "1.17822107648921",
    "sourceurl": "http://tucsoncitizen.com/usa-today-news/2013/10/22/violent-sex-predator-held-in-assault-of-boy-in-seattle/",
    "feature_id": "1512650",
    "feature_name": "Seattle",
    "state_alpha": "WA",
    "county_name": "King",
    "county_numeric": "033",
    "prim_lat_dec": "47.6062095",
    "prim_long_dec": "-122.3320708",
    "elev_in_m": "54",
    "elev_in_ft": "177",
    "lat": 47.6062095,
    "long": -122.3320708
  },
  {
    "globaleventid": 272558161,
    "sqldate": 20131022,
    "monthyear": 201310,
    "year": 2013,
    "fractiondate": "2013.8",
    "eventcode": 1123,
    "quadclass": 3,
    "nummentions": 1,
    "numsources": 1,
    "numarticles": 1,
    "avgtone": "3.17460317460317",
    "sourceurl": "http://www.lex18.com/news/danville-business-set-to-reopen-following-triple-murder",
    "feature_id": "490584",
    "feature_name": "Danville",
    "state_alpha": "KY",
    "county_name": "Boyle",
    "county_numeric": "021",
    "prim_lat_dec": "37.6456329",
    "prim_long_dec": "-84.7721702",
    "elev_in_m": "300",
    "elev_in_ft": "984",
    "lat": 37.6456329,
    "long": -84.7721702
  },
  {
    "globaleventid": 272558160,
    "sqldate": 20131022,
    "monthyear": 201310,
    "year": 2013,
    "fractiondate": "2013.8",
    "eventcode": 1123,
    "quadclass": 3,
    "nummentions": 10,
    "numsources": 1,
    "numarticles": 10,
    "avgtone": "0.512820512820513",
    "sourceurl": "http://metronews.ca/news/world/829663/police-2-dead-after-mich-senior-centre-shooting/",
    "feature_id": "1617959",
    "feature_name": "Detroit",
    "state_alpha": "MI",
    "county_name": "Wayne",
    "county_numeric": "163",
    "prim_lat_dec": "42.331427",
    "prim_long_dec": "-83.0457538",
    "elev_in_m": "182",
    "elev_in_ft": "597",
    "lat": 42.331427,
    "long": -83.0457538
  },
  {
    "globaleventid": 272558149,
    "sqldate": 20131022,
    "monthyear": 201310,
    "year": 2013,
    "fractiondate": "2013.8",
    "eventcode": 112,
    "quadclass": 3,
    "nummentions": 2,
    "numsources": 1,
    "numarticles": 2,
    "avgtone": "0.0",
    "sourceurl": "http://www.coloradoan.com/viewart/20131022/NEWS11/310220049/Gun-buyer-prison-chief-slaying-pleads-guilty",
    "feature_id": "201738",
    "feature_name": "Denver",
    "state_alpha": "CO",
    "county_name": "Denver",
    "county_numeric": "031",
    "prim_lat_dec": "39.7391536",
    "prim_long_dec": "-104.9847034",
    "elev_in_m": "1609",
    "elev_in_ft": "5279",
    "lat": 39.7391536,
    "long": -104.9847034
  },
  {
    "globaleventid": 272558147,
    "sqldate": 20131022,
    "monthyear": 201310,
    "year": 2013,
    "fractiondate": "2013.8",
    "eventcode": 112,
    "quadclass": 3,
    "nummentions": 6,
    "numsources": 1,
    "numarticles": 6,
    "avgtone": "0.0",
    "sourceurl": "http://www.coloradoan.com/viewart/20131022/NEWS11/310220049/Gun-buyer-prison-chief-slaying-pleads-guilty",
    "feature_id": "201738",
    "feature_name": "Denver",
    "state_alpha": "CO",
    "county_name": "Denver",
    "county_numeric": "031",
    "prim_lat_dec": "39.7391536",
    "prim_long_dec": "-104.9847034",
    "elev_in_m": "1609",
    "elev_in_ft": "5279",
    "lat": 39.7391536,
    "long": -104.9847034
  },
  {
    "globaleventid": 272558145,
    "sqldate": 20131022,
    "monthyear": 201310,
    "year": 2013,
    "fractiondate": "2013.8",
    "eventcode": 112,
    "quadclass": 3,
    "nummentions": 4,
    "numsources": 1,
    "numarticles": 4,
    "avgtone": "0.679347826086957",
    "sourceurl": "http://westhampton-hamptonbays.patch.com/groups/police-and-fire/p/man-arrested-on-dwi-charge-after-nearly-colliding-with-eyewitness",
    "feature_id": "962568",
    "feature_name": "Riverside",
    "state_alpha": "NY",
    "county_name": "Broome",
    "county_numeric": "007",
    "prim_lat_dec": "42.0067443",
    "prim_long_dec": "-75.7643542",
    "elev_in_m": "267",
    "elev_in_ft": "876",
    "lat": 42.0067443,
    "long": -75.7643542
  },
  {
    "globaleventid": 272558143,
    "sqldate": 20131022,
    "monthyear": 201310,
    "year": 2013,
    "fractiondate": "2013.8",
    "eventcode": 112,
    "quadclass": 3,
    "nummentions": 2,
    "numsources": 1,
    "numarticles": 2,
    "avgtone": "0.679347826086957",
    "sourceurl": "http://westhampton-hamptonbays.patch.com/groups/police-and-fire/p/man-arrested-on-dwi-charge-after-nearly-colliding-with-eyewitness",
    "feature_id": "952135",
    "feature_name": "Hampton Bays",
    "state_alpha": "NY",
    "county_name": "Suffolk",
    "county_numeric": "103",
    "prim_lat_dec": "40.8689892",
    "prim_long_dec": "-72.5175893",
    "elev_in_m": "10",
    "elev_in_ft": "33",
    "lat": 40.8689892,
    "long": -72.5175893
  },
  {
    "globaleventid": 272558142,
    "sqldate": 20131022,
    "monthyear": 201310,
    "year": 2013,
    "fractiondate": "2013.8",
    "eventcode": 112,
    "quadclass": 3,
    "nummentions": 1,
    "numsources": 1,
    "numarticles": 1,
    "avgtone": "0.561797752808989",
    "sourceurl": "http://www.stlouisstar.com/index.php/sid/217902395/scat/cf4abed8fe2be564",
    "feature_id": "756495",
    "feature_name": "Pagedale",
    "state_alpha": "MO",
    "county_name": "St. Louis",
    "county_numeric": "189",
    "prim_lat_dec": "38.6833847",
    "prim_long_dec": "-90.3076143",
    "elev_in_m": "173",
    "elev_in_ft": "568",
    "lat": 38.6833847,
    "long": -90.3076143
  },
  {
    "globaleventid": 272558141,
    "sqldate": 20131022,
    "monthyear": 201310,
    "year": 2013,
    "fractiondate": "2013.8",
    "eventcode": 112,
    "quadclass": 3,
    "nummentions": 10,
    "numsources": 2,
    "numarticles": 10,
    "avgtone": "0.112359550561798",
    "sourceurl": "http://www.stlouisstar.com/index.php/sid/217902395/scat/cf4abed8fe2be564",
    "feature_id": "756495",
    "feature_name": "Pagedale",
    "state_alpha": "MO",
    "county_name": "St. Louis",
    "county_numeric": "189",
    "prim_lat_dec": "38.6833847",
    "prim_long_dec": "-90.3076143",
    "elev_in_m": "173",
    "elev_in_ft": "568",
    "lat": 38.6833847,
    "long": -90.3076143
  },
  {
    "globaleventid": 272558139,
    "sqldate": 20131022,
    "monthyear": 201310,
    "year": 2013,
    "fractiondate": "2013.8",
    "eventcode": 112,
    "quadclass": 3,
    "nummentions": 1,
    "numsources": 1,
    "numarticles": 1,
    "avgtone": "3.06748466257669",
    "sourceurl": "http://bangordailynews.com/2013/10/22/news/bangor/old-town-woman-accused-of-skipping-out-on-22-67-bar-tab-driving-drunk-assaulting-police/?ref=latest",
    "feature_id": "572733",
    "feature_name": "Old Town",
    "state_alpha": "ME",
    "county_name": "Penobscot",
    "county_numeric": "019",
    "prim_lat_dec": "44.9342349",
    "prim_long_dec": "-68.6453092",
    "elev_in_m": "32",
    "elev_in_ft": "105",
    "lat": 44.9342349,
    "long": -68.6453092
  },
  {
    "globaleventid": 272558138,
    "sqldate": 20131022,
    "monthyear": 201310,
    "year": 2013,
    "fractiondate": "2013.8",
    "eventcode": 112,
    "quadclass": 3,
    "nummentions": 1,
    "numsources": 1,
    "numarticles": 1,
    "avgtone": "3.06748466257669",
    "sourceurl": "http://bangordailynews.com/2013/10/22/news/bangor/old-town-woman-accused-of-skipping-out-on-22-67-bar-tab-driving-drunk-assaulting-police/?ref=latest",
    "feature_id": "572733",
    "feature_name": "Old Town",
    "state_alpha": "ME",
    "county_name": "Penobscot",
    "county_numeric": "019",
    "prim_lat_dec": "44.9342349",
    "prim_long_dec": "-68.6453092",
    "elev_in_m": "32",
    "elev_in_ft": "105",
    "lat": 44.9342349,
    "long": -68.6453092
  },
  {
    "globaleventid": 272558137,
    "sqldate": 20131022,
    "monthyear": 201310,
    "year": 2013,
    "fractiondate": "2013.8",
    "eventcode": 112,
    "quadclass": 3,
    "nummentions": 12,
    "numsources": 2,
    "numarticles": 12,
    "avgtone": "1.27055306427504",
    "sourceurl": "http://www.upi.com/Odd_News/2013/10/22/Police-Woman-stabbed-boyfriend-because-dog-ate-marijuana/UPI-70981382473644/?spt=rln&or=2",
    "feature_id": "281279",
    "feature_name": "Dania Beach",
    "state_alpha": "FL",
    "county_name": "Broward",
    "county_numeric": "011",
    "prim_lat_dec": "26.052311",
    "prim_long_dec": "-80.1439343",
    "elev_in_m": "3",
    "elev_in_ft": "10",
    "lat": 26.052311,
    "long": -80.1439343
  },
  {
    "globaleventid": 272558135,
    "sqldate": 20131022,
    "monthyear": 201310,
    "year": 2013,
    "fractiondate": "2013.8",
    "eventcode": 112,
    "quadclass": 3,
    "nummentions": 4,
    "numsources": 1,
    "numarticles": 4,
    "avgtone": "1.30293159609121",
    "sourceurl": "http://www.your4state.com/story/seven-people-convicted-and-one-sentenced-in-federal-court/d/story/Qt7sdYB2iEOAD3FX_SuOhw",
    "feature_id": "1542824",
    "feature_name": "Martinsburg",
    "state_alpha": "WV",
    "county_name": "Berkeley",
    "county_numeric": "003",
    "prim_lat_dec": "39.4562099",
    "prim_long_dec": "-77.9638869",
    "elev_in_m": "138",
    "elev_in_ft": "453",
    "lat": 39.4562099,
    "long": -77.9638869
  },
  {
    "globaleventid": 272558133,
    "sqldate": 20131022,
    "monthyear": 201310,
    "year": 2013,
    "fractiondate": "2013.8",
    "eventcode": 112,
    "quadclass": 3,
    "nummentions": 4,
    "numsources": 1,
    "numarticles": 4,
    "avgtone": "2.29885057471264",
    "sourceurl": "http://www.katu.com/news/investigators/Once-isnt-enough-to-clean-up-Southeast-Portland-nuisance-home-228860081.html",
    "feature_id": "1128399",
    "feature_name": "Umatilla",
    "state_alpha": "OR",
    "county_name": "Umatilla",
    "county_numeric": "059",
    "prim_lat_dec": "45.9173549",
    "prim_long_dec": "-119.3425179",
    "elev_in_m": "98",
    "elev_in_ft": "322",
    "lat": 45.9173549,
    "long": -119.3425179
  },
  {
    "globaleventid": 272558130,
    "sqldate": 20131022,
    "monthyear": 201310,
    "year": 2013,
    "fractiondate": "2013.8",
    "eventcode": 111,
    "quadclass": 3,
    "nummentions": 1,
    "numsources": 1,
    "numarticles": 1,
    "avgtone": "4.83870967741935",
    "sourceurl": "http://www.oklahomastar.com/index.php/sid/217904923/scat/84aeba5e9b6e1230",
    "feature_id": "1100962",
    "feature_name": "Tulsa",
    "state_alpha": "OK",
    "county_name": "Tulsa",
    "county_numeric": "143",
    "prim_lat_dec": "36.1539816",
    "prim_long_dec": "-95.992775",
    "elev_in_m": "220",
    "elev_in_ft": "722",
    "lat": 36.1539816,
    "long": -95.992775
  },
  {
    "globaleventid": 272558122,
    "sqldate": 20131022,
    "monthyear": 201310,
    "year": 2013,
    "fractiondate": "2013.8",
    "eventcode": 100,
    "quadclass": 3,
    "nummentions": 2,
    "numsources": 1,
    "numarticles": 2,
    "avgtone": "1.09170305676856",
    "sourceurl": "http://www.heraldonline.com/2013/10/22/5328356/deputies-suspect-who-shot-man.html",
    "feature_id": "1005554",
    "feature_name": "Carolina",
    "state_alpha": "NC",
    "county_name": "Gaston",
    "county_numeric": "071",
    "prim_lat_dec": "35.3884665",
    "prim_long_dec": "-81.3714737",
    "elev_in_m": "284",
    "elev_in_ft": "932",
    "lat": 35.3884665,
    "long": -81.3714737
  },
  {
    "globaleventid": 272557692,
    "sqldate": 20131022,
    "monthyear": 201310,
    "year": 2013,
    "fractiondate": "2013.8",
    "eventcode": 173,
    "quadclass": 4,
    "nummentions": 2,
    "numsources": 1,
    "numarticles": 2,
    "avgtone": "1.40065913370998",
    "sourceurl": "http://gaithersburg.patch.com/groups/police-and-fire/p/brothers-charged-with-attempted-murder-in-gaithersburg-shooting",
    "feature_id": "1712605",
    "feature_name": "Flower Hill",
    "state_alpha": "MD",
    "county_name": "Montgomery",
    "county_numeric": "031",
    "prim_lat_dec": "39.1589959",
    "prim_long_dec": "-77.1722033",
    "elev_in_m": "152",
    "elev_in_ft": "499",
    "lat": 39.1589959,
    "long": -77.1722033
  },
  {
    "globaleventid": 272557404,
    "sqldate": 20131022,
    "monthyear": 201310,
    "year": 2013,
    "fractiondate": "2013.8",
    "eventcode": 173,
    "quadclass": 4,
    "nummentions": 5,
    "numsources": 1,
    "numarticles": 5,
    "avgtone": "1.03092783505155",
    "sourceurl": "http://www.montanakaimin.com/news/article_ecfc54e2-3ae2-11e3-b5af-001a4bcf6878.html",
    "feature_id": "793219",
    "feature_name": "Whitefish",
    "state_alpha": "MT",
    "county_name": "Flathead",
    "county_numeric": "029",
    "prim_lat_dec": "48.4110757",
    "prim_long_dec": "-114.3376334",
    "elev_in_m": "923",
    "elev_in_ft": "3028",
    "lat": 48.4110757,
    "long": -114.3376334
  },
  {
    "globaleventid": 272557402,
    "sqldate": 20131022,
    "monthyear": 201310,
    "year": 2013,
    "fractiondate": "2013.8",
    "eventcode": 173,
    "quadclass": 4,
    "nummentions": 12,
    "numsources": 1,
    "numarticles": 12,
    "avgtone": "0.813953488372093",
    "sourceurl": "http://www.telegram.com/article/20131017/APA/310179835/-1/NEWS07",
    "feature_id": "288240",
    "feature_name": "Orlando",
    "state_alpha": "FL",
    "county_name": "Orange",
    "county_numeric": "095",
    "prim_lat_dec": "28.5383355",
    "prim_long_dec": "-81.3792365",
    "elev_in_m": "31",
    "elev_in_ft": "102",
    "lat": 28.5383355,
    "long": -81.3792365
  },
  {
    "globaleventid": 272557356,
    "sqldate": 20131022,
    "monthyear": 201310,
    "year": 2013,
    "fractiondate": "2013.8",
    "eventcode": 180,
    "quadclass": 4,
    "nummentions": 8,
    "numsources": 1,
    "numarticles": 8,
    "avgtone": "0.0",
    "sourceurl": "http://www.edmontonjournal.com/news/Police+Michael+Stanley+suspect+assault+year+male/9067727/story.html",
    "feature_id": "531871",
    "feature_name": "Washington",
    "state_alpha": "DC",
    "county_name": "District of Columbia",
    "county_numeric": "001",
    "prim_lat_dec": "38.8951118",
    "prim_long_dec": "-77.0363658",
    "elev_in_m": "7",
    "elev_in_ft": "23",
    "lat": 38.8951118,
    "long": -77.0363658
  },
  {
    "globaleventid": 272557353,
    "sqldate": 20131022,
    "monthyear": 201310,
    "year": 2013,
    "fractiondate": "2013.8",
    "eventcode": 114,
    "quadclass": 3,
    "nummentions": 10,
    "numsources": 1,
    "numarticles": 10,
    "avgtone": "0.651465798045603",
    "sourceurl": "http://brainerddispatch.com/news/crime/2013-10-22/police-blotter-oct-23",
    "feature_id": "649276",
    "feature_name": "Pequot Lakes",
    "state_alpha": "MN",
    "county_name": "Crow Wing",
    "county_numeric": "035",
    "prim_lat_dec": "46.6030198",
    "prim_long_dec": "-94.3094399",
    "elev_in_m": "391",
    "elev_in_ft": "1283",
    "lat": 46.6030198,
    "long": -94.3094399
  },
  {
    "globaleventid": 272557308,
    "sqldate": 20131022,
    "monthyear": 201310,
    "year": 2013,
    "fractiondate": "2013.8",
    "eventcode": 111,
    "quadclass": 3,
    "nummentions": 2,
    "numsources": 1,
    "numarticles": 2,
    "avgtone": "1.77514792899408",
    "sourceurl": "http://www.rep-am.com/articles/2013/10/22/news/offbeat/759032.txt",
    "feature_id": "1180169",
    "feature_name": "Macungie",
    "state_alpha": "PA",
    "county_name": "Lehigh",
    "county_numeric": "077",
    "prim_lat_dec": "40.5159304",
    "prim_long_dec": "-75.5551858",
    "elev_in_m": "118",
    "elev_in_ft": "387",
    "lat": 40.5159304,
    "long": -75.5551858
  },
  {
    "globaleventid": 272557253,
    "sqldate": 20131022,
    "monthyear": 201310,
    "year": 2013,
    "fractiondate": "2013.8",
    "eventcode": 173,
    "quadclass": 4,
    "nummentions": 6,
    "numsources": 1,
    "numarticles": 6,
    "avgtone": "1.79602309172547",
    "sourceurl": "http://www.tri-parishtimes.com/news/terrebonne/article_7ec34242-3b4b-11e3-82de-0019bb2963f4.html",
    "feature_id": "1629965",
    "feature_name": "Lafayette",
    "state_alpha": "LA",
    "county_name": "Lafayette",
    "county_numeric": "055",
    "prim_lat_dec": "30.2240897",
    "prim_long_dec": "-92.0198427",
    "elev_in_m": "11",
    "elev_in_ft": "36",
    "lat": 30.2240897,
    "long": -92.0198427
  },
  {
    "globaleventid": 272557252,
    "sqldate": 20131022,
    "monthyear": 201310,
    "year": 2013,
    "fractiondate": "2013.8",
    "eventcode": 173,
    "quadclass": 4,
    "nummentions": 2,
    "numsources": 1,
    "numarticles": 2,
    "avgtone": "1.79602309172547",
    "sourceurl": "http://www.tri-parishtimes.com/news/terrebonne/article_7ec34242-3b4b-11e3-82de-0019bb2963f4.html",
    "feature_id": "1629958",
    "feature_name": "Houma",
    "state_alpha": "LA",
    "county_name": "Terrebonne",
    "county_numeric": "109",
    "prim_lat_dec": "29.5957696",
    "prim_long_dec": "-90.7195348",
    "elev_in_m": "3",
    "elev_in_ft": "10",
    "lat": 29.5957696,
    "long": -90.7195348
  },
  {
    "globaleventid": 272557251,
    "sqldate": 20131022,
    "monthyear": 201310,
    "year": 2013,
    "fractiondate": "2013.8",
    "eventcode": 173,
    "quadclass": 4,
    "nummentions": 2,
    "numsources": 1,
    "numarticles": 2,
    "avgtone": "1.79602309172547",
    "sourceurl": "http://www.tri-parishtimes.com/news/terrebonne/article_7ec34242-3b4b-11e3-82de-0019bb2963f4.html",
    "feature_id": "1629958",
    "feature_name": "Houma",
    "state_alpha": "LA",
    "county_name": "Terrebonne",
    "county_numeric": "109",
    "prim_lat_dec": "29.5957696",
    "prim_long_dec": "-90.7195348",
    "elev_in_m": "3",
    "elev_in_ft": "10",
    "lat": 29.5957696,
    "long": -90.7195348
  },
  {
    "globaleventid": 272557250,
    "sqldate": 20131022,
    "monthyear": 201310,
    "year": 2013,
    "fractiondate": "2013.8",
    "eventcode": 173,
    "quadclass": 4,
    "nummentions": 10,
    "numsources": 1,
    "numarticles": 10,
    "avgtone": "0.593471810089021",
    "sourceurl": "http://www.news-herald.com/general-news/20131022/cleveland-man-sentenced-to-prison-for-painesville-home-invasion",
    "feature_id": "1563179",
    "feature_name": "Cleveland",
    "state_alpha": "WI",
    "county_name": "Manitowoc",
    "county_numeric": "071",
    "prim_lat_dec": "43.9149942",
    "prim_long_dec": "-87.7473085",
    "elev_in_m": "195",
    "elev_in_ft": "640",
    "lat": 43.9149942,
    "long": -87.7473085
  },
  {
    "globaleventid": 272557248,
    "sqldate": 20131022,
    "monthyear": 201310,
    "year": 2013,
    "fractiondate": "2013.8",
    "eventcode": 173,
    "quadclass": 4,
    "nummentions": 2,
    "numsources": 1,
    "numarticles": 2,
    "avgtone": "0.668896321070234",
    "sourceurl": "http://tribune-democrat.com/local/x2112902471/Court-Businessman-plotted-to-get-rid-of-gay-employee",
    "feature_id": "1188816",
    "feature_name": "Stonycreek",
    "state_alpha": "PA",
    "county_name": "Cambria",
    "county_numeric": "021",
    "prim_lat_dec": "40.3039636",
    "prim_long_dec": "-78.8908576",
    "elev_in_m": "459",
    "elev_in_ft": "1506",
    "lat": 40.3039636,
    "long": -78.8908576
  },
  {
    "globaleventid": 272557243,
    "sqldate": 20131022,
    "monthyear": 201310,
    "year": 2013,
    "fractiondate": "2013.8",
    "eventcode": 120,
    "quadclass": 3,
    "nummentions": 1,
    "numsources": 1,
    "numarticles": 1,
    "avgtone": "1.80505415162455",
    "sourceurl": "http://www.gpb.org/news/2013/10/21/court-clarifies-police-stop-rules",
    "feature_id": "332301",
    "feature_name": "Macon",
    "state_alpha": "GA",
    "county_name": "Bibb",
    "county_numeric": "021",
    "prim_lat_dec": "32.8406946",
    "prim_long_dec": "-83.6324022",
    "elev_in_m": "113",
    "elev_in_ft": "371",
    "lat": 32.8406946,
    "long": -83.6324022
  },
  {
    "globaleventid": 272557184,
    "sqldate": 20131022,
    "monthyear": 201310,
    "year": 2013,
    "fractiondate": "2013.8",
    "eventcode": 173,
    "quadclass": 4,
    "nummentions": 1,
    "numsources": 1,
    "numarticles": 1,
    "avgtone": "0.672645739910314",
    "sourceurl": "http://www.daily-tribune.com/view/full_story/23887039/article-Bartow-Blotter-10-20?instance=most_popular",
    "feature_id": "355017",
    "feature_name": "Cartersville",
    "state_alpha": "GA",
    "county_name": "Bartow",
    "county_numeric": "015",
    "prim_lat_dec": "34.1650972",
    "prim_long_dec": "-84.7999383",
    "elev_in_m": "234",
    "elev_in_ft": "768",
    "lat": 34.1650972,
    "long": -84.7999383
  },
  {
    "globaleventid": 272557157,
    "sqldate": 20131022,
    "monthyear": 201310,
    "year": 2013,
    "fractiondate": "2013.8",
    "eventcode": 190,
    "quadclass": 4,
    "nummentions": 2,
    "numsources": 1,
    "numarticles": 2,
    "avgtone": "0.555555555555556",
    "sourceurl": "http://www.theepochtimes.com/n3/325953-lisa-irwin-missing-kansas-city-girl-found-in-greece-fbi-skeptical/",
    "feature_id": "748198",
    "feature_name": "Kansas City",
    "state_alpha": "MO",
    "county_name": "Jackson",
    "county_numeric": "095",
    "prim_lat_dec": "39.0997266",
    "prim_long_dec": "-94.5785667",
    "elev_in_m": "274",
    "elev_in_ft": "899",
    "lat": 39.0997266,
    "long": -94.5785667
  },
  {
    "globaleventid": 272557112,
    "sqldate": 20131022,
    "monthyear": 201310,
    "year": 2013,
    "fractiondate": "2013.8",
    "eventcode": 173,
    "quadclass": 4,
    "nummentions": 6,
    "numsources": 1,
    "numarticles": 6,
    "avgtone": "1.42348754448399",
    "sourceurl": "http://investigations.nbcnews.com/_news/2013/10/22/21081443-chicago-woman-hid-terrorist-past-on-citizenship-application-say-feds?lite",
    "feature_id": "407150",
    "feature_name": "Detroit",
    "state_alpha": "IL",
    "county_name": "Pike",
    "county_numeric": "149",
    "prim_lat_dec": "39.6206031",
    "prim_long_dec": "-90.6767936",
    "elev_in_m": "195",
    "elev_in_ft": "640",
    "lat": 39.6206031,
    "long": -90.6767936
  },
  {
    "globaleventid": 272556987,
    "sqldate": 20131022,
    "monthyear": 201310,
    "year": 2013,
    "fractiondate": "2013.8",
    "eventcode": 110,
    "quadclass": 3,
    "nummentions": 8,
    "numsources": 1,
    "numarticles": 8,
    "avgtone": "1.64705882352941",
    "sourceurl": "http://www.theverge.com/2013/10/22/4865672/human-rights-advocates-say-us-drone-strikes-could-violate-laws-of-war",
    "feature_id": "531871",
    "feature_name": "Washington",
    "state_alpha": "DC",
    "county_name": "District of Columbia",
    "county_numeric": "001",
    "prim_lat_dec": "38.8951118",
    "prim_long_dec": "-77.0363658",
    "elev_in_m": "7",
    "elev_in_ft": "23",
    "lat": 38.8951118,
    "long": -77.0363658
  },
  {
    "globaleventid": 272556947,
    "sqldate": 20131022,
    "monthyear": 201310,
    "year": 2013,
    "fractiondate": "2013.8",
    "eventcode": 173,
    "quadclass": 4,
    "nummentions": 2,
    "numsources": 1,
    "numarticles": 2,
    "avgtone": "1.82370820668693",
    "sourceurl": "http://www.buffalonews.com/city-region/courts/phony-doctor-gets-2-years-in-prison-for-health-care-fraud-20131022",
    "feature_id": "1617927",
    "feature_name": "Wellsville",
    "state_alpha": "MI",
    "county_name": "Lenawee",
    "county_numeric": "091",
    "prim_lat_dec": "41.8844917",
    "prim_long_dec": "-83.885497",
    "elev_in_m": "212",
    "elev_in_ft": "696",
    "lat": 41.8844917,
    "long": -83.885497
  },
  {
    "globaleventid": 272556849,
    "sqldate": 20131022,
    "monthyear": 201310,
    "year": 2013,
    "fractiondate": "2013.8",
    "eventcode": 193,
    "quadclass": 4,
    "nummentions": 2,
    "numsources": 1,
    "numarticles": 2,
    "avgtone": "0.673400673400673",
    "sourceurl": "http://alaska-native-news.com/rural/9463-buckland-woman-wounded-armed-man-gives-up-at-the-scene.html",
    "feature_id": "1413378",
    "feature_name": "Kotzebue",
    "state_alpha": "AK",
    "county_name": "Northwest Arctic",
    "county_numeric": "188",
    "prim_lat_dec": "66.8983333",
    "prim_long_dec": "-162.5966667",
    "elev_in_m": "3",
    "elev_in_ft": "10",
    "lat": 66.8983333,
    "long": -162.5966667
  },
  {
    "globaleventid": 272556848,
    "sqldate": 20131022,
    "monthyear": 201310,
    "year": 2013,
    "fractiondate": "2013.8",
    "eventcode": 193,
    "quadclass": 4,
    "nummentions": 4,
    "numsources": 1,
    "numarticles": 4,
    "avgtone": "1.26050420168067",
    "sourceurl": "http://www.lakewyliepilot.com/2013/10/20/2124806/man-charged-in-kentucky-hoa-deaths.html",
    "feature_id": "509453",
    "feature_name": "Louisville",
    "state_alpha": "KY",
    "county_name": "Jefferson",
    "county_numeric": "111",
    "prim_lat_dec": "38.2542376",
    "prim_long_dec": "-85.759407",
    "elev_in_m": "142",
    "elev_in_ft": "466",
    "lat": 38.2542376,
    "long": -85.759407
  },
  {
    "globaleventid": 272556847,
    "sqldate": 20131022,
    "monthyear": 201310,
    "year": 2013,
    "fractiondate": "2013.8",
    "eventcode": 193,
    "quadclass": 4,
    "nummentions": 5,
    "numsources": 1,
    "numarticles": 5,
    "avgtone": "0.529100529100529",
    "sourceurl": "http://www.wcpo.com/news/local-news/cincinnati-man-indicted-on-multiple-robbery-kidnapping-charges",
    "feature_id": "1056424",
    "feature_name": "Middletown",
    "state_alpha": "OH",
    "county_name": "Crawford",
    "county_numeric": "033",
    "prim_lat_dec": "40.7736685",
    "prim_long_dec": "-82.7918473",
    "elev_in_m": "345",
    "elev_in_ft": "1132",
    "lat": 40.7736685,
    "long": -82.7918473
  },
  {
    "globaleventid": 272556830,
    "sqldate": 20131022,
    "monthyear": 201310,
    "year": 2013,
    "fractiondate": "2013.8",
    "eventcode": 173,
    "quadclass": 4,
    "nummentions": 6,
    "numsources": 1,
    "numarticles": 6,
    "avgtone": "2.62123197903014",
    "sourceurl": "http://blog.foreignpolicy.com/posts/2013/10/22/is_alexey_navalny_the_kremlin_s_opposition_candidate&c=wWvidNDj0quLxo8kvgtReXN_4jNYF-felIyu_niec58&mkt=en-us",
    "feature_id": "531871",
    "feature_name": "Washington",
    "state_alpha": "DC",
    "county_name": "District of Columbia",
    "county_numeric": "001",
    "prim_lat_dec": "38.8951118",
    "prim_long_dec": "-77.0363658",
    "elev_in_m": "7",
    "elev_in_ft": "23",
    "lat": 38.8951118,
    "long": -77.0363658
  },