[
  {
    "globaleventid": 269422703,
    "sqldate": 20130926,
    "monthyear": 201309,
    "year": 2013,
    "fractiondate": "2013.7288",
    "eventcode": 190,
    "quadclass": 4,
    "nummentions": 2,
    "numsources": 1,
    "numarticles": 2,
    "avgtone": "3.87931034482759",
    "sourceurl": "http://www.dailyherald.com/article/20130926/news/709269705/",
    "feature_id": "277593",
    "feature_name": "San Francisco",
    "state_alpha": "CA",
    "county_name": "San Francisco",
    "county_numeric": "075",
    "prim_lat_dec": "37.775",
    "prim_long_dec": "-122.4194444",
    "elev_in_m": "16",
    "elev_in_ft": "52",
    "lat": 37.775,
    "long": -122.4194444
  },
  {
    "globaleventid": 269422693,
    "sqldate": 20130926,
    "monthyear": 201309,
    "year": 2013,
    "fractiondate": "2013.7288",
    "eventcode": 190,
    "quadclass": 4,
    "nummentions": 4,
    "numsources": 2,
    "numarticles": 4,
    "avgtone": "0.709362579866177",
    "sourceurl": "http://www.ktts.com/news/Suspect-in-Mo-deputys-death-ruled-incompetent-225290872.html",
    "feature_id": "722429",
    "feature_name": "Mineral Point",
    "state_alpha": "MO",
    "county_name": "Washington",
    "county_numeric": "221",
    "prim_lat_dec": "37.9447722",
    "prim_long_dec": "-90.7242964",
    "elev_in_m": "267",
    "elev_in_ft": "876",
    "lat": 37.9447722,
    "long": -90.7242964
  },
  {
    "globaleventid": 269422691,
    "sqldate": 20130926,
    "monthyear": 201309,
    "year": 2013,
    "fractiondate": "2013.7288",
    "eventcode": 190,
    "quadclass": 4,
    "nummentions": 4,
    "numsources": 1,
    "numarticles": 4,
    "avgtone": "0.529100529100529",
    "sourceurl": "http://bangordailynews.com/2013/09/26/news/midcoast/mistrial-declared-in-case-of-monroe-woman-after-jury-fails-to-reach-verdict/",
    "feature_id": "576588",
    "feature_name": "Swanville",
    "state_alpha": "ME",
    "county_name": "Waldo",
    "county_numeric": "027",
    "prim_lat_dec": "44.5211855",
    "prim_long_dec": "-68.9978129",
    "elev_in_m": "61",
    "elev_in_ft": "200",
    "lat": 44.5211855,
    "long": -68.9978129
  },
  {
    "globaleventid": 269422687,
    "sqldate": 20130926,
    "monthyear": 201309,
    "year": 2013,
    "fractiondate": "2013.7288",
    "eventcode": 190,
    "quadclass": 4,
    "nummentions": 2,
    "numsources": 1,
    "numarticles": 2,
    "avgtone": "0.325732899022801",
    "sourceurl": "http://abclocal.go.com/wpvi/story?section=news/local&id=9261960",
    "feature_id": "531871",
    "feature_name": "Washington",
    "state_alpha": "DC",
    "county_name": "District of Columbia",
    "county_numeric": "001",
    "prim_lat_dec": "38.8951118",
    "prim_long_dec": "-77.0363658",
    "elev_in_m": "7",
    "elev_in_ft": "23",
    "lat": 38.8951118,
    "long": -77.0363658
  },
  {
    "globaleventid": 269422683,
    "sqldate": 20130926,
    "monthyear": 201309,
    "year": 2013,
    "fractiondate": "2013.7288",
    "eventcode": 190,
    "quadclass": 4,
    "nummentions": 8,
    "numsources": 1,
    "numarticles": 8,
    "avgtone": "1.35983263598326",
    "sourceurl": "http://theblacksheartimes.com/articles/2013/09/26/news/doc4f05ba1e6d99f132623840.txt",
    "feature_id": "334378",
    "feature_name": "Cedar Hill",
    "state_alpha": "GA",
    "county_name": "Dade",
    "county_numeric": "083",
    "prim_lat_dec": "34.8125788",
    "prim_long_dec": "-85.5407983",
    "elev_in_m": "251",
    "elev_in_ft": "823",
    "lat": 34.8125788,
    "long": -85.5407983
  },
  {
    "globaleventid": 269422681,
    "sqldate": 20130926,
    "monthyear": 201309,
    "year": 2013,
    "fractiondate": "2013.7288",
    "eventcode": 190,
    "quadclass": 4,
    "nummentions": 4,
    "numsources": 1,
    "numarticles": 4,
    "avgtone": "1.46276595744681",
    "sourceurl": "http://www.news-journalonline.com/article/20130926/NEWS/130929531/1040?Title=Probes-of-police-shootings-in-Daytona-Beach-Port-Orange-could-take-months",
    "feature_id": "295559",
    "feature_name": "Port Orange",
    "state_alpha": "FL",
    "county_name": "Volusia",
    "county_numeric": "127",
    "prim_lat_dec": "29.1383165",
    "prim_long_dec": "-80.9956105",
    "elev_in_m": "0",
    "elev_in_ft": "0",
    "lat": 29.1383165,
    "long": -80.9956105
  },
  {
    "globaleventid": 269422680,
    "sqldate": 20130926,
    "monthyear": 201309,
    "year": 2013,
    "fractiondate": "2013.7288",
    "eventcode": 190,
    "quadclass": 4,
    "nummentions": 6,
    "numsources": 2,
    "numarticles": 6,
    "avgtone": "1.8970189701897",
    "sourceurl": "http://www.theintelligencer.net/page/content.detail/id/590296/Victims--Loved-Ones-Still-Feel-Loss.html?nav=510",
    "feature_id": "2484401",
    "feature_name": "North Park",
    "state_alpha": "FL",
    "county_name": "Hillsborough",
    "county_numeric": "057",
    "prim_lat_dec": "28.0055",
    "prim_long_dec": "-82.4563",
    "elev_in_m": "11",
    "elev_in_ft": "36",
    "lat": 28.0055,
    "long": -82.4563
  },
  {
    "globaleventid": 269422678,
    "sqldate": 20130926,
    "monthyear": 201309,
    "year": 2013,
    "fractiondate": "2013.7288",
    "eventcode": 190,
    "quadclass": 4,
    "nummentions": 20,
    "numsources": 2,
    "numarticles": 20,
    "avgtone": "0.0",
    "sourceurl": "http://delmarvapublicradio.net/post/83-year-old-woman-killed-accident-delaware-toll-plaza",
    "feature_id": "217882",
    "feature_name": "Dover",
    "state_alpha": "DE",
    "county_name": "Kent",
    "county_numeric": "001",
    "prim_lat_dec": "39.158168",
    "prim_long_dec": "-75.5243682",
    "elev_in_m": "9",
    "elev_in_ft": "30",
    "lat": 39.158168,
    "long": -75.5243682
  },
  {
    "globaleventid": 269422677,
    "sqldate": 20130926,
    "monthyear": 201309,
    "year": 2013,
    "fractiondate": "2013.7288",
    "eventcode": 190,
    "quadclass": 4,
    "nummentions": 4,
    "numsources": 1,
    "numarticles": 4,
    "avgtone": "0.761697497279652",
    "sourceurl": "http://www.courant.com/community/manchester/hc-manchester-cold-case-0927-20130926,0,5632465.story",
    "feature_id": "208693",
    "feature_name": "Manchester",
    "state_alpha": "CT",
    "county_name": "Hartford",
    "county_numeric": "003",
    "prim_lat_dec": "41.7759324",
    "prim_long_dec": "-72.5214755",
    "elev_in_m": "83",
    "elev_in_ft": "272",
    "lat": 41.7759324,
    "long": -72.5214755
  },
  {
    "globaleventid": 269422674,
    "sqldate": 20130926,
    "monthyear": 201309,
    "year": 2013,
    "fractiondate": "2013.7288",
    "eventcode": 190,
    "quadclass": 4,
    "nummentions": 2,
    "numsources": 1,
    "numarticles": 2,
    "avgtone": "0.906344410876133",
    "sourceurl": "http://www.khou.com/news/texas-news?fId=225444992&fPath=/news/local/&fDomain=10247",
    "feature_id": "1380948",
    "feature_name": "Houston",
    "state_alpha": "TX",
    "county_name": "Harris",
    "county_numeric": "201",
    "prim_lat_dec": "29.7632836",
    "prim_long_dec": "-95.3632715",
    "elev_in_m": "11",
    "elev_in_ft": "36",
    "lat": 29.7632836,
    "long": -95.3632715
  },
  {
    "globaleventid": 269422672,
    "sqldate": 20130926,
    "monthyear": 201309,
    "year": 2013,
    "fractiondate": "2013.7288",
    "eventcode": 190,
    "quadclass": 4,
    "nummentions": 8,
    "numsources": 1,
    "numarticles": 8,
    "avgtone": "1.8348623853211",
    "sourceurl": "http://www.kltv.com/story/23542907/etx-community-surprises-officer-battling-cancer?t=2013-09-26T19:35:31Z",
    "feature_id": "1333874",
    "feature_name": "Daingerfield",
    "state_alpha": "TX",
    "county_name": "Morris",
    "county_numeric": "343",
    "prim_lat_dec": "33.031793",
    "prim_long_dec": "-94.7218731",
    "elev_in_m": "121",
    "elev_in_ft": "397",
    "lat": 33.031793,
    "long": -94.7218731
  },
  {
    "globaleventid": 269422671,
    "sqldate": 20130926,
    "monthyear": 201309,
    "year": 2013,
    "fractiondate": "2013.7288",
    "eventcode": 190,
    "quadclass": 4,
    "nummentions": 5,
    "numsources": 1,
    "numarticles": 5,
    "avgtone": "0.0",
    "sourceurl": "http://lancasteronline.com/article/ap/898899_Police--Man-killed-in-Pa--botched-backpack-robbery.html",
    "feature_id": "1209052",
    "feature_name": "Philadelphia",
    "state_alpha": "PA",
    "county_name": "Philadelphia",
    "county_numeric": "101",
    "prim_lat_dec": "39.952335",
    "prim_long_dec": "-75.163789",
    "elev_in_m": "14",
    "elev_in_ft": "46",
    "lat": 39.952335,
    "long": -75.163789
  },
  {
    "globaleventid": 269422670,
    "sqldate": 20130926,
    "monthyear": 201309,
    "year": 2013,
    "fractiondate": "2013.7288",
    "eventcode": 190,
    "quadclass": 4,
    "nummentions": 22,
    "numsources": 2,
    "numarticles": 20,
    "avgtone": "0.0",
    "sourceurl": "http://lancasteronline.com/article/ap/898899_Police--Man-killed-in-Pa--botched-backpack-robbery.html",
    "feature_id": "1209052",
    "feature_name": "Philadelphia",
    "state_alpha": "PA",
    "county_name": "Philadelphia",
    "county_numeric": "101",
    "prim_lat_dec": "39.952335",
    "prim_long_dec": "-75.163789",
    "elev_in_m": "14",
    "elev_in_ft": "46",
    "lat": 39.952335,
    "long": -75.163789
  },
  {
    "globaleventid": 269422667,
    "sqldate": 20130926,
    "monthyear": 201309,
    "year": 2013,
    "fractiondate": "2013.7288",
    "eventcode": 190,
    "quadclass": 4,
    "nummentions": 12,
    "numsources": 1,
    "numarticles": 12,
    "avgtone": "0.0",
    "sourceurl": "http://www.kgw.com/news/Suspect-in-Higbee-Benton-murder-plot-indicted-for-child-sex-crimes-225400342.html",
    "feature_id": "1136601",
    "feature_name": "Oregon City",
    "state_alpha": "OR",
    "county_name": "Clackamas",
    "county_numeric": "005",
    "prim_lat_dec": "45.3573429",
    "prim_long_dec": "-122.6067583",
    "elev_in_m": "38",
    "elev_in_ft": "125",
    "lat": 45.3573429,
    "long": -122.6067583
  },
  {
    "globaleventid": 269422661,
    "sqldate": 20130926,
    "monthyear": 201309,
    "year": 2013,
    "fractiondate": "2013.7288",
    "eventcode": 1822,
    "quadclass": 4,
    "nummentions": 4,
    "numsources": 1,
    "numarticles": 4,
    "avgtone": "1.63204747774481",
    "sourceurl": "http://capitolfax.com/2013/09/26/quinn-gets-his-way-over-torture-commission/",
    "feature_id": "423587",
    "feature_name": "Chicago",
    "state_alpha": "IL",
    "county_name": "Cook",
    "county_numeric": "031",
    "prim_lat_dec": "41.850033",
    "prim_long_dec": "-87.6500523",
    "elev_in_m": "179",
    "elev_in_ft": "587",
    "lat": 41.850033,
    "long": -87.6500523
  },
  {
    "globaleventid": 269422660,
    "sqldate": 20130926,
    "monthyear": 201309,
    "year": 2013,
    "fractiondate": "2013.7288",
    "eventcode": 1822,
    "quadclass": 4,
    "nummentions": 20,
    "numsources": 2,
    "numarticles": 20,
    "avgtone": "0.430109516057422",
    "sourceurl": "http://www.kwqc.com/story/14878164/news-minute-here-is-the-latest-illinois-news-from-the-associated-press",
    "feature_id": "405578",
    "feature_name": "Carbondale",
    "state_alpha": "IL",
    "county_name": "Jackson",
    "county_numeric": "077",
    "prim_lat_dec": "37.7272727",
    "prim_long_dec": "-89.2167501",
    "elev_in_m": "126",
    "elev_in_ft": "413",
    "lat": 37.7272727,
    "long": -89.2167501
  },
  {
    "globaleventid": 269422655,
    "sqldate": 20130926,
    "monthyear": 201309,
    "year": 2013,
    "fractiondate": "2013.7288",
    "eventcode": 1821,
    "quadclass": 4,
    "nummentions": 10,
    "numsources": 1,
    "numarticles": 10,
    "avgtone": "1.35135135135135",
    "sourceurl": "http://www.chron.com/news/crime/article/Former-Montana-teacher-freed-from-prison-after-4846027.php",
    "feature_id": "1380948",
    "feature_name": "Houston",
    "state_alpha": "TX",
    "county_name": "Harris",
    "county_numeric": "201",
    "prim_lat_dec": "29.7632836",
    "prim_long_dec": "-95.3632715",
    "elev_in_m": "11",
    "elev_in_ft": "36",
    "lat": 29.7632836,
    "long": -95.3632715
  },
  {
    "globaleventid": 269422654,
    "sqldate": 20130926,
    "monthyear": 201309,
    "year": 2013,
    "fractiondate": "2013.7288",
    "eventcode": 1821,
    "quadclass": 4,
    "nummentions": 1,
    "numsources": 1,
    "numarticles": 1,
    "avgtone": "2.74809160305344",
    "sourceurl": "http://www.utsandiego.com/news/2013/sep/26/ex-mont-teacher-freed-after-30-day-term-for-rape/",
    "feature_id": "531871",
    "feature_name": "Washington",
    "state_alpha": "DC",
    "county_name": "District of Columbia",
    "county_numeric": "001",
    "prim_lat_dec": "38.8951118",
    "prim_long_dec": "-77.0363658",
    "elev_in_m": "7",
    "elev_in_ft": "23",
    "lat": 38.8951118,
    "long": -77.0363658
  },
  {
    "globaleventid": 269422653,
    "sqldate": 20130926,
    "monthyear": 201309,
    "year": 2013,
    "fractiondate": "2013.7288",
    "eventcode": 1821,
    "quadclass": 4,
    "nummentions": 2,
    "numsources": 1,
    "numarticles": 2,
    "avgtone": "1.26582278481013",
    "sourceurl": "http://www.dailyjournal.net/view/story/e5c341c2e0044e90922c59630b6f70fe/MA--Rape-Conviction/",
    "feature_id": "612355",
    "feature_name": "North Andover",
    "state_alpha": "MA",
    "county_name": "Essex",
    "county_numeric": "009",
    "prim_lat_dec": "42.6987024",
    "prim_long_dec": "-71.1350575",
    "elev_in_m": "30",
    "elev_in_ft": "98",
    "lat": 42.6987024,
    "long": -71.1350575
  },
  {
    "globaleventid": 269422652,
    "sqldate": 20130926,
    "monthyear": 201309,
    "year": 2013,
    "fractiondate": "2013.7288",
    "eventcode": 1821,
    "quadclass": 4,
    "nummentions": 2,
    "numsources": 1,
    "numarticles": 2,
    "avgtone": "1.26582278481013",
    "sourceurl": "http://www.dailyjournal.net/view/story/e5c341c2e0044e90922c59630b6f70fe/MA--Rape-Conviction/",
    "feature_id": "612355",
    "feature_name": "North Andover",
    "state_alpha": "MA",
    "county_name": "Essex",
    "county_numeric": "009",
    "prim_lat_dec": "42.6987024",
    "prim_long_dec": "-71.1350575",
    "elev_in_m": "30",
    "elev_in_ft": "98",
    "lat": 42.6987024,
    "long": -71.1350575
  },
  {
    "globaleventid": 269422648,
    "sqldate": 20130926,
    "monthyear": 201309,
    "year": 2013,
    "fractiondate": "2013.7288",
    "eventcode": 1821,
    "quadclass": 4,
    "nummentions": 6,
    "numsources": 1,
    "numarticles": 6,
    "avgtone": "1.26582278481013",
    "sourceurl": "http://www.dailyjournal.net/view/story/e5c341c2e0044e90922c59630b6f70fe/MA--Rape-Conviction/",
    "feature_id": "612355",
    "feature_name": "North Andover",
    "state_alpha": "MA",
    "county_name": "Essex",
    "county_numeric": "009",
    "prim_lat_dec": "42.6987024",
    "prim_long_dec": "-71.1350575",
    "elev_in_m": "30",
    "elev_in_ft": "98",
    "lat": 42.6987024,
    "long": -71.1350575
  },
  {
    "globaleventid": 269422647,
    "sqldate": 20130926,
    "monthyear": 201309,
    "year": 2013,
    "fractiondate": "2013.7288",
    "eventcode": 1821,
    "quadclass": 4,
    "nummentions": 4,
    "numsources": 1,
    "numarticles": 4,
    "avgtone": "0.636942675159236",
    "sourceurl": "http://www.capecodonline.com/apps/pbcs.dll/article?AID=/20130926/NEWS/309260344",
    "feature_id": "307388",
    "feature_name": "Ormond Beach",
    "state_alpha": "FL",
    "county_name": "Volusia",
    "county_numeric": "127",
    "prim_lat_dec": "29.2858129",
    "prim_long_dec": "-81.0558894",
    "elev_in_m": "3",
    "elev_in_ft": "10",
    "lat": 29.2858129,
    "long": -81.0558894
  },
  {
    "globaleventid": 269422646,
    "sqldate": 20130926,
    "monthyear": 201309,
    "year": 2013,
    "fractiondate": "2013.7288",
    "eventcode": 1821,
    "quadclass": 4,
    "nummentions": 2,
    "numsources": 1,
    "numarticles": 2,
    "avgtone": "0.277777777777778",
    "sourceurl": "http://www.marinij.com/marinnews/ci_24184044/petaluma-murder-linked-marin-kidnap-rape-convict",
    "feature_id": "143651",
    "feature_name": "Petaluma",
    "state_alpha": "AL",
    "county_name": "Mobile",
    "county_numeric": "097",
    "prim_lat_dec": "30.7168561",
    "prim_long_dec": "-88.2744509",
    "elev_in_m": "55",
    "elev_in_ft": "180",
    "lat": 30.7168561,
    "long": -88.2744509
  },
  {
    "globaleventid": 269422645,
    "sqldate": 20130926,
    "monthyear": 201309,
    "year": 2013,
    "fractiondate": "2013.7288",
    "eventcode": 1821,
    "quadclass": 4,
    "nummentions": 2,
    "numsources": 1,
    "numarticles": 2,
    "avgtone": "0.277777777777778",
    "sourceurl": "http://www.marinij.com/marinnews/ci_24184044/petaluma-murder-linked-marin-kidnap-rape-convict",
    "feature_id": "143651",
    "feature_name": "Petaluma",
    "state_alpha": "AL",
    "county_name": "Mobile",
    "county_numeric": "097",
    "prim_lat_dec": "30.7168561",
    "prim_long_dec": "-88.2744509",
    "elev_in_m": "55",
    "elev_in_ft": "180",
    "lat": 30.7168561,
    "long": -88.2744509
  },
  {
    "globaleventid": 269422643,
    "sqldate": 20130926,
    "monthyear": 201309,
    "year": 2013,
    "fractiondate": "2013.7288",
    "eventcode": 1821,
    "quadclass": 4,
    "nummentions": 1,
    "numsources": 1,
    "numarticles": 1,
    "avgtone": "2.38379022646007",
    "sourceurl": "http://www.wdaz.com/event/apArticle/id/DA929GQ82/",
    "feature_id": "1029197",
    "feature_name": "Grand Forks",
    "state_alpha": "ND",
    "county_name": "Grand Forks",
    "county_numeric": "035",
    "prim_lat_dec": "47.9252568",
    "prim_long_dec": "-97.0328547",
    "elev_in_m": "253",
    "elev_in_ft": "830",
    "lat": 47.9252568,
    "long": -97.0328547
  },
  {
    "globaleventid": 269422641,
    "sqldate": 20130926,
    "monthyear": 201309,
    "year": 2013,
    "fractiondate": "2013.7288",
    "eventcode": 182,
    "quadclass": 4,
    "nummentions": 4,
    "numsources": 1,
    "numarticles": 4,
    "avgtone": "0.0",
    "sourceurl": "http://newstimes.augusta.com/news/2013-09-26/bicycle-deputy-hit-by-van",
    "feature_id": "531871",
    "feature_name": "Washington",
    "state_alpha": "DC",
    "county_name": "District of Columbia",
    "county_numeric": "001",
    "prim_lat_dec": "38.8951118",
    "prim_long_dec": "-77.0363658",
    "elev_in_m": "7",
    "elev_in_ft": "23",
    "lat": 38.8951118,
    "long": -77.0363658
  },
  {
    "globaleventid": 269422637,
    "sqldate": 20130926,
    "monthyear": 201309,
    "year": 2013,
    "fractiondate": "2013.7288",
    "eventcode": 182,
    "quadclass": 4,
    "nummentions": 2,
    "numsources": 1,
    "numarticles": 2,
    "avgtone": "1.28205128205128",
    "sourceurl": "http://www.tribtown.com/view/story/99685eb8452b4f5cb00ce6cc44467d1b/NC--House-Fire-Deaths",
    "feature_id": "1019758",
    "feature_name": "Connelly Springs",
    "state_alpha": "NC",
    "county_name": "Burke",
    "county_numeric": "023",
    "prim_lat_dec": "35.7429092",
    "prim_long_dec": "-81.5134255",
    "elev_in_m": "358",
    "elev_in_ft": "1175",
    "lat": 35.7429092,
    "long": -81.5134255
  },
  {
    "globaleventid": 269422636,
    "sqldate": 20130926,
    "monthyear": 201309,
    "year": 2013,
    "fractiondate": "2013.7288",
    "eventcode": 182,
    "quadclass": 4,
    "nummentions": 2,
    "numsources": 1,
    "numarticles": 2,
    "avgtone": "1.28205128205128",
    "sourceurl": "http://www.tribtown.com/view/story/99685eb8452b4f5cb00ce6cc44467d1b/NC--House-Fire-Deaths",
    "feature_id": "1019758",
    "feature_name": "Connelly Springs",
    "state_alpha": "NC",
    "county_name": "Burke",
    "county_numeric": "023",
    "prim_lat_dec": "35.7429092",
    "prim_long_dec": "-81.5134255",
    "elev_in_m": "358",
    "elev_in_ft": "1175",
    "lat": 35.7429092,
    "long": -81.5134255
  },
  {
    "globaleventid": 269422631,
    "sqldate": 20130926,
    "monthyear": 201309,
    "year": 2013,
    "fractiondate": "2013.7288",
    "eventcode": 180,
    "quadclass": 4,
    "nummentions": 2,
    "numsources": 1,
    "numarticles": 2,
    "avgtone": "0.0",
    "sourceurl": "http://www.bozemandailychronicle.com/ap_news/montana/article_198619a8-5e1f-55da-8c72-34a1b022d1e3.html",
    "feature_id": "787504",
    "feature_name": "Missoula",
    "state_alpha": "MT",
    "county_name": "Missoula",
    "county_numeric": "063",
    "prim_lat_dec": "46.872146",
    "prim_long_dec": "-113.9939982",
    "elev_in_m": "978",
    "elev_in_ft": "3209",
    "lat": 46.872146,
    "long": -113.9939982
  },
  {
    "globaleventid": 269422629,
    "sqldate": 20130926,
    "monthyear": 201309,
    "year": 2013,
    "fractiondate": "2013.7288",
    "eventcode": 180,
    "quadclass": 4,
    "nummentions": 2,
    "numsources": 1,
    "numarticles": 2,
    "avgtone": "0.289017341040462",
    "sourceurl": "http://www.fox19.com/story/23529706/police-teen-suspect-walked-to-strip-after-mother-brother-killed",
    "feature_id": "847388",
    "feature_name": "Las Vegas",
    "state_alpha": "NV",
    "county_name": "Clark",
    "county_numeric": "003",
    "prim_lat_dec": "36.1749705",
    "prim_long_dec": "-115.137223",
    "elev_in_m": "610",
    "elev_in_ft": "2001",
    "lat": 36.1749705,
    "long": -115.137223
  },
  {
    "globaleventid": 269422628,
    "sqldate": 20130926,
    "monthyear": 201309,
    "year": 2013,
    "fractiondate": "2013.7288",
    "eventcode": 180,
    "quadclass": 4,
    "nummentions": 6,
    "numsources": 1,
    "numarticles": 6,
    "avgtone": "0.0",
    "sourceurl": "http://www.bozemandailychronicle.com/ap_news/montana/article_198619a8-5e1f-55da-8c72-34a1b022d1e3.html",
    "feature_id": "787504",
    "feature_name": "Missoula",
    "state_alpha": "MT",
    "county_name": "Missoula",
    "county_numeric": "063",
    "prim_lat_dec": "46.872146",
    "prim_long_dec": "-113.9939982",
    "elev_in_m": "978",
    "elev_in_ft": "3209",
    "lat": 46.872146,
    "long": -113.9939982
  },
  {
    "globaleventid": 269422619,
    "sqldate": 20130926,
    "monthyear": 201309,
    "year": 2013,
    "fractiondate": "2013.7288",
    "eventcode": 173,
    "quadclass": 4,
    "nummentions": 4,
    "numsources": 1,
    "numarticles": 4,
    "avgtone": "0.0",
    "sourceurl": "http://www.sfgate.com/news/crime/article/W-Va-man-shot-by-police-charged-with-endangerment-4846382.php",
    "feature_id": "1537358",
    "feature_name": "Clarksburg",
    "state_alpha": "WV",
    "county_name": "Harrison",
    "county_numeric": "033",
    "prim_lat_dec": "39.2806451",
    "prim_long_dec": "-80.3445341",
    "elev_in_m": "303",
    "elev_in_ft": "994",
    "lat": 39.2806451,
    "long": -80.3445341
  },
  {
    "globaleventid": 269422618,
    "sqldate": 20130926,
    "monthyear": 201309,
    "year": 2013,
    "fractiondate": "2013.7288",
    "eventcode": 173,
    "quadclass": 4,
    "nummentions": 2,
    "numsources": 1,
    "numarticles": 2,
    "avgtone": "0.0",
    "sourceurl": "http://www.sfgate.com/news/crime/article/W-Va-man-shot-by-police-charged-with-endangerment-4846382.php",
    "feature_id": "1537358",
    "feature_name": "Clarksburg",
    "state_alpha": "WV",
    "county_name": "Harrison",
    "county_numeric": "033",
    "prim_lat_dec": "39.2806451",
    "prim_long_dec": "-80.3445341",
    "elev_in_m": "303",
    "elev_in_ft": "994",
    "lat": 39.2806451,
    "long": -80.3445341
  },
  {
    "globaleventid": 269422615,
    "sqldate": 20130926,
    "monthyear": 201309,
    "year": 2013,
    "fractiondate": "2013.7288",
    "eventcode": 173,
    "quadclass": 4,
    "nummentions": 2,
    "numsources": 1,
    "numarticles": 2,
    "avgtone": "1.80505415162455",
    "sourceurl": "http://www.iberkshires.com/blog/2259/PoliceOperationLeadsTo16ArrestsInBennington.html",
    "feature_id": "1461385",
    "feature_name": "Shaftsbury",
    "state_alpha": "VT",
    "county_name": "Bennington",
    "county_numeric": "003",
    "prim_lat_dec": "43.008689",
    "prim_long_dec": "-73.191219",
    "elev_in_m": "280",
    "elev_in_ft": "919",
    "lat": 43.008689,
    "long": -73.191219
  },
  {
    "globaleventid": 269422607,
    "sqldate": 20130926,
    "monthyear": 201309,
    "year": 2013,
    "fractiondate": "2013.7288",
    "eventcode": 173,
    "quadclass": 4,
    "nummentions": 2,
    "numsources": 1,
    "numarticles": 2,
    "avgtone": "2.01612903225806",
    "sourceurl": "http://www.krgv.com/news/here-is-the-latest-texas-news-from-the-associated-press-529565",
    "feature_id": "1380944",
    "feature_name": "Dallas",
    "state_alpha": "TX",
    "county_name": "Dallas",
    "county_numeric": "113",
    "prim_lat_dec": "32.7830556",
    "prim_long_dec": "-96.8066667",
    "elev_in_m": "128",
    "elev_in_ft": "420",
    "lat": 32.7830556,
    "long": -96.8066667
  },
  {
    "globaleventid": 269422606,
    "sqldate": 20130926,
    "monthyear": 201309,
    "year": 2013,
    "fractiondate": "2013.7288",
    "eventcode": 173,
    "quadclass": 4,
    "nummentions": 10,
    "numsources": 1,
    "numarticles": 10,
    "avgtone": "5.32150776053215",
    "sourceurl": "http://www.foxsanantonio.com/newsroom/top_stories/videos/vid_17460.shtml",
    "feature_id": "1380944",
    "feature_name": "Dallas",
    "state_alpha": "TX",
    "county_name": "Dallas",
    "county_numeric": "113",
    "prim_lat_dec": "32.7830556",
    "prim_long_dec": "-96.8066667",
    "elev_in_m": "128",
    "elev_in_ft": "420",
    "lat": 32.7830556,
    "long": -96.8066667
  },
  {
    "globaleventid": 269422601,
    "sqldate": 20130926,
    "monthyear": 201309,
    "year": 2013,
    "fractiondate": "2013.7288",
    "eventcode": 173,
    "quadclass": 4,
    "nummentions": 6,
    "numsources": 2,
    "numarticles": 6,
    "avgtone": "3.74115522936767",
    "sourceurl": "http://www.globalpost.com/dispatch/news/thomson-reuters/130926/column-holder-follows-gop-lead-easing-harsh-drug-laws",
    "feature_id": "1227957",
    "feature_name": "Palmetto",
    "state_alpha": "SC",
    "county_name": "Darlington",
    "county_numeric": "031",
    "prim_lat_dec": "34.2520979",
    "prim_long_dec": "-79.8272842",
    "elev_in_m": "41",
    "elev_in_ft": "135",
    "lat": 34.2520979,
    "long": -79.8272842
  },
  {
    "globaleventid": 269422600,
    "sqldate": 20130926,
    "monthyear": 201309,
    "year": 2013,
    "fractiondate": "2013.7288",
    "eventcode": 173,
    "quadclass": 4,
    "nummentions": 14,
    "numsources": 3,
    "numarticles": 14,
    "avgtone": "3.75549800446114",
    "sourceurl": "http://www.reuters.com/article/2013/09/26/us-column-norquist-gleason-idUSBRE98P1AH20130926",
    "feature_id": "1227957",
    "feature_name": "Palmetto",
    "state_alpha": "SC",
    "county_name": "Darlington",
    "county_numeric": "031",
    "prim_lat_dec": "34.2520979",
    "prim_long_dec": "-79.8272842",
    "elev_in_m": "41",
    "elev_in_ft": "135",
    "lat": 34.2520979,
    "long": -79.8272842
  },
  {
    "globaleventid": 269422593,
    "sqldate": 20130926,
    "monthyear": 201309,
    "year": 2013,
    "fractiondate": "2013.7288",
    "eventcode": 173,
    "quadclass": 4,
    "nummentions": 8,
    "numsources": 1,
    "numarticles": 8,
    "avgtone": "1.16959064327485",
    "sourceurl": "http://www.nydailynews.com/new-york/brooklyn/bklyn-man-involved-fatal-shooting-woman-56-40-years-jail-article-1.1468464",
    "feature_id": "944840",
    "feature_name": "Brooklyn",
    "state_alpha": "NY",
    "county_name": "Delaware",
    "county_numeric": "025",
    "prim_lat_dec": "42.3442482",
    "prim_long_dec": "-75.1704468",
    "elev_in_m": "366",
    "elev_in_ft": "1201",
    "lat": 42.3442482,
    "long": -75.1704468
  },
  {
    "globaleventid": 269422586,
    "sqldate": 20130926,
    "monthyear": 201309,
    "year": 2013,
    "fractiondate": "2013.7288",
    "eventcode": 173,
    "quadclass": 4,
    "nummentions": 2,
    "numsources": 1,
    "numarticles": 2,
    "avgtone": "0.0",
    "sourceurl": "http://www.bozemandailychronicle.com/ap_news/montana/article_198619a8-5e1f-55da-8c72-34a1b022d1e3.html",
    "feature_id": "787504",
    "feature_name": "Missoula",
    "state_alpha": "MT",
    "county_name": "Missoula",
    "county_numeric": "063",
    "prim_lat_dec": "46.872146",
    "prim_long_dec": "-113.9939982",
    "elev_in_m": "978",
    "elev_in_ft": "3209",
    "lat": 46.872146,
    "long": -113.9939982
  },
  {
    "globaleventid": 269422580,
    "sqldate": 20130926,
    "monthyear": 201309,
    "year": 2013,
    "fractiondate": "2013.7288",
    "eventcode": 173,
    "quadclass": 4,
    "nummentions": 2,
    "numsources": 1,
    "numarticles": 2,
    "avgtone": "0.0",
    "sourceurl": "http://www.mlive.com/news/muskegon/index.ssf/2013/09/17-year-old_muskegon_man_alleg.html",
    "feature_id": "1620963",
    "feature_name": "Muskegon",
    "state_alpha": "MI",
    "county_name": "Muskegon",
    "county_numeric": "121",
    "prim_lat_dec": "43.2341813",
    "prim_long_dec": "-86.2483921",
    "elev_in_m": "188",
    "elev_in_ft": "617",
    "lat": 43.2341813,
    "long": -86.2483921
  },
  {
    "globaleventid": 269422574,
    "sqldate": 20130926,
    "monthyear": 201309,
    "year": 2013,
    "fractiondate": "2013.7288",
    "eventcode": 173,
    "quadclass": 4,
    "nummentions": 8,
    "numsources": 2,
    "numarticles": 8,
    "avgtone": "1.03285216525635",
    "sourceurl": "http://www.abc6.com/story/14880035/news-minute-here-is-the-latest-massachusetts-news-from-the-associated-press",
    "feature_id": "612281",
    "feature_name": "Andover",
    "state_alpha": "MA",
    "county_name": "Essex",
    "county_numeric": "009",
    "prim_lat_dec": "42.6584254",
    "prim_long_dec": "-71.1370012",
    "elev_in_m": "56",
    "elev_in_ft": "184",
    "lat": 42.6584254,
    "long": -71.1370012
  },
  {
    "globaleventid": 269422567,
    "sqldate": 20130926,
    "monthyear": 201309,
    "year": 2013,
    "fractiondate": "2013.7288",
    "eventcode": 173,
    "quadclass": 4,
    "nummentions": 4,
    "numsources": 1,
    "numarticles": 4,
    "avgtone": "0.78740157480315",
    "sourceurl": "http://www.kfvs12.com/story/23538319/carbondale-man-sentenced-for-convenience-store-burglary",
    "feature_id": "405578",
    "feature_name": "Carbondale",
    "state_alpha": "IL",
    "county_name": "Jackson",
    "county_numeric": "077",
    "prim_lat_dec": "37.7272727",
    "prim_long_dec": "-89.2167501",
    "elev_in_m": "126",
    "elev_in_ft": "413",
    "lat": 37.7272727,
    "long": -89.2167501
  },
  {
    "globaleventid": 269422562,
    "sqldate": 20130926,
    "monthyear": 201309,
    "year": 2013,
    "fractiondate": "2013.7288",
    "eventcode": 173,
    "quadclass": 4,
    "nummentions": 4,
    "numsources": 1,
    "numarticles": 4,
    "avgtone": "3.77358490566038",
    "sourceurl": "http://www.firstcoastnews.com/rss/article/329344/3/New-trial-ordered-for-Jacksonville-woman-who-got-20-years",
    "feature_id": "953901",
    "feature_name": "Jacksonville",
    "state_alpha": "NY",
    "county_name": "Tompkins",
    "county_numeric": "109",
    "prim_lat_dec": "42.5084053",
    "prim_long_dec": "-76.6149456",
    "elev_in_m": "312",
    "elev_in_ft": "1024",
    "lat": 42.5084053,
    "long": -76.6149456
  },
  {
    "globaleventid": 269422547,
    "sqldate": 20130926,
    "monthyear": 201309,
    "year": 2013,
    "fractiondate": "2013.7288",
    "eventcode": 173,
    "quadclass": 4,
    "nummentions": 2,
    "numsources": 1,
    "numarticles": 2,
    "avgtone": "1.5748031496063",
    "sourceurl": "http://www.kwtx.com/home/headlines/Texas-Man-Sentenced-For-Sex-Trip-With-Neighbors-Teenage-Daughter-225353152.html",
    "feature_id": "307964",
    "feature_name": "Fort Pierce",
    "state_alpha": "FL",
    "county_name": "St. Lucie",
    "county_numeric": "111",
    "prim_lat_dec": "27.4467056",
    "prim_long_dec": "-80.3256056",
    "elev_in_m": "5",
    "elev_in_ft": "16",
    "lat": 27.4467056,
    "long": -80.3256056
  },
  {
    "globaleventid": 269422544,
    "sqldate": 20130926,
    "monthyear": 201309,
    "year": 2013,
    "fractiondate": "2013.7288",
    "eventcode": 173,
    "quadclass": 4,
    "nummentions": 4,
    "numsources": 1,
    "numarticles": 4,
    "avgtone": "1.5748031496063",
    "sourceurl": "http://www.kwtx.com/home/headlines/Texas-Man-Sentenced-For-Sex-Trip-With-Neighbors-Teenage-Daughter-225353152.html",
    "feature_id": "307964",
    "feature_name": "Fort Pierce",
    "state_alpha": "FL",
    "county_name": "St. Lucie",
    "county_numeric": "111",
    "prim_lat_dec": "27.4467056",
    "prim_long_dec": "-80.3256056",
    "elev_in_m": "5",
    "elev_in_ft": "16",
    "lat": 27.4467056,
    "long": -80.3256056
  },
  {
    "globaleventid": 269422543,
    "sqldate": 20130926,
    "monthyear": 201309,
    "year": 2013,
    "fractiondate": "2013.7288",
    "eventcode": 173,
    "quadclass": 4,
    "nummentions": 2,
    "numsources": 1,
    "numarticles": 2,
    "avgtone": "0.604838709677419",
    "sourceurl": "http://www.ktuu.com/news/trans-alaska-pipeline-tagged-with-troopers-death-list-092613,0,5042893.story",
    "feature_id": "1410694",
    "feature_name": "Tazlina",
    "state_alpha": "AK",
    "county_name": "Valdez-Cordova (CA)",
    "county_numeric": "261",
    "prim_lat_dec": "62.0588695",
    "prim_long_dec": "-145.4284212",
    "elev_in_m": "359",
    "elev_in_ft": "1178",
    "lat": 62.0588695,
    "long": -145.4284212
  },
  {
    "globaleventid": 269422542,
    "sqldate": 20130926,
    "monthyear": 201309,
    "year": 2013,
    "fractiondate": "2013.7288",
    "eventcode": 173,
    "quadclass": 4,
    "nummentions": 4,
    "numsources": 1,
    "numarticles": 4,
    "avgtone": "2.2342586323629",
    "sourceurl": "http://www.benningtonbanner.com/localnews/ci_24177465/back-seat-view-drug-sweep",
    "feature_id": "956335",
    "feature_name": "Manchester",
    "state_alpha": "NY",
    "county_name": "Ontario",
    "county_numeric": "069",
    "prim_lat_dec": "42.9697857",
    "prim_long_dec": "-77.2302586",
    "elev_in_m": "180",
    "elev_in_ft": "591",
    "lat": 42.9697857,
    "long": -77.2302586
  },
  {
    "globaleventid": 269422541,
    "sqldate": 20130926,
    "monthyear": 201309,
    "year": 2013,
    "fractiondate": "2013.7288",
    "eventcode": 173,
    "quadclass": 4,
    "nummentions": 6,
    "numsources": 1,
    "numarticles": 6,
    "avgtone": "3.77358490566038",
    "sourceurl": "http://www.firstcoastnews.com/rss/article/329344/3/New-trial-ordered-for-Jacksonville-woman-who-got-20-years",
    "feature_id": "953901",
    "feature_name": "Jacksonville",
    "state_alpha": "NY",
    "county_name": "Tompkins",
    "county_numeric": "109",
    "prim_lat_dec": "42.5084053",
    "prim_long_dec": "-76.6149456",
    "elev_in_m": "312",
    "elev_in_ft": "1024",
    "lat": 42.5084053,
    "long": -76.6149456
  },
  {
    "globaleventid": 269422540,
    "sqldate": 20130926,
    "monthyear": 201309,
    "year": 2013,
    "fractiondate": "2013.7288",
    "eventcode": 173,
    "quadclass": 4,
    "nummentions": 2,
    "numsources": 1,
    "numarticles": 2,
    "avgtone": "0.72202166064982",
    "sourceurl": "http://www.newschannel10.com/story/14877999/news-minute-here-is-the-latest-new-mexico-news-from-the-associated-press",
    "feature_id": "928679",
    "feature_name": "Albuquerque",
    "state_alpha": "NM",
    "county_name": "Bernalillo",
    "county_numeric": "001",
    "prim_lat_dec": "35.0844909",
    "prim_long_dec": "-106.6511367",
    "elev_in_m": "1510",
    "elev_in_ft": "4954",
    "lat": 35.0844909,
    "long": -106.6511367
  },
  {
    "globaleventid": 269422539,
    "sqldate": 20130926,
    "monthyear": 201309,
    "year": 2013,
    "fractiondate": "2013.7288",
    "eventcode": 173,
    "quadclass": 4,
    "nummentions": 4,
    "numsources": 1,
    "numarticles": 4,
    "avgtone": "0.0",
    "sourceurl": "http://www.northjersey.com/fortlee/Two_NY_men_face_drug_charges_after_Fort_Lee_traffic_stop.html",
    "feature_id": "876418",
    "feature_name": "Fort Lee",
    "state_alpha": "NJ",
    "county_name": "Bergen",
    "county_numeric": "003",
    "prim_lat_dec": "40.8509333",
    "prim_long_dec": "-73.9701382",
    "elev_in_m": "87",
    "elev_in_ft": "285",
    "lat": 40.8509333,
    "long": -73.9701382
  },
  {
    "globaleventid": 269422538,
    "sqldate": 20130926,
    "monthyear": 201309,
    "year": 2013,
    "fractiondate": "2013.7288",
    "eventcode": 173,
    "quadclass": 4,
    "nummentions": 2,
    "numsources": 1,
    "numarticles": 2,
    "avgtone": "0.932090545938748",
    "sourceurl": "http://www.seacoastonline.com/articles/20130926-NEWS-309260402",
    "feature_id": "867344",
    "feature_name": "Hampton Beach",
    "state_alpha": "NH",
    "county_name": "Rockingham",
    "county_numeric": "015",
    "prim_lat_dec": "42.9073128",
    "prim_long_dec": "-70.8119967",
    "elev_in_m": "3",
    "elev_in_ft": "10",
    "lat": 42.9073128,
    "long": -70.8119967
  },
  {
    "globaleventid": 269422537,
    "sqldate": 20130926,
    "monthyear": 201309,
    "year": 2013,
    "fractiondate": "2013.7288",
    "eventcode": 173,
    "quadclass": 4,
    "nummentions": 16,
    "numsources": 1,
    "numarticles": 8,
    "avgtone": "1.65203967624458",
    "sourceurl": "http://www.wickedlocal.com/wenham/newsnow/x1655341707/Arrests-made-in-connection-with-fatal-crash",
    "feature_id": "867343",
    "feature_name": "Hampton",
    "state_alpha": "NH",
    "county_name": "Rockingham",
    "county_numeric": "015",
    "prim_lat_dec": "42.9375899",
    "prim_long_dec": "-70.8389421",
    "elev_in_m": "12",
    "elev_in_ft": "39",
    "lat": 42.9375899,
    "long": -70.8389421
  },
  {
    "globaleventid": 269422536,
    "sqldate": 20130926,
    "monthyear": 201309,
    "year": 2013,
    "fractiondate": "2013.7288",
    "eventcode": 173,
    "quadclass": 4,
    "nummentions": 6,
    "numsources": 1,
    "numarticles": 6,
    "avgtone": "0.0",
    "sourceurl": "http://www.rttnews.com/2193847/nevada-teenager-wanted-in-slayings-of-mother-and-brother-in-las-vegas.aspx?type=gn",
    "feature_id": "847388",
    "feature_name": "Las Vegas",
    "state_alpha": "NV",
    "county_name": "Clark",
    "county_numeric": "003",
    "prim_lat_dec": "36.1749705",
    "prim_long_dec": "-115.137223",
    "elev_in_m": "610",
    "elev_in_ft": "2001",
    "lat": 36.1749705,
    "long": -115.137223
  },
  {
    "globaleventid": 269422535,
    "sqldate": 20130926,
    "monthyear": 201309,
    "year": 2013,
    "fractiondate": "2013.7288",
    "eventcode": 173,
    "quadclass": 4,
    "nummentions": 6,
    "numsources": 1,
    "numarticles": 6,
    "avgtone": "0.0",
    "sourceurl": "http://www.bozemandailychronicle.com/ap_news/montana/article_198619a8-5e1f-55da-8c72-34a1b022d1e3.html",
    "feature_id": "787504",
    "feature_name": "Missoula",
    "state_alpha": "MT",
    "county_name": "Missoula",
    "county_numeric": "063",
    "prim_lat_dec": "46.872146",
    "prim_long_dec": "-113.9939982",
    "elev_in_m": "978",
    "elev_in_ft": "3209",
    "lat": 46.872146,
    "long": -113.9939982
  },
  {
    "globaleventid": 269422531,
    "sqldate": 20130926,
    "monthyear": 201309,
    "year": 2013,
    "fractiondate": "2013.7288",
    "eventcode": 173,
    "quadclass": 4,
    "nummentions": 4,
    "numsources": 2,
    "numarticles": 4,
    "avgtone": "1.37937595129376",
    "sourceurl": "http://www.ktbs.com/story/14878071/news-minute-here-is-the-latest-arkansas-news-from-the-associated-press",
    "feature_id": "1380948",
    "feature_name": "Houston",
    "state_alpha": "TX",
    "county_name": "Harris",
    "county_numeric": "201",
    "prim_lat_dec": "29.7632836",
    "prim_long_dec": "-95.3632715",
    "elev_in_m": "11",
    "elev_in_ft": "36",
    "lat": 29.7632836,
    "long": -95.3632715
  },
  {
    "globaleventid": 269422530,
    "sqldate": 20130926,
    "monthyear": 201309,
    "year": 2013,
    "fractiondate": "2013.7288",
    "eventcode": 173,
    "quadclass": 4,
    "nummentions": 1,
    "numsources": 1,
    "numarticles": 1,
    "avgtone": "0.285408490902604",
    "sourceurl": "http://www.montgomerynews.com/articles/2013/09/26/ambler_gazette/news/doc523c866cd4f3e331958345.txt",
    "feature_id": "1497051",
    "feature_name": "Norfolk",
    "state_alpha": "VA",
    "county_name": "Norfolk (city)",
    "county_numeric": "710",
    "prim_lat_dec": "36.8468146",
    "prim_long_dec": "-76.2852183",
    "elev_in_m": "3",
    "elev_in_ft": "10",
    "lat": 36.8468146,
    "long": -76.2852183
  },
  {
    "globaleventid": 269422527,
    "sqldate": 20130926,
    "monthyear": 201309,
    "year": 2013,
    "fractiondate": "2013.7288",
    "eventcode": 173,
    "quadclass": 4,
    "nummentions": 1,
    "numsources": 1,
    "numarticles": 1,
    "avgtone": "0.427807486631016",
    "sourceurl": "http://www.montgomerynews.com/articles/2013/09/26/ambler_gazette/news/doc523c857cd79e4281409491.txt",
    "feature_id": "1497051",
    "feature_name": "Norfolk",
    "state_alpha": "VA",
    "county_name": "Norfolk (city)",
    "county_numeric": "710",
    "prim_lat_dec": "36.8468146",
    "prim_long_dec": "-76.2852183",
    "elev_in_m": "3",
    "elev_in_ft": "10",
    "lat": 36.8468146,
    "long": -76.2852183
  },
  {
    "globaleventid": 269422526,
    "sqldate": 20130926,
    "monthyear": 201309,
    "year": 2013,
    "fractiondate": "2013.7288",
    "eventcode": 173,
    "quadclass": 4,
    "nummentions": 1,
    "numsources": 1,
    "numarticles": 1,
    "avgtone": "0.285408490902604",
    "sourceurl": "http://www.montgomerynews.com/articles/2013/09/26/ambler_gazette/news/doc523c866cd4f3e331958345.txt",
    "feature_id": "667173",
    "feature_name": "Biloxi",
    "state_alpha": "MS",
    "county_name": "Harrison",
    "county_numeric": "047",
    "prim_lat_dec": "30.3960318",
    "prim_long_dec": "-88.8853078",
    "elev_in_m": "6",
    "elev_in_ft": "20",
    "lat": 30.3960318,
    "long": -88.8853078
  },
  {
    "globaleventid": 269422524,
    "sqldate": 20130926,
    "monthyear": 201309,
    "year": 2013,
    "fractiondate": "2013.7288",
    "eventcode": 173,
    "quadclass": 4,
    "nummentions": 2,
    "numsources": 1,
    "numarticles": 2,
    "avgtone": "2.9810298102981",
    "sourceurl": "http://www.michigandaily.com/opinion/09maura-levine-marijuana-laws27",
    "feature_id": "620133",
    "feature_name": "Ann Arbor",
    "state_alpha": "MI",
    "county_name": "Washtenaw",
    "county_numeric": "161",
    "prim_lat_dec": "42.2708716",
    "prim_long_dec": "-83.7263294",
    "elev_in_m": "268",
    "elev_in_ft": "879",
    "lat": 42.2708716,
    "long": -83.7263294
  },
  {
    "globaleventid": 269422523,
    "sqldate": 20130926,
    "monthyear": 201309,
    "year": 2013,
    "fractiondate": "2013.7288",
    "eventcode": 173,
    "quadclass": 4,
    "nummentions": 6,
    "numsources": 1,
    "numarticles": 6,
    "avgtone": "2.9810298102981",
    "sourceurl": "http://www.michigandaily.com/opinion/09maura-levine-marijuana-laws27",
    "feature_id": "620133",
    "feature_name": "Ann Arbor",
    "state_alpha": "MI",
    "county_name": "Washtenaw",
    "county_numeric": "161",
    "prim_lat_dec": "42.2708716",
    "prim_long_dec": "-83.7263294",
    "elev_in_m": "268",
    "elev_in_ft": "879",
    "lat": 42.2708716,
    "long": -83.7263294
  },
  {
    "globaleventid": 269422520,
    "sqldate": 20130926,
    "monthyear": 201309,
    "year": 2013,
    "fractiondate": "2013.7288",
    "eventcode": 173,
    "quadclass": 4,
    "nummentions": 2,
    "numsources": 1,
    "numarticles": 2,
    "avgtone": "0.390625",
    "sourceurl": "http://www.boston.com/news/local/massachusetts/2013/09/25/hearing-scheduled-convicted-watertown-police-sergeant-pension/QhEwAaRZY05CzD4nsCZCCN/story.html",
    "feature_id": "617565",
    "feature_name": "Boston",
    "state_alpha": "MA",
    "county_name": "Suffolk",
    "county_numeric": "025",
    "prim_lat_dec": "42.3584308",
    "prim_long_dec": "-71.0597732",
    "elev_in_m": "14",
    "elev_in_ft": "46",
    "lat": 42.3584308,
    "long": -71.0597732
  },
  {
    "globaleventid": 269422519,
    "sqldate": 20130926,
    "monthyear": 201309,
    "year": 2013,
    "fractiondate": "2013.7288",
    "eventcode": 173,
    "quadclass": 4,
    "nummentions": 2,
    "numsources": 1,
    "numarticles": 2,
    "avgtone": "0.390625",
    "sourceurl": "http://www.boston.com/news/local/massachusetts/2013/09/25/hearing-scheduled-convicted-watertown-police-sergeant-pension/QhEwAaRZY05CzD4nsCZCCN/story.html",
    "feature_id": "617565",
    "feature_name": "Boston",
    "state_alpha": "MA",
    "county_name": "Suffolk",
    "county_numeric": "025",
    "prim_lat_dec": "42.3584308",
    "prim_long_dec": "-71.0597732",
    "elev_in_m": "14",
    "elev_in_ft": "46",
    "lat": 42.3584308,
    "long": -71.0597732
  },
  {
    "globaleventid": 269422518,
    "sqldate": 20130926,
    "monthyear": 201309,
    "year": 2013,
    "fractiondate": "2013.7288",
    "eventcode": 173,
    "quadclass": 4,
    "nummentions": 6,
    "numsources": 1,
    "numarticles": 6,
    "avgtone": "0.390625",
    "sourceurl": "http://www.boston.com/news/local/massachusetts/2013/09/25/hearing-scheduled-convicted-watertown-police-sergeant-pension/QhEwAaRZY05CzD4nsCZCCN/story.html",
    "feature_id": "612401",
    "feature_name": "Watertown",
    "state_alpha": "MA",
    "county_name": "Middlesex",
    "county_numeric": "017",
    "prim_lat_dec": "42.3709299",
    "prim_long_dec": "-71.1828321",
    "elev_in_m": "19",
    "elev_in_ft": "62",
    "lat": 42.3709299,
    "long": -71.1828321
  },
  {
    "globaleventid": 269422515,
    "sqldate": 20130926,
    "monthyear": 201309,
    "year": 2013,
    "fractiondate": "2013.7288",
    "eventcode": 173,
    "quadclass": 4,
    "nummentions": 2,
    "numsources": 1,
    "numarticles": 2,
    "avgtone": "1.16678105696637",
    "sourceurl": "http://smnewsnet.com/archives/80418",
    "feature_id": "597040",
    "feature_name": "Baltimore",
    "state_alpha": "MD",
    "county_name": "Baltimore (city)",
    "county_numeric": "510",
    "prim_lat_dec": "39.2903848",
    "prim_long_dec": "-76.6121893",
    "elev_in_m": "10",
    "elev_in_ft": "33",
    "lat": 39.2903848,
    "long": -76.6121893
  },
  {
    "globaleventid": 269422513,
    "sqldate": 20130926,
    "monthyear": 201309,
    "year": 2013,
    "fractiondate": "2013.7288",
    "eventcode": 173,
    "quadclass": 4,
    "nummentions": 21,
    "numsources": 6,
    "numarticles": 21,
    "avgtone": "0.0997257541760162",
    "sourceurl": "http://www.scnow.com/news/state/article_6ce1ba38-270d-11e3-a25f-001a4bcf6878.html",
    "feature_id": "573692",
    "feature_name": "Portland",
    "state_alpha": "ME",
    "county_name": "Cumberland",
    "county_numeric": "005",
    "prim_lat_dec": "43.661471",
    "prim_long_dec": "-70.2553259",
    "elev_in_m": "19",
    "elev_in_ft": "62",
    "lat": 43.661471,
    "long": -70.2553259
  },
  {
    "globaleventid": 269422512,
    "sqldate": 20130926,
    "monthyear": 201309,
    "year": 2013,
    "fractiondate": "2013.7288",
    "eventcode": 173,
    "quadclass": 4,
    "nummentions": 1,
    "numsources": 1,
    "numarticles": 1,
    "avgtone": "2.09424083769634",
    "sourceurl": "http://www.myrtlebeachonline.com/2013/09/26/3734951/sc-man-gets-40-years-for-child.html",
    "feature_id": "573692",
    "feature_name": "Portland",
    "state_alpha": "ME",
    "county_name": "Cumberland",
    "county_numeric": "005",
    "prim_lat_dec": "43.661471",
    "prim_long_dec": "-70.2553259",
    "elev_in_m": "19",
    "elev_in_ft": "62",
    "lat": 43.661471,
    "long": -70.2553259
  },
  {
    "globaleventid": 269422510,
    "sqldate": 20130926,
    "monthyear": 201309,
    "year": 2013,
    "fractiondate": "2013.7288",
    "eventcode": 173,
    "quadclass": 4,
    "nummentions": 4,
    "numsources": 1,
    "numarticles": 4,
    "avgtone": "0.442477876106195",
    "sourceurl": "http://www.registercitizen.com/general-news/20130925/new-milford-man-sentenced-to-five-years-in-prison-after-shooting-himself",
    "feature_id": "531871",
    "feature_name": "Washington",
    "state_alpha": "DC",
    "county_name": "District of Columbia",
    "county_numeric": "001",
    "prim_lat_dec": "38.8951118",
    "prim_long_dec": "-77.0363658",
    "elev_in_m": "7",
    "elev_in_ft": "23",
    "lat": 38.8951118,
    "long": -77.0363658
  },
  {
    "globaleventid": 269422508,
    "sqldate": 20130926,
    "monthyear": 201309,
    "year": 2013,
    "fractiondate": "2013.7288",
    "eventcode": 173,
    "quadclass": 4,
    "nummentions": 30,
    "numsources": 7,
    "numarticles": 30,
    "avgtone": "0.224202307569729",
    "sourceurl": "http://www.kxii.com/news/tx/headlines/Mistrial-for-Texan-in-2011-parking-lot-slaying-225381192.html",
    "feature_id": "531871",
    "feature_name": "Washington",
    "state_alpha": "DC",
    "county_name": "District of Columbia",
    "county_numeric": "001",
    "prim_lat_dec": "38.8951118",
    "prim_long_dec": "-77.0363658",
    "elev_in_m": "7",
    "elev_in_ft": "23",
    "lat": 38.8951118,
    "long": -77.0363658
  },
  {
    "globaleventid": 269422507,
    "sqldate": 20130926,
    "monthyear": 201309,
    "year": 2013,
    "fractiondate": "2013.7288",
    "eventcode": 173,
    "quadclass": 4,
    "nummentions": 24,
    "numsources": 3,
    "numarticles": 24,
    "avgtone": "0.172711571675302",
    "sourceurl": "http://www.seattlepi.com/news/texas/article/Mistrial-for-Texan-in-2011-parking-lot-slaying-4845279.php",
    "feature_id": "531871",
    "feature_name": "Washington",
    "state_alpha": "DC",
    "county_name": "District of Columbia",
    "county_numeric": "001",
    "prim_lat_dec": "38.8951118",
    "prim_long_dec": "-77.0363658",
    "elev_in_m": "7",
    "elev_in_ft": "23",
    "lat": 38.8951118,
    "long": -77.0363658
  },
  {
    "globaleventid": 269422505,
    "sqldate": 20130926,
    "monthyear": 201309,
    "year": 2013,
    "fractiondate": "2013.7288",
    "eventcode": 173,
    "quadclass": 4,
    "nummentions": 4,
    "numsources": 1,
    "numarticles": 4,
    "avgtone": "0.980392156862745",
    "sourceurl": "http://www.wkyt.com/news/headlines/Williamsburg-couple-sentenced-in-bank-robberies-225406052.html",
    "feature_id": "516385",
    "feature_name": "Williamsburg",
    "state_alpha": "KY",
    "county_name": "Whitley",
    "county_numeric": "235",
    "prim_lat_dec": "36.7434169",
    "prim_long_dec": "-84.1596561",
    "elev_in_m": "283",
    "elev_in_ft": "928",
    "lat": 36.7434169,
    "long": -84.1596561
  },
  {
    "globaleventid": 269422504,
    "sqldate": 20130926,
    "monthyear": 201309,
    "year": 2013,
    "fractiondate": "2013.7288",
    "eventcode": 173,
    "quadclass": 4,
    "nummentions": 18,
    "numsources": 2,
    "numarticles": 18,
    "avgtone": "1.51214347164317",
    "sourceurl": "http://www.myfoxphoenix.com/story/23543196/2013/09/26/wheelchair-bound-man-beaten-police-ask-for-tips",
    "feature_id": "44784",
    "feature_name": "Phoenix",
    "state_alpha": "AZ",
    "county_name": "Maricopa",
    "county_numeric": "013",
    "prim_lat_dec": "33.4483771",
    "prim_long_dec": "-112.0740373",
    "elev_in_m": "331",
    "elev_in_ft": "1086",
    "lat": 33.4483771,
    "long": -112.0740373
  },
  {
    "globaleventid": 269422503,
    "sqldate": 20130926,
    "monthyear": 201309,
    "year": 2013,
    "fractiondate": "2013.7288",
    "eventcode": 173,
    "quadclass": 4,
    "nummentions": 2,
    "numsources": 1,
    "numarticles": 2,
    "avgtone": "1.52284263959391",
    "sourceurl": "http://www.wbiw.com/local/archive/2013/09/former-director-of-jackson-co-soil-water-pleads-guilty-to-stealing-funds.php",
    "feature_id": "431647",
    "feature_name": "Brownstown",
    "state_alpha": "IN",
    "county_name": "Jackson",
    "county_numeric": "071",
    "prim_lat_dec": "38.8789426",
    "prim_long_dec": "-86.0419247",
    "elev_in_m": "190",
    "elev_in_ft": "623",
    "lat": 38.8789426,
    "long": -86.0419247
  },
  {
    "globaleventid": 269422501,
    "sqldate": 20130926,
    "monthyear": 201309,
    "year": 2013,
    "fractiondate": "2013.7288",
    "eventcode": 173,
    "quadclass": 4,
    "nummentions": 2,
    "numsources": 1,
    "numarticles": 2,
    "avgtone": "0.231481481481481",
    "sourceurl": "http://www.therepublic.com/view/story/300ef9f4d7cb4768ab718086f40c10ef/IL--Family-Slain-Costs",
    "feature_id": "426595",
    "feature_name": "Springfield",
    "state_alpha": "IL",
    "county_name": "Sangamon",
    "county_numeric": "167",
    "prim_lat_dec": "39.8017171",
    "prim_long_dec": "-89.6437107",
    "elev_in_m": "183",
    "elev_in_ft": "600",
    "lat": 39.8017171,
    "long": -89.6437107
  },
  {
    "globaleventid": 269422497,
    "sqldate": 20130926,
    "monthyear": 201309,
    "year": 2013,
    "fractiondate": "2013.7288",
    "eventcode": 173,
    "quadclass": 4,
    "nummentions": 42,
    "numsources": 5,
    "numarticles": 38,
    "avgtone": "2.29965430681842",
    "sourceurl": "http://www.businessweek.com/ap/2013-09-26/spotlight-on-corruption-at-illinois-sentencing",
    "feature_id": "423587",
    "feature_name": "Chicago",
    "state_alpha": "IL",
    "county_name": "Cook",
    "county_numeric": "031",
    "prim_lat_dec": "41.850033",
    "prim_long_dec": "-87.6500523",
    "elev_in_m": "179",
    "elev_in_ft": "587",
    "lat": 41.850033,
    "long": -87.6500523
  },
  {
    "globaleventid": 269422494,
    "sqldate": 20130926,
    "monthyear": 201309,
    "year": 2013,
    "fractiondate": "2013.7288",
    "eventcode": 173,
    "quadclass": 4,
    "nummentions": 6,
    "numsources": 1,
    "numarticles": 6,
    "avgtone": "0.78740157480315",
    "sourceurl": "http://www.kfvs12.com/story/23538319/carbondale-man-sentenced-for-convenience-store-burglary",
    "feature_id": "405578",
    "feature_name": "Carbondale",
    "state_alpha": "IL",
    "county_name": "Jackson",
    "county_numeric": "077",
    "prim_lat_dec": "37.7272727",
    "prim_long_dec": "-89.2167501",
    "elev_in_m": "126",
    "elev_in_ft": "413",
    "lat": 37.7272727,
    "long": -89.2167501
  },
  {
    "globaleventid": 269422488,
    "sqldate": 20130926,
    "monthyear": 201309,
    "year": 2013,
    "fractiondate": "2013.7288",
    "eventcode": 173,
    "quadclass": 4,
    "nummentions": 2,
    "numsources": 1,
    "numarticles": 2,
    "avgtone": "0.931098696461825",
    "sourceurl": "http://hawaiitribune-herald.com/sections/news/local-news/ex-cop-murderer-parole.html",
    "feature_id": "366212",
    "feature_name": "Honolulu",
    "state_alpha": "HI",
    "county_name": "Honolulu",
    "county_numeric": "003",
    "prim_lat_dec": "21.3069444",
    "prim_long_dec": "-157.8583333",
    "elev_in_m": "5",
    "elev_in_ft": "16",
    "lat": 21.3069444,
    "long": -157.8583333
  },
  {
    "globaleventid": 269422485,
    "sqldate": 20130926,
    "monthyear": 201309,
    "year": 2013,
    "fractiondate": "2013.7288",
    "eventcode": 173,
    "quadclass": 4,
    "nummentions": 4,
    "numsources": 1,
    "numarticles": 4,
    "avgtone": "0.48780487804878",
    "sourceurl": "http://www.walb.com/story/23537700/moody-airmans-home-burglarized-again-after-it-was-set-on-fire",
    "feature_id": "324649",
    "feature_name": "Valdosta",
    "state_alpha": "GA",
    "county_name": "Lowndes",
    "county_numeric": "185",
    "prim_lat_dec": "30.8327022",
    "prim_long_dec": "-83.2784851",
    "elev_in_m": "67",
    "elev_in_ft": "220",
    "lat": 30.8327022,
    "long": -83.2784851
  },
  {
    "globaleventid": 269422481,
    "sqldate": 20130926,
    "monthyear": 201309,
    "year": 2013,
    "fractiondate": "2013.7288",
    "eventcode": 173,
    "quadclass": 4,
    "nummentions": 11,
    "numsources": 4,
    "numarticles": 10,
    "avgtone": "0.0",
    "sourceurl": "http://www.nbcdfw.com/news/local/Former-Hand-Surgeon-Sentenced-in-Flight-Attendant-Assault-225360582.html",
    "feature_id": "295004",
    "feature_name": "Miami",
    "state_alpha": "FL",
    "county_name": "Miami-Dade",
    "county_numeric": "086",
    "prim_lat_dec": "25.7742658",
    "prim_long_dec": "-80.1936589",
    "elev_in_m": "2",
    "elev_in_ft": "7",
    "lat": 25.7742658,
    "long": -80.1936589
  },
  {
    "globaleventid": 269422480,
    "sqldate": 20130926,
    "monthyear": 201309,
    "year": 2013,
    "fractiondate": "2013.7288",
    "eventcode": 173,
    "quadclass": 4,
    "nummentions": 4,
    "numsources": 3,
    "numarticles": 4,
    "avgtone": "0.134408602150538",
    "sourceurl": "http://www.texasguardian.com/index.php/sid/217342212/scat/42acbe017a594c30",
    "feature_id": "1380948",
    "feature_name": "Houston",
    "state_alpha": "TX",
    "county_name": "Harris",
    "county_numeric": "201",
    "prim_lat_dec": "29.7632836",
    "prim_long_dec": "-95.3632715",
    "elev_in_m": "11",
    "elev_in_ft": "36",
    "lat": 29.7632836,
    "long": -95.3632715
  },
  {
    "globaleventid": 269422475,
    "sqldate": 20130926,
    "monthyear": 201309,
    "year": 2013,
    "fractiondate": "2013.7288",
    "eventcode": 173,
    "quadclass": 4,
    "nummentions": 15,
    "numsources": 2,
    "numarticles": 15,
    "avgtone": "1.95642507781236",
    "sourceurl": "http://www.miamiherald.com/2013/09/26/3651697/criminal-who-tossed-gun-gets-17.html",
    "feature_id": "288030",
    "feature_name": "Ocala",
    "state_alpha": "FL",
    "county_name": "Marion",
    "county_numeric": "083",
    "prim_lat_dec": "29.1871986",
    "prim_long_dec": "-82.1400923",
    "elev_in_m": "21",
    "elev_in_ft": "69",
    "lat": 29.1871986,
    "long": -82.1400923
  },
  {
    "globaleventid": 269422474,
    "sqldate": 20130926,
    "monthyear": 201309,
    "year": 2013,
    "fractiondate": "2013.7288",
    "eventcode": 173,
    "quadclass": 4,
    "nummentions": 10,
    "numsources": 1,
    "numarticles": 10,
    "avgtone": "2.10526315789474",
    "sourceurl": "http://losangeles.cbslocal.com/2013/09/26/dodger-fan-fatally-stabbed-following-bay-area-game-versus-giants/",
    "feature_id": "277593",
    "feature_name": "San Francisco",
    "state_alpha": "CA",
    "county_name": "San Francisco",
    "county_numeric": "075",
    "prim_lat_dec": "37.775",
    "prim_long_dec": "-122.4194444",
    "elev_in_m": "16",
    "elev_in_ft": "52",
    "lat": 37.775,
    "long": -122.4194444
  },
  {
    "globaleventid": 269422470,
    "sqldate": 20130926,
    "monthyear": 201309,
    "year": 2013,
    "fractiondate": "2013.7288",
    "eventcode": 173,
    "quadclass": 4,
    "nummentions": 4,
    "numsources": 1,
    "numarticles": 4,
    "avgtone": "1.0211027910143",
    "sourceurl": "http://capegazette.villagesoup.com/p/shooter-says-he-fired-at-police-homes-to-appear-cool/1060111",
    "feature_id": "213993",
    "feature_name": "Georgetown",
    "state_alpha": "DE",
    "county_name": "Sussex",
    "county_numeric": "005",
    "prim_lat_dec": "38.6901134",
    "prim_long_dec": "-75.3854728",
    "elev_in_m": "16",
    "elev_in_ft": "52",
    "lat": 38.6901134,
    "long": -75.3854728
  },
  {
    "globaleventid": 269422468,
    "sqldate": 20130926,
    "monthyear": 201309,
    "year": 2013,
    "fractiondate": "2013.7288",
    "eventcode": 173,
    "quadclass": 4,
    "nummentions": 2,
    "numsources": 1,
    "numarticles": 2,
    "avgtone": "1.47783251231527",
    "sourceurl": "http://www.wfsb.com/story/23539724/man-arrested-after-drugs-weapons-seized-from-branford-home",
    "feature_id": "208440",
    "feature_name": "Leetes Island",
    "state_alpha": "CT",
    "county_name": "New Haven",
    "county_numeric": "009",
    "prim_lat_dec": "41.2653751",
    "prim_long_dec": "-72.7142626",
    "elev_in_m": "2",
    "elev_in_ft": "7",
    "lat": 41.2653751,
    "long": -72.7142626
  },
  {
    "globaleventid": 269422466,
    "sqldate": 20130926,
    "monthyear": 201309,
    "year": 2013,
    "fractiondate": "2013.7288",
    "eventcode": 173,
    "quadclass": 4,
    "nummentions": 2,
    "numsources": 1,
    "numarticles": 2,
    "avgtone": "1.16959064327485",
    "sourceurl": "http://www.nydailynews.com/new-york/brooklyn/bklyn-man-involved-fatal-shooting-woman-56-40-years-jail-article-1.1468464",
    "feature_id": "944840",
    "feature_name": "Brooklyn",
    "state_alpha": "NY",
    "county_name": "Delaware",
    "county_numeric": "025",
    "prim_lat_dec": "42.3442482",
    "prim_long_dec": "-75.1704468",
    "elev_in_m": "366",
    "elev_in_ft": "1201",
    "lat": 42.3442482,
    "long": -75.1704468
  },
  {
    "globaleventid": 269422461,
    "sqldate": 20130926,
    "monthyear": 201309,
    "year": 2013,
    "fractiondate": "2013.7288",
    "eventcode": 173,
    "quadclass": 4,
    "nummentions": 12,
    "numsources": 3,
    "numarticles": 12,
    "avgtone": "0.0",
    "sourceurl": "http://www.cbs8.com/story/23542815/former-guatemala-soldier-on-trial-in-california",
    "feature_id": "1668251",
    "feature_name": "Moreno Valley",
    "state_alpha": "CA",
    "county_name": "Riverside",
    "county_numeric": "065",
    "prim_lat_dec": "33.937517",
    "prim_long_dec": "-117.2305944",
    "elev_in_m": "497",
    "elev_in_ft": "1631",
    "lat": 33.937517,
    "long": -117.2305944
  },
  {
    "globaleventid": 269422458,
    "sqldate": 20130926,
    "monthyear": 201309,
    "year": 2013,
    "fractiondate": "2013.7288",
    "eventcode": 173,
    "quadclass": 4,
    "nummentions": 2,
    "numsources": 1,
    "numarticles": 2,
    "avgtone": "0.0",
    "sourceurl": "http://sanfrancisco.cbslocal.com/2013/09/26/santa-clara-teacher-charged-with-statutory-rape-of-student/",
    "feature_id": "1654953",
    "feature_name": "Santa Clara",
    "state_alpha": "CA",
    "county_name": "Santa Clara",
    "county_numeric": "085",
    "prim_lat_dec": "37.354108",
    "prim_long_dec": "-121.9552356",
    "elev_in_m": "22",
    "elev_in_ft": "72",
    "lat": 37.354108,
    "long": -121.9552356
  },
  {
    "globaleventid": 269422456,
    "sqldate": 20130926,
    "monthyear": 201309,
    "year": 2013,
    "fractiondate": "2013.7288",
    "eventcode": 173,
    "quadclass": 4,
    "nummentions": 8,
    "numsources": 2,
    "numarticles": 8,
    "avgtone": "2.06793206793207",
    "sourceurl": "http://www.myfoxdetroit.com/story/23540316/murder-charges-dismissed-against-michigan-brothers",
    "feature_id": "1617959",
    "feature_name": "Detroit",
    "state_alpha": "MI",
    "county_name": "Wayne",
    "county_numeric": "163",
    "prim_lat_dec": "42.331427",
    "prim_long_dec": "-83.0457538",
    "elev_in_m": "182",
    "elev_in_ft": "597",
    "lat": 42.331427,
    "long": -83.0457538
  },
  {
    "globaleventid": 269422455,
    "sqldate": 20130926,
    "monthyear": 201309,
    "year": 2013,
    "fractiondate": "2013.7288",
    "eventcode": 173,
    "quadclass": 4,
    "nummentions": 2,
    "numsources": 1,
    "numarticles": 2,
    "avgtone": "0.0",
    "sourceurl": "http://www.mlive.com/news/muskegon/index.ssf/2013/09/17-year-old_muskegon_man_alleg.html",
    "feature_id": "1620963",
    "feature_name": "Muskegon",
    "state_alpha": "MI",
    "county_name": "Muskegon",
    "county_numeric": "121",
    "prim_lat_dec": "43.2341813",
    "prim_long_dec": "-86.2483921",
    "elev_in_m": "188",
    "elev_in_ft": "617",
    "lat": 43.2341813,
    "long": -86.2483921
  },
  {
    "globaleventid": 269422452,
    "sqldate": 20130926,
    "monthyear": 201309,
    "year": 2013,
    "fractiondate": "2013.7288",
    "eventcode": 173,
    "quadclass": 4,
    "nummentions": 4,
    "numsources": 1,
    "numarticles": 4,
    "avgtone": "0.442477876106195",
    "sourceurl": "http://www.registercitizen.com/general-news/20130925/new-milford-man-sentenced-to-five-years-in-prison-after-shooting-himself",
    "feature_id": "1512604",
    "feature_name": "Ridgefield",
    "state_alpha": "WA",
    "county_name": "Clark",
    "county_numeric": "011",
    "prim_lat_dec": "45.815115",
    "prim_long_dec": "-122.7426009",
    "elev_in_m": "34",
    "elev_in_ft": "112",
    "lat": 45.815115,
    "long": -122.7426009
  },
  {
    "globaleventid": 269422451,
    "sqldate": 20130926,
    "monthyear": 201309,
    "year": 2013,
    "fractiondate": "2013.7288",
    "eventcode": 173,
    "quadclass": 4,
    "nummentions": 8,
    "numsources": 1,
    "numarticles": 8,
    "avgtone": "3.20284697508897",
    "sourceurl": "http://www.leesburgtoday.com/public_safety/man-sentenced-for-leesburg-shoe-store-robbery/article_62cab95c-26d9-11e3-8cbc-0019bb2963f4.html",
    "feature_id": "1498505",
    "feature_name": "Leesburg",
    "state_alpha": "VA",
    "county_name": "Loudoun",
    "county_numeric": "107",
    "prim_lat_dec": "39.1156615",
    "prim_long_dec": "-77.5636015",
    "elev_in_m": "103",
    "elev_in_ft": "338",
    "lat": 39.1156615,
    "long": -77.5636015
  },
  {
    "globaleventid": 269422448,
    "sqldate": 20130926,
    "monthyear": 201309,
    "year": 2013,
    "fractiondate": "2013.7288",
    "eventcode": 173,
    "quadclass": 4,
    "nummentions": 10,
    "numsources": 2,
    "numarticles": 10,
    "avgtone": "0.458342574111037",
    "sourceurl": "http://www.ksl.com/?sid=27019146&nid=148",
    "feature_id": "1441004",
    "feature_name": "Farmington",
    "state_alpha": "UT",
    "county_name": "Davis",
    "county_numeric": "011",
    "prim_lat_dec": "40.9804999",
    "prim_long_dec": "-111.8874392",
    "elev_in_m": "1312",
    "elev_in_ft": "4304",
    "lat": 40.9804999,
    "long": -111.8874392
  },
  {
    "globaleventid": 269422447,
    "sqldate": 20130926,
    "monthyear": 201309,
    "year": 2013,
    "fractiondate": "2013.7288",
    "eventcode": 173,
    "quadclass": 4,
    "nummentions": 1,
    "numsources": 1,
    "numarticles": 1,
    "avgtone": "2.68817204301075",
    "sourceurl": "http://www.newsminer.com/timeline-of-key-events-in-the-john-hartman-murder-case/article_be09b476-271f-11e3-aa69-0019bb30f31a.html",
    "feature_id": "1401958",
    "feature_name": "Fairbanks",
    "state_alpha": "AK",
    "county_name": "Fairbanks North Star",
    "county_numeric": "090",
    "prim_lat_dec": "64.8377778",
    "prim_long_dec": "-147.7163889",
    "elev_in_m": "136",
    "elev_in_ft": "446",
    "lat": 64.8377778,
    "long": -147.7163889
  },
  {
    "globaleventid": 269422446,
    "sqldate": 20130926,
    "monthyear": 201309,
    "year": 2013,
    "fractiondate": "2013.7288",
    "eventcode": 173,
    "quadclass": 4,
    "nummentions": 1,
    "numsources": 1,
    "numarticles": 1,
    "avgtone": "2.68817204301075",
    "sourceurl": "http://www.newsminer.com/timeline-of-key-events-in-the-john-hartman-murder-case/article_be09b476-271f-11e3-aa69-0019bb30f31a.html",
    "feature_id": "1401958",
    "feature_name": "Fairbanks",
    "state_alpha": "AK",
    "county_name": "Fairbanks North Star",
    "county_numeric": "090",
    "prim_lat_dec": "64.8377778",
    "prim_long_dec": "-147.7163889",
    "elev_in_m": "136",
    "elev_in_ft": "446",
    "lat": 64.8377778,
    "long": -147.7163889
  },
  {
    "globaleventid": 269422442,
    "sqldate": 20130926,
    "monthyear": 201309,
    "year": 2013,
    "fractiondate": "2013.7288",
    "eventcode": 173,
    "quadclass": 4,
    "nummentions": 20,
    "numsources": 1,
    "numarticles": 20,
    "avgtone": "0.656512605042017",
    "sourceurl": "http://www.mysanantonio.com/news/local/article/Serial-robber-sentenced-in-federal-court-4847325.php",
    "feature_id": "1380951",
    "feature_name": "San Antonio",
    "state_alpha": "TX",
    "county_name": "Bexar",
    "county_numeric": "029",
    "prim_lat_dec": "29.4241219",
    "prim_long_dec": "-98.4936282",
    "elev_in_m": "198",
    "elev_in_ft": "650",
    "lat": 29.4241219,
    "long": -98.4936282
  },
  {
    "globaleventid": 269422438,
    "sqldate": 20130926,
    "monthyear": 201309,
    "year": 2013,
    "fractiondate": "2013.7288",
    "eventcode": 173,
    "quadclass": 4,
    "nummentions": 80,
    "numsources": 9,
    "numarticles": 80,
    "avgtone": "1.46409456730817",
    "sourceurl": "http://app1.kuhf.org/articles/1380210456-HPD-Briefs-Houston-Agencies-On-New-Boarding-Home-Ordinance.html",
    "feature_id": "1380948",
    "feature_name": "Houston",
    "state_alpha": "TX",
    "county_name": "Harris",
    "county_numeric": "201",
    "prim_lat_dec": "29.7632836",
    "prim_long_dec": "-95.3632715",
    "elev_in_m": "11",
    "elev_in_ft": "36",
    "lat": 29.7632836,
    "long": -95.3632715
  },
  {
    "globaleventid": 269422435,
    "sqldate": 20130926,
    "monthyear": 201309,
    "year": 2013,
    "fractiondate": "2013.7288",
    "eventcode": 173,
    "quadclass": 4,
    "nummentions": 2,
    "numsources": 1,
    "numarticles": 2,
    "avgtone": "2.01612903225806",
    "sourceurl": "http://www.krgv.com/news/here-is-the-latest-texas-news-from-the-associated-press-529565",
    "feature_id": "1380944",
    "feature_name": "Dallas",
    "state_alpha": "TX",
    "county_name": "Dallas",
    "county_numeric": "113",
    "prim_lat_dec": "32.7830556",
    "prim_long_dec": "-96.8066667",
    "elev_in_m": "128",
    "elev_in_ft": "420",
    "lat": 32.7830556,
    "long": -96.8066667
  },
  {
    "globaleventid": 269422434,
    "sqldate": 20130926,
    "monthyear": 201309,
    "year": 2013,
    "fractiondate": "2013.7288",
    "eventcode": 173,
    "quadclass": 4,
    "nummentions": 10,
    "numsources": 1,
    "numarticles": 10,
    "avgtone": "0.617283950617284",
    "sourceurl": "http://dfw.cbslocal.com/2013/09/26/man-gets-40-years-jail-for-dfw-bank-robberies/",
    "feature_id": "1380944",
    "feature_name": "Dallas",
    "state_alpha": "TX",
    "county_name": "Dallas",
    "county_numeric": "113",
    "prim_lat_dec": "32.7830556",
    "prim_long_dec": "-96.8066667",
    "elev_in_m": "128",
    "elev_in_ft": "420",
    "lat": 32.7830556,
    "long": -96.8066667
  },
  {
    "globaleventid": 269422433,
    "sqldate": 20130926,
    "monthyear": 201309,
    "year": 2013,
    "fractiondate": "2013.7288",
    "eventcode": 173,
    "quadclass": 4,
    "nummentions": 1,
    "numsources": 1,
    "numarticles": 1,
    "avgtone": "1.0482180293501",
    "sourceurl": "http://www.star-telegram.com/2013/09/26/5197628/azle-man-sentenced-to-life-without.html",
    "feature_id": "1329893",
    "feature_name": "Azle",
    "state_alpha": "TX",
    "county_name": "Tarrant",
    "county_numeric": "439",
    "prim_lat_dec": "32.8951262",
    "prim_long_dec": "-97.5458565",
    "elev_in_m": "217",
    "elev_in_ft": "712",
    "lat": 32.8951262,
    "long": -97.5458565
  },
  {
    "globaleventid": 269422431,
    "sqldate": 20130926,
    "monthyear": 201309,
    "year": 2013,
    "fractiondate": "2013.7288",
    "eventcode": 173,
    "quadclass": 4,
    "nummentions": 8,
    "numsources": 1,
    "numarticles": 8,
    "avgtone": "0.0",
    "sourceurl": "http://www.tribtown.com/view/story/a7face35a4ae49d0b2a30534e37149ba/SD--Cigarette-Shooting",
    "feature_id": "1265333",
    "feature_name": "Rapid City",
    "state_alpha": "SD",
    "county_name": "Pennington",
    "county_numeric": "103",
    "prim_lat_dec": "44.0805434",
    "prim_long_dec": "-103.2310149",
    "elev_in_m": "988",
    "elev_in_ft": "3241",
    "lat": 44.0805434,
    "long": -103.2310149
  },
  {
    "globaleventid": 269422428,
    "sqldate": 20130926,
    "monthyear": 201309,
    "year": 2013,
    "fractiondate": "2013.7288",
    "eventcode": 173,
    "quadclass": 4,
    "nummentions": 2,
    "numsources": 1,
    "numarticles": 2,
    "avgtone": "2.09424083769634",
    "sourceurl": "http://www.myrtlebeachonline.com/2013/09/26/3734951/sc-man-gets-40-years-for-child.html",
    "feature_id": "1249770",
    "feature_name": "Myrtle Beach",
    "state_alpha": "SC",
    "county_name": "Horry",
    "county_numeric": "051",
    "prim_lat_dec": "33.6890603",
    "prim_long_dec": "-78.8866943",
    "elev_in_m": "8",
    "elev_in_ft": "26",
    "lat": 33.6890603,
    "long": -78.8866943
  },
  {
    "globaleventid": 269422427,
    "sqldate": 20130926,
    "monthyear": 201309,
    "year": 2013,
    "fractiondate": "2013.7288",
    "eventcode": 173,
    "quadclass": 4,
    "nummentions": 1,
    "numsources": 1,
    "numarticles": 1,
    "avgtone": "0.0",
    "sourceurl": "http://www.post-gazette.com/stories/local/region/man-accused-of-assaulting-troopers-walks-out-of-pittsburgh-hospital-is-arrested-again-705022/",
    "feature_id": "1213958",
    "feature_name": "Du Bois",
    "state_alpha": "PA",
    "county_name": "Clearfield",
    "county_numeric": "033",
    "prim_lat_dec": "41.1192282",
    "prim_long_dec": "-78.7600297",
    "elev_in_m": "429",
    "elev_in_ft": "1407",
    "lat": 41.1192282,
    "long": -78.7600297
  },
  {
    "globaleventid": 269422426,
    "sqldate": 20130926,
    "monthyear": 201309,
    "year": 2013,
    "fractiondate": "2013.7288",
    "eventcode": 173,
    "quadclass": 4,
    "nummentions": 1,
    "numsources": 1,
    "numarticles": 1,
    "avgtone": "0.0",
    "sourceurl": "http://www.post-gazette.com/stories/local/region/man-accused-of-assaulting-troopers-walks-out-of-pittsburgh-hospital-is-arrested-again-705022/",
    "feature_id": "1192863",
    "feature_name": "Luthersburg",
    "state_alpha": "PA",
    "county_name": "Clearfield",
    "county_numeric": "033",
    "prim_lat_dec": "41.0533945",
    "prim_long_dec": "-78.7191959",
    "elev_in_m": "558",
    "elev_in_ft": "1831",
    "lat": 41.0533945,
    "long": -78.7191959
  },
  {
    "globaleventid": 269422422,
    "sqldate": 20130926,
    "monthyear": 201309,
    "year": 2013,
    "fractiondate": "2013.7288",
    "eventcode": 173,
    "quadclass": 4,
    "nummentions": 4,
    "numsources": 2,
    "numarticles": 4,
    "avgtone": "0.321659148815654",
    "sourceurl": "http://www.thereporteronline.com/general-news/20130926/police-log-whitpain-udublin",
    "feature_id": "1209052",
    "feature_name": "Philadelphia",
    "state_alpha": "PA",
    "county_name": "Philadelphia",
    "county_numeric": "101",
    "prim_lat_dec": "39.952335",
    "prim_long_dec": "-75.163789",
    "elev_in_m": "14",
    "elev_in_ft": "46",
    "lat": 39.952335,
    "long": -75.163789
  },
  {
    "globaleventid": 269422421,
    "sqldate": 20130926,
    "monthyear": 201309,
    "year": 2013,
    "fractiondate": "2013.7288",
    "eventcode": 173,
    "quadclass": 4,
    "nummentions": 1,
    "numsources": 1,
    "numarticles": 1,
    "avgtone": "0.285408490902604",
    "sourceurl": "http://www.montgomerynews.com/articles/2013/09/26/ambler_gazette/news/doc523c866cd4f3e331958345.txt",
    "feature_id": "1175020",
    "feature_name": "Fort Washington",
    "state_alpha": "PA",
    "county_name": "Montgomery",
    "county_numeric": "091",
    "prim_lat_dec": "40.1417761",
    "prim_long_dec": "-75.209065",
    "elev_in_m": "70",
    "elev_in_ft": "230",
    "lat": 40.1417761,
    "long": -75.209065
  },
  {
    "globaleventid": 269422420,
    "sqldate": 20130926,
    "monthyear": 201309,
    "year": 2013,
    "fractiondate": "2013.7288",
    "eventcode": 173,
    "quadclass": 4,
    "nummentions": 6,
    "numsources": 2,
    "numarticles": 6,
    "avgtone": "0.321659148815654",
    "sourceurl": "http://www.thereporteronline.com/general-news/20130926/police-log-whitpain-udublin",
    "feature_id": "1209052",
    "feature_name": "Philadelphia",
    "state_alpha": "PA",
    "county_name": "Philadelphia",
    "county_numeric": "101",
    "prim_lat_dec": "39.952335",
    "prim_long_dec": "-75.163789",
    "elev_in_m": "14",
    "elev_in_ft": "46",
    "lat": 39.952335,
    "long": -75.163789
  },
  {
    "globaleventid": 269422419,
    "sqldate": 20130926,
    "monthyear": 201309,
    "year": 2013,
    "fractiondate": "2013.7288",
    "eventcode": 173,
    "quadclass": 4,
    "nummentions": 9,
    "numsources": 1,
    "numarticles": 5,
    "avgtone": "0.864394854440648",
    "sourceurl": "http://www.montgomerynews.com/articles/2013/09/26/glenside_news_globe_times_chronicle/news/doc523c7c23c298e649545416.txt",
    "feature_id": "1191499",
    "feature_name": "Willow Grove",
    "state_alpha": "PA",
    "county_name": "Lawrence",
    "county_numeric": "073",
    "prim_lat_dec": "40.9533947",
    "prim_long_dec": "-80.3828432",
    "elev_in_m": "236",
    "elev_in_ft": "774",
    "lat": 40.9533947,
    "long": -80.3828432
  },
  {
    "globaleventid": 269422418,
    "sqldate": 20130926,
    "monthyear": 201309,
    "year": 2013,
    "fractiondate": "2013.7288",
    "eventcode": 173,
    "quadclass": 4,
    "nummentions": 1,
    "numsources": 1,
    "numarticles": 1,
    "avgtone": "0.357909806728704",
    "sourceurl": "http://www.thereporteronline.com/general-news/20130926/police-log-whitpain-udublin",
    "feature_id": "1191499",
    "feature_name": "Willow Grove",
    "state_alpha": "PA",
    "county_name": "Lawrence",
    "county_numeric": "073",
    "prim_lat_dec": "40.9533947",
    "prim_long_dec": "-80.3828432",
    "elev_in_m": "236",
    "elev_in_ft": "774",
    "lat": 40.9533947,
    "long": -80.3828432
  },
  {
    "globaleventid": 269422417,
    "sqldate": 20130926,
    "monthyear": 201309,
    "year": 2013,
    "fractiondate": "2013.7288",
    "eventcode": 173,
    "quadclass": 4,
    "nummentions": 1,
    "numsources": 1,
    "numarticles": 1,
    "avgtone": "0.285408490902604",
    "sourceurl": "http://www.montgomerynews.com/articles/2013/09/26/ambler_gazette/news/doc523c866cd4f3e331958345.txt",
    "feature_id": "1497051",
    "feature_name": "Norfolk",
    "state_alpha": "VA",
    "county_name": "Norfolk (city)",
    "county_numeric": "710",
    "prim_lat_dec": "36.8468146",
    "prim_long_dec": "-76.2852183",
    "elev_in_m": "3",
    "elev_in_ft": "10",
    "lat": 36.8468146,
    "long": -76.2852183
  },
  {
    "globaleventid": 269422416,
    "sqldate": 20130926,
    "monthyear": 201309,
    "year": 2013,
    "fractiondate": "2013.7288",
    "eventcode": 173,
    "quadclass": 4,
    "nummentions": 10,
    "numsources": 2,
    "numarticles": 7,
    "avgtone": "0.307158885650434",
    "sourceurl": "http://www.montgomerynews.com/articles/2013/09/26/ambler_gazette/news/doc523c866cd4f3e331958345.txt",
    "feature_id": "1174917",
    "feature_name": "Flourtown",
    "state_alpha": "PA",
    "county_name": "Montgomery",
    "county_numeric": "091",
    "prim_lat_dec": "40.1034436",
    "prim_long_dec": "-75.2123995",
    "elev_in_m": "57",
    "elev_in_ft": "187",
    "lat": 40.1034436,
    "long": -75.2123995
  },
  {
    "globaleventid": 269422415,
    "sqldate": 20130926,
    "monthyear": 201309,
    "year": 2013,
    "fractiondate": "2013.7288",
    "eventcode": 173,
    "quadclass": 4,
    "nummentions": 2,
    "numsources": 1,
    "numarticles": 2,
    "avgtone": "0.0",
    "sourceurl": "http://www.goerie.com/article/20130926/NEWS02/309269924/&apos",
    "feature_id": "1174305",
    "feature_name": "Erie",
    "state_alpha": "PA",
    "county_name": "Erie",
    "county_numeric": "049",
    "prim_lat_dec": "42.1292241",
    "prim_long_dec": "-80.085059",
    "elev_in_m": "199",
    "elev_in_ft": "653",
    "lat": 42.1292241,
    "long": -80.085059
  },
  {
    "globaleventid": 269422413,
    "sqldate": 20130926,
    "monthyear": 201309,
    "year": 2013,
    "fractiondate": "2013.7288",
    "eventcode": 173,
    "quadclass": 4,
    "nummentions": 4,
    "numsources": 1,
    "numarticles": 4,
    "avgtone": "0.384615384615385",
    "sourceurl": "http://www.wkbn.com/2013/09/26/woman-pleads-guilty-in-child-porn-case/",
    "feature_id": "1064362",
    "feature_name": "Austintown",
    "state_alpha": "OH",
    "county_name": "Mahoning",
    "county_numeric": "099",
    "prim_lat_dec": "41.1017247",
    "prim_long_dec": "-80.7645239",
    "elev_in_m": "344",
    "elev_in_ft": "1129",
    "lat": 41.1017247,
    "long": -80.7645239
  },
  {
    "globaleventid": 269422412,
    "sqldate": 20130926,
    "monthyear": 201309,
    "year": 2013,
    "fractiondate": "2013.7288",
    "eventcode": 173,
    "quadclass": 4,
    "nummentions": 4,
    "numsources": 1,
    "numarticles": 4,
    "avgtone": "2.60078023407022",
    "sourceurl": "http://www.toledoblade.com/Politics/2013/09/26/2-men-accusedof-funneling-cashto-candidates.html",
    "feature_id": "1048646",
    "feature_name": "Cuyahoga Falls",
    "state_alpha": "OH",
    "county_name": "Summit",
    "county_numeric": "153",
    "prim_lat_dec": "41.1339449",
    "prim_long_dec": "-81.4845585",
    "elev_in_m": "313",
    "elev_in_ft": "1027",
    "lat": 41.1339449,
    "long": -81.4845585
  },
  {
    "globaleventid": 269422410,
    "sqldate": 20130926,
    "monthyear": 201309,
    "year": 2013,
    "fractiondate": "2013.7288",
    "eventcode": 173,
    "quadclass": 4,
    "nummentions": 48,
    "numsources": 5,
    "numarticles": 48,
    "avgtone": "1.52922998245282",
    "sourceurl": "http://www.seattlepi.com/news/science/article/NC-mechanic-sentenced-for-fake-inspections-4845353.php",
    "feature_id": "1019610",
    "feature_name": "Charlotte",
    "state_alpha": "NC",
    "county_name": "Mecklenburg",
    "county_numeric": "119",
    "prim_lat_dec": "35.2270869",
    "prim_long_dec": "-80.8431268",
    "elev_in_m": "232",
    "elev_in_ft": "761",
    "lat": 35.2270869,
    "long": -80.8431268
  },
  {
    "globaleventid": 269422409,
    "sqldate": 20130926,
    "monthyear": 201309,
    "year": 2013,
    "fractiondate": "2013.7288",
    "eventcode": 172,
    "quadclass": 4,
    "nummentions": 6,
    "numsources": 1,
    "numarticles": 6,
    "avgtone": "0.390625",
    "sourceurl": "http://boston.cbslocal.com/2013/09/26/salem-state-stabbing-suspect-caught-in-upstate-new-york/",
    "feature_id": "614337",
    "feature_name": "Salem",
    "state_alpha": "MA",
    "county_name": "Essex",
    "county_numeric": "009",
    "prim_lat_dec": "42.51954",
    "prim_long_dec": "-70.8967155",
    "elev_in_m": "4",
    "elev_in_ft": "13",
    "lat": 42.51954,
    "long": -70.8967155
  },
  {
    "globaleventid": 269422408,
    "sqldate": 20130926,
    "monthyear": 201309,
    "year": 2013,
    "fractiondate": "2013.7288",
    "eventcode": 1711,
    "quadclass": 4,
    "nummentions": 8,
    "numsources": 1,
    "numarticles": 8,
    "avgtone": "0.980392156862745",
    "sourceurl": "http://www.detroitnews.com/article/20130926/METRO06/309260098/1361/rss",
    "feature_id": "626714",
    "feature_name": "Genesee",
    "state_alpha": "MI",
    "county_name": "Genesee",
    "county_numeric": "049",
    "prim_lat_dec": "43.1125262",
    "prim_long_dec": "-83.6177333",
    "elev_in_m": "230",
    "elev_in_ft": "755",
    "lat": 43.1125262,
    "long": -83.6177333
  },
  {
    "globaleventid": 269422404,
    "sqldate": 20130926,
    "monthyear": 201309,
    "year": 2013,
    "fractiondate": "2013.7288",
    "eventcode": 160,
    "quadclass": 4,
    "nummentions": 1,
    "numsources": 1,
    "numarticles": 1,
    "avgtone": "2.25419664268585",
    "sourceurl": "http://indiancountrytodaymedianetwork.com/2013/09/26/wound-wont-heal-epas-band-aid-idaho-phosphate-pollution-151397",
    "feature_id": "400083",
    "feature_name": "Shoshone",
    "state_alpha": "ID",
    "county_name": "Lincoln",
    "county_numeric": "063",
    "prim_lat_dec": "42.9360165",
    "prim_long_dec": "-114.4058752",
    "elev_in_m": "1208",
    "elev_in_ft": "3963",
    "lat": 42.9360165,
    "long": -114.4058752
  },
  {
    "globaleventid": 269422399,
    "sqldate": 20130926,
    "monthyear": 201309,
    "year": 2013,
    "fractiondate": "2013.7288",
    "eventcode": 130,
    "quadclass": 3,
    "nummentions": 6,
    "numsources": 1,
    "numarticles": 6,
    "avgtone": "0.0",
    "sourceurl": "http://www.sfgate.com/news/crime/article/W-Va-man-shot-by-police-charged-with-endangerment-4846382.php",
    "feature_id": "1537358",
    "feature_name": "Clarksburg",
    "state_alpha": "WV",
    "county_name": "Harrison",
    "county_numeric": "033",
    "prim_lat_dec": "39.2806451",
    "prim_long_dec": "-80.3445341",
    "elev_in_m": "303",
    "elev_in_ft": "994",
    "lat": 39.2806451,
    "long": -80.3445341
  },
  {
    "globaleventid": 269422398,
    "sqldate": 20130926,
    "monthyear": 201309,
    "year": 2013,
    "fractiondate": "2013.7288",
    "eventcode": 130,
    "quadclass": 3,
    "nummentions": 2,
    "numsources": 1,
    "numarticles": 2,
    "avgtone": "0.0",
    "sourceurl": "http://www.sfgate.com/news/crime/article/W-Va-man-shot-by-police-charged-with-endangerment-4846382.php",
    "feature_id": "1537358",
    "feature_name": "Clarksburg",
    "state_alpha": "WV",
    "county_name": "Harrison",
    "county_numeric": "033",
    "prim_lat_dec": "39.2806451",
    "prim_long_dec": "-80.3445341",
    "elev_in_m": "303",
    "elev_in_ft": "994",
    "lat": 39.2806451,
    "long": -80.3445341
  },
  {
    "globaleventid": 269422394,
    "sqldate": 20130926,
    "monthyear": 201309,
    "year": 2013,
    "fractiondate": "2013.7288",
    "eventcode": 130,
    "quadclass": 3,
    "nummentions": 2,
    "numsources": 1,
    "numarticles": 2,
    "avgtone": "4.04761904761905",
    "sourceurl": "http://www.joplinglobe.com/local/x862168176/Authorities-warn-of-candy-containing-marijuana-in-region",
    "feature_id": "749248",
    "feature_name": "Cassville",
    "state_alpha": "MO",
    "county_name": "Barry",
    "county_numeric": "009",
    "prim_lat_dec": "36.6770111",
    "prim_long_dec": "-93.868811",
    "elev_in_m": "399",
    "elev_in_ft": "1309",
    "lat": 36.6770111,
    "long": -93.868811
  },
  {
    "globaleventid": 269422388,
    "sqldate": 20130926,
    "monthyear": 201309,
    "year": 2013,
    "fractiondate": "2013.7288",
    "eventcode": 120,
    "quadclass": 3,
    "nummentions": 2,
    "numsources": 1,
    "numarticles": 2,
    "avgtone": "0.0",
    "sourceurl": "http://www.northjersey.com/fortlee/Two_NY_men_face_drug_charges_after_Fort_Lee_traffic_stop.html",
    "feature_id": "968846",
    "feature_name": "Washington Heights",
    "state_alpha": "NY",
    "county_name": "New York",
    "county_numeric": "061",
    "prim_lat_dec": "40.8501001",
    "prim_long_dec": "-73.9354149",
    "elev_in_m": "54",
    "elev_in_ft": "177",
    "lat": 40.8501001,
    "long": -73.9354149
  },
  {
    "globaleventid": 269422386,
    "sqldate": 20130926,
    "monthyear": 201309,
    "year": 2013,
    "fractiondate": "2013.7288",
    "eventcode": 120,
    "quadclass": 3,
    "nummentions": 1,
    "numsources": 1,
    "numarticles": 1,
    "avgtone": "4.91990846681922",
    "sourceurl": "http://articles.washingtonpost.com/2013-09-22/world/42299367_1_bo-xilai-mao-zedong-s-ousted-chinese",
    "feature_id": "531871",
    "feature_name": "Washington",
    "state_alpha": "DC",
    "county_name": "District of Columbia",
    "county_numeric": "001",
    "prim_lat_dec": "38.8951118",
    "prim_long_dec": "-77.0363658",
    "elev_in_m": "7",
    "elev_in_ft": "23",
    "lat": 38.8951118,
    "long": -77.0363658
  },
  {
    "globaleventid": 269422382,
    "sqldate": 20130926,
    "monthyear": 201309,
    "year": 2013,
    "fractiondate": "2013.7288",
    "eventcode": 114,
    "quadclass": 3,
    "nummentions": 16,
    "numsources": 2,
    "numarticles": 16,
    "avgtone": "2.69952705676437",
    "sourceurl": "http://tucsoncitizen.com/usa-today-news/2013/09/25/case-against-2-brothers-in-prison-25-years-dropped/",
    "feature_id": "531871",
    "feature_name": "Washington",
    "state_alpha": "DC",
    "county_name": "District of Columbia",
    "county_numeric": "001",
    "prim_lat_dec": "38.8951118",
    "prim_long_dec": "-77.0363658",
    "elev_in_m": "7",
    "elev_in_ft": "23",
    "lat": 38.8951118,
    "long": -77.0363658
  },
  {
    "globaleventid": 269422372,
    "sqldate": 20130926,
    "monthyear": 201309,
    "year": 2013,
    "fractiondate": "2013.7288",
    "eventcode": 1123,
    "quadclass": 3,
    "nummentions": 4,
    "numsources": 1,
    "numarticles": 4,
    "avgtone": "2.10526315789474",
    "sourceurl": "http://www.wtnh.com/news/connecticut/voice-of-the-people-sept-27-2013",
    "feature_id": "211953",
    "feature_name": "West Haven",
    "state_alpha": "CT",
    "county_name": "New Haven",
    "county_numeric": "009",
    "prim_lat_dec": "41.2706527",
    "prim_long_dec": "-72.9470471",
    "elev_in_m": "4",
    "elev_in_ft": "13",
    "lat": 41.2706527,
    "long": -72.9470471
  },
  {
    "globaleventid": 269422370,
    "sqldate": 20130926,
    "monthyear": 201309,
    "year": 2013,
    "fractiondate": "2013.7288",
    "eventcode": 1123,
    "quadclass": 3,
    "nummentions": 5,
    "numsources": 1,
    "numarticles": 5,
    "avgtone": "1.1965811965812",
    "sourceurl": "http://www.carrolltonleader.com/articles/2013/09/26/carrollton_leader/news/683.txt",
    "feature_id": "1334260",
    "feature_name": "Denton",
    "state_alpha": "TX",
    "county_name": "Denton",
    "county_numeric": "121",
    "prim_lat_dec": "33.2148412",
    "prim_long_dec": "-97.1330683",
    "elev_in_m": "201",
    "elev_in_ft": "659",
    "lat": 33.2148412,
    "long": -97.1330683
  },
  {
    "globaleventid": 269422369,
    "sqldate": 20130926,
    "monthyear": 201309,
    "year": 2013,
    "fractiondate": "2013.7288",
    "eventcode": 1123,
    "quadclass": 3,
    "nummentions": 1,
    "numsources": 1,
    "numarticles": 1,
    "avgtone": "1.1965811965812",
    "sourceurl": "http://www.carrolltonleader.com/articles/2013/09/26/carrollton_leader/news/683.txt",
    "feature_id": "1332207",
    "feature_name": "Carrollton",
    "state_alpha": "TX",
    "county_name": "Dallas",
    "county_numeric": "113",
    "prim_lat_dec": "32.9537349",
    "prim_long_dec": "-96.8902816",
    "elev_in_m": "161",
    "elev_in_ft": "528",
    "lat": 32.9537349,
    "long": -96.8902816
  },
  {
    "globaleventid": 269422358,
    "sqldate": 20130926,
    "monthyear": 201309,
    "year": 2013,
    "fractiondate": "2013.7288",
    "eventcode": 112,
    "quadclass": 3,
    "nummentions": 2,
    "numsources": 1,
    "numarticles": 2,
    "avgtone": "0.604838709677419",
    "sourceurl": "http://www.ktuu.com/news/trans-alaska-pipeline-tagged-with-troopers-death-list-092613,0,5042893.story",
    "feature_id": "1402643",
    "feature_name": "Glennallen",
    "state_alpha": "AK",
    "county_name": "Valdez-Cordova (CA)",
    "county_numeric": "261",
    "prim_lat_dec": "62.1091667",
    "prim_long_dec": "-145.5463889",
    "elev_in_m": "431",
    "elev_in_ft": "1414",
    "lat": 62.1091667,
    "long": -145.5463889
  },
  {
    "globaleventid": 269422357,
    "sqldate": 20130926,
    "monthyear": 201309,
    "year": 2013,
    "fractiondate": "2013.7288",
    "eventcode": 112,
    "quadclass": 3,
    "nummentions": 12,
    "numsources": 1,
    "numarticles": 12,
    "avgtone": "0.696171231318556",
    "sourceurl": "http://www.dailymail.co.uk/news/article-2433086/Ayla-Reynolds-Mother-missing-toddler-screams-murderer-ex-boyfriend-outside-court.html?ITO=1490&ns_campaign=1490",
    "feature_id": "573692",
    "feature_name": "Portland",
    "state_alpha": "ME",
    "county_name": "Cumberland",
    "county_numeric": "005",
    "prim_lat_dec": "43.661471",
    "prim_long_dec": "-70.2553259",
    "elev_in_m": "19",
    "elev_in_ft": "62",
    "lat": 43.661471,
    "long": -70.2553259
  },
  {
    "globaleventid": 269422356,
    "sqldate": 20130926,
    "monthyear": 201309,
    "year": 2013,
    "fractiondate": "2013.7288",
    "eventcode": 112,
    "quadclass": 3,
    "nummentions": 12,
    "numsources": 1,
    "numarticles": 12,
    "avgtone": "0.696171231318556",
    "sourceurl": "http://www.dailymail.co.uk/news/article-2433086/Ayla-Reynolds-Mother-missing-toddler-screams-murderer-ex-boyfriend-outside-court.html?ITO=1490&ns_campaign=1490",
    "feature_id": "573692",
    "feature_name": "Portland",
    "state_alpha": "ME",
    "county_name": "Cumberland",
    "county_numeric": "005",
    "prim_lat_dec": "43.661471",
    "prim_long_dec": "-70.2553259",
    "elev_in_m": "19",
    "elev_in_ft": "62",
    "lat": 43.661471,
    "long": -70.2553259
  },
  {
    "globaleventid": 269422355,
    "sqldate": 20130926,
    "monthyear": 201309,
    "year": 2013,
    "fractiondate": "2013.7288",
    "eventcode": 112,
    "quadclass": 3,
    "nummentions": 2,
    "numsources": 1,
    "numarticles": 2,
    "avgtone": "0.632911392405063",
    "sourceurl": "http://www.thedailychronic.net/2013/25680/georgia-sheriffs-deputy-busted-selling-pot-patrol-car/",
    "feature_id": "325978",
    "feature_name": "Lithonia",
    "state_alpha": "GA",
    "county_name": "DeKalb",
    "county_numeric": "089",
    "prim_lat_dec": "33.7123305",
    "prim_long_dec": "-84.1051939",
    "elev_in_m": "283",
    "elev_in_ft": "928",
    "lat": 33.7123305,
    "long": -84.1051939
  },
  {
    "globaleventid": 269422351,
    "sqldate": 20130926,
    "monthyear": 201309,
    "year": 2013,
    "fractiondate": "2013.7288",
    "eventcode": 112,
    "quadclass": 3,
    "nummentions": 4,
    "numsources": 1,
    "numarticles": 4,
    "avgtone": "0.0",
    "sourceurl": "http://www.mlive.com/news/muskegon/index.ssf/2013/09/17-year-old_muskegon_man_alleg.html",
    "feature_id": "1620963",
    "feature_name": "Muskegon",
    "state_alpha": "MI",
    "county_name": "Muskegon",
    "county_numeric": "121",
    "prim_lat_dec": "43.2341813",
    "prim_long_dec": "-86.2483921",
    "elev_in_m": "188",
    "elev_in_ft": "617",
    "lat": 43.2341813,
    "long": -86.2483921
  },
  {
    "globaleventid": 269422350,
    "sqldate": 20130926,
    "monthyear": 201309,
    "year": 2013,
    "fractiondate": "2013.7288",
    "eventcode": 112,
    "quadclass": 3,
    "nummentions": 4,
    "numsources": 1,
    "numarticles": 4,
    "avgtone": "0.0",
    "sourceurl": "http://www.mlive.com/news/muskegon/index.ssf/2013/09/17-year-old_muskegon_man_alleg.html",
    "feature_id": "1620963",
    "feature_name": "Muskegon",
    "state_alpha": "MI",
    "county_name": "Muskegon",
    "county_numeric": "121",
    "prim_lat_dec": "43.2341813",
    "prim_long_dec": "-86.2483921",
    "elev_in_m": "188",
    "elev_in_ft": "617",
    "lat": 43.2341813,
    "long": -86.2483921
  },
  {
    "globaleventid": 269422348,
    "sqldate": 20130926,
    "monthyear": 201309,
    "year": 2013,
    "fractiondate": "2013.7288",
    "eventcode": 112,
    "quadclass": 3,
    "nummentions": 1,
    "numsources": 1,
    "numarticles": 1,
    "avgtone": "2.55152109911678",
    "sourceurl": "http://www.benningtonbanner.com/localnews/ci_24177466/operation-county-strike-two-brings-16-suspected-drug",
    "feature_id": "1461117",
    "feature_name": "Manchester",
    "state_alpha": "VT",
    "county_name": "Bennington",
    "county_numeric": "003",
    "prim_lat_dec": "43.1636875",
    "prim_long_dec": "-73.0723269",
    "elev_in_m": "270",
    "elev_in_ft": "886",
    "lat": 43.1636875,
    "long": -73.0723269
  },
  {
    "globaleventid": 269422347,
    "sqldate": 20130926,
    "monthyear": 201309,
    "year": 2013,
    "fractiondate": "2013.7288",
    "eventcode": 112,
    "quadclass": 3,
    "nummentions": 4,
    "numsources": 1,
    "numarticles": 4,
    "avgtone": "2.55152109911678",
    "sourceurl": "http://www.benningtonbanner.com/localnews/ci_24177466/operation-county-strike-two-brings-16-suspected-drug",
    "feature_id": "1461117",
    "feature_name": "Manchester",
    "state_alpha": "VT",
    "county_name": "Bennington",
    "county_numeric": "003",
    "prim_lat_dec": "43.1636875",
    "prim_long_dec": "-73.0723269",
    "elev_in_m": "270",
    "elev_in_ft": "886",
    "lat": 43.1636875,
    "long": -73.0723269
  },
  {
    "globaleventid": 269422346,
    "sqldate": 20130926,
    "monthyear": 201309,
    "year": 2013,
    "fractiondate": "2013.7288",
    "eventcode": 112,
    "quadclass": 3,
    "nummentions": 10,
    "numsources": 1,
    "numarticles": 10,
    "avgtone": "0.0",
    "sourceurl": "http://www.wptz.com/news/vermont-new-york/burlington/deputy-chief-accused-of-dui-to-return-to-desk-duty-after-suspension/-/8869880/22123976/-/mxvuff/-/index.html",
    "feature_id": "1456663",
    "feature_name": "Burlington",
    "state_alpha": "VT",
    "county_name": "Chittenden",
    "county_numeric": "007",
    "prim_lat_dec": "44.4758825",
    "prim_long_dec": "-73.212072",
    "elev_in_m": "60",
    "elev_in_ft": "197",
    "lat": 44.4758825,
    "long": -73.212072
  },
  {
    "globaleventid": 269422345,
    "sqldate": 20130926,
    "monthyear": 201309,
    "year": 2013,
    "fractiondate": "2013.7288",
    "eventcode": 112,
    "quadclass": 3,
    "nummentions": 5,
    "numsources": 1,
    "numarticles": 5,
    "avgtone": "2.94784580498866",
    "sourceurl": "http://www.reformer.com/state/ci_24175452/operation-county-strike-two-brings-16-suspected-drug",
    "feature_id": "1456556",
    "feature_name": "Brattleboro",
    "state_alpha": "VT",
    "county_name": "Windham",
    "county_numeric": "025",
    "prim_lat_dec": "42.8509152",
    "prim_long_dec": "-72.5578678",
    "elev_in_m": "73",
    "elev_in_ft": "239",
    "lat": 42.8509152,
    "long": -72.5578678
  },
  {
    "globaleventid": 269422343,
    "sqldate": 20130926,
    "monthyear": 201309,
    "year": 2013,
    "fractiondate": "2013.7288",
    "eventcode": 112,
    "quadclass": 3,
    "nummentions": 8,
    "numsources": 1,
    "numarticles": 8,
    "avgtone": "0.796812749003984",
    "sourceurl": "http://www.ctpost.com/news/crime/article/Man-killed-after-standoff-in-Citronelle-4847384.php",
    "feature_id": "116155",
    "feature_name": "Citronelle",
    "state_alpha": "AL",
    "county_name": "Mobile",
    "county_numeric": "097",
    "prim_lat_dec": "31.0907338",
    "prim_long_dec": "-88.2280622",
    "elev_in_m": "94",
    "elev_in_ft": "308",
    "lat": 31.0907338,
    "long": -88.2280622
  },
  {
    "globaleventid": 269422340,
    "sqldate": 20130926,
    "monthyear": 201309,
    "year": 2013,
    "fractiondate": "2013.7288",
    "eventcode": 111,
    "quadclass": 3,
    "nummentions": 4,
    "numsources": 1,
    "numarticles": 4,
    "avgtone": "2.10526315789474",
    "sourceurl": "http://www.wtnh.com/news/connecticut/voice-of-the-people-sept-27-2013",
    "feature_id": "211953",
    "feature_name": "West Haven",
    "state_alpha": "CT",
    "county_name": "New Haven",
    "county_numeric": "009",
    "prim_lat_dec": "41.2706527",
    "prim_long_dec": "-72.9470471",
    "elev_in_m": "4",
    "elev_in_ft": "13",
    "lat": 41.2706527,
    "long": -72.9470471
  },
  {
    "globaleventid": 269422339,
    "sqldate": 20130926,
    "monthyear": 201309,
    "year": 2013,
    "fractiondate": "2013.7288",
    "eventcode": 110,
    "quadclass": 3,
    "nummentions": 10,
    "numsources": 5,
    "numarticles": 10,
    "avgtone": "0.12987012987013",
    "sourceurl": "http://www.tribtown.com/view/story/c5612b293e244b239d3ac2f757ec1045/IA--Strawberry-Point-Officials",
    "feature_id": "462032",
    "feature_name": "Strawberry Point",
    "state_alpha": "IA",
    "county_name": "Clayton",
    "county_numeric": "043",
    "prim_lat_dec": "42.6835956",
    "prim_long_dec": "-91.5340348",
    "elev_in_m": "373",
    "elev_in_ft": "1224",
    "lat": 42.6835956,
    "long": -91.5340348
  },
  {
    "globaleventid": 269422338,
    "sqldate": 20130926,
    "monthyear": 201309,
    "year": 2013,
    "fractiondate": "2013.7288",
    "eventcode": 110,
    "quadclass": 3,
    "nummentions": 4,
    "numsources": 1,
    "numarticles": 4,
    "avgtone": "3.51758793969849",
    "sourceurl": "http://www.newhampshire.com/article/20130926/NEWS/130929466/0/NEWS12&c=VrTATvVBxm8GU15o6GpsWPm5wdHlxIugo3FV6XDS9sQ&mkt=en-us",
    "feature_id": "865778",
    "feature_name": "Brentwood",
    "state_alpha": "NH",
    "county_name": "Rockingham",
    "county_numeric": "015",
    "prim_lat_dec": "42.9786981",
    "prim_long_dec": "-71.0728369",
    "elev_in_m": "37",
    "elev_in_ft": "121",
    "lat": 42.9786981,
    "long": -71.0728369
  },