[
  {
    "globaleventid": 261516500,
    "sqldate": 20130731,
    "monthyear": 201307,
    "year": 2013,
    "fractiondate": "2013.5781",
    "eventcode": 173,
    "quadclass": 4,
    "nummentions": 2,
    "numsources": 1,
    "numarticles": 2,
    "avgtone": "2.49480249480249",
    "sourceurl": "http://www.nation.com.pk/pakistan-news-newspaper-daily-english-online/international/01-Aug-2013/manning-guilty-war-criminals-on-the-loose",
    "feature_id": "1499925",
    "feature_name": "Quantico",
    "state_alpha": "VA",
    "county_name": "Prince William",
    "county_numeric": "153",
    "prim_lat_dec": "38.5223434",
    "prim_long_dec": "-77.2935926",
    "elev_in_m": "11",
    "elev_in_ft": "36",
    "lat": 38.5223434,
    "long": -77.2935926
  },
  {
    "globaleventid": 261516497,
    "sqldate": 20130731,
    "monthyear": 201307,
    "year": 2013,
    "fractiondate": "2013.5781",
    "eventcode": 173,
    "quadclass": 4,
    "nummentions": 3,
    "numsources": 3,
    "numarticles": 3,
    "avgtone": "0.671914064771207",
    "sourceurl": "http://www.lex18.com/news/inmate-shoots-deputy-sheriff-at-boston-hospital",
    "feature_id": "614337",
    "feature_name": "Salem",
    "state_alpha": "MA",
    "county_name": "Essex",
    "county_numeric": "009",
    "prim_lat_dec": "42.51954",
    "prim_long_dec": "-70.8967155",
    "elev_in_m": "4",
    "elev_in_ft": "13",
    "lat": 42.51954,
    "long": -70.8967155
  },
  {
    "globaleventid": 261516496,
    "sqldate": 20130731,
    "monthyear": 201307,
    "year": 2013,
    "fractiondate": "2013.5781",
    "eventcode": 173,
    "quadclass": 4,
    "nummentions": 4,
    "numsources": 1,
    "numarticles": 4,
    "avgtone": "2.11480362537764",
    "sourceurl": "http://www.crikey.com.au/2013/08/01/manning-and-whistleblowing-in-an-age-of-persecution-and-indifference/",
    "feature_id": "531871",
    "feature_name": "Washington",
    "state_alpha": "DC",
    "county_name": "District of Columbia",
    "county_numeric": "001",
    "prim_lat_dec": "38.8951118",
    "prim_long_dec": "-77.0363658",
    "elev_in_m": "7",
    "elev_in_ft": "23",
    "lat": 38.8951118,
    "long": -77.0363658
  },
  {
    "globaleventid": 261516492,
    "sqldate": 20130731,
    "monthyear": 201307,
    "year": 2013,
    "fractiondate": "2013.5781",
    "eventcode": 172,
    "quadclass": 4,
    "nummentions": 3,
    "numsources": 1,
    "numarticles": 3,
    "avgtone": "4.71938775510204",
    "sourceurl": "http://www.marinij.com/rss/ci_23753980",
    "feature_id": "1652792",
    "feature_name": "Santa Monica",
    "state_alpha": "CA",
    "county_name": "Los Angeles",
    "county_numeric": "037",
    "prim_lat_dec": "34.0194543",
    "prim_long_dec": "-118.4911912",
    "elev_in_m": "32",
    "elev_in_ft": "105",
    "lat": 34.0194543,
    "long": -118.4911912
  },
  {
    "globaleventid": 261516487,
    "sqldate": 20130731,
    "monthyear": 201307,
    "year": 2013,
    "fractiondate": "2013.5781",
    "eventcode": 1243,
    "quadclass": 3,
    "nummentions": 4,
    "numsources": 1,
    "numarticles": 4,
    "avgtone": "1.38121546961326",
    "sourceurl": "http://www.examiner.com/article/polk-county-ga-arrest-report-dated-july-29-2013",
    "feature_id": "356502",
    "feature_name": "Rockmart",
    "state_alpha": "GA",
    "county_name": "Polk",
    "county_numeric": "233",
    "prim_lat_dec": "34.0026005",
    "prim_long_dec": "-85.0416133",
    "elev_in_m": "238",
    "elev_in_ft": "781",
    "lat": 34.0026005,
    "long": -85.0416133
  },
  {
    "globaleventid": 261516486,
    "sqldate": 20130731,
    "monthyear": 201307,
    "year": 2013,
    "fractiondate": "2013.5781",
    "eventcode": 1243,
    "quadclass": 3,
    "nummentions": 4,
    "numsources": 1,
    "numarticles": 4,
    "avgtone": "1.38121546961326",
    "sourceurl": "http://www.examiner.com/article/polk-county-ga-arrest-report-dated-july-29-2013",
    "feature_id": "312503",
    "feature_name": "Cedartown",
    "state_alpha": "GA",
    "county_name": "Polk",
    "county_numeric": "233",
    "prim_lat_dec": "34.0537104",
    "prim_long_dec": "-85.2549519",
    "elev_in_m": "256",
    "elev_in_ft": "840",
    "lat": 34.0537104,
    "long": -85.2549519
  },
  {
    "globaleventid": 261516485,
    "sqldate": 20130731,
    "monthyear": 201307,
    "year": 2013,
    "fractiondate": "2013.5781",
    "eventcode": 1243,
    "quadclass": 3,
    "nummentions": 8,
    "numsources": 1,
    "numarticles": 4,
    "avgtone": "1.38121546961326",
    "sourceurl": "http://www.examiner.com/article/polk-county-ga-arrest-report-dated-july-29-2013",
    "feature_id": "312503",
    "feature_name": "Cedartown",
    "state_alpha": "GA",
    "county_name": "Polk",
    "county_numeric": "233",
    "prim_lat_dec": "34.0537104",
    "prim_long_dec": "-85.2549519",
    "elev_in_m": "256",
    "elev_in_ft": "840",
    "lat": 34.0537104,
    "long": -85.2549519
  },
  {
    "globaleventid": 261516482,
    "sqldate": 20130731,
    "monthyear": 201307,
    "year": 2013,
    "fractiondate": "2013.5781",
    "eventcode": 120,
    "quadclass": 3,
    "nummentions": 2,
    "numsources": 1,
    "numarticles": 2,
    "avgtone": "1.38121546961326",
    "sourceurl": "http://www.examiner.com/article/polk-county-ga-arrest-report-dated-july-29-2013",
    "feature_id": "356502",
    "feature_name": "Rockmart",
    "state_alpha": "GA",
    "county_name": "Polk",
    "county_numeric": "233",
    "prim_lat_dec": "34.0026005",
    "prim_long_dec": "-85.0416133",
    "elev_in_m": "238",
    "elev_in_ft": "781",
    "lat": 34.0026005,
    "long": -85.0416133
  },
  {
    "globaleventid": 261516481,
    "sqldate": 20130731,
    "monthyear": 201307,
    "year": 2013,
    "fractiondate": "2013.5781",
    "eventcode": 120,
    "quadclass": 3,
    "nummentions": 2,
    "numsources": 1,
    "numarticles": 2,
    "avgtone": "1.38121546961326",
    "sourceurl": "http://www.examiner.com/article/polk-county-ga-arrest-report-dated-july-29-2013",
    "feature_id": "312503",
    "feature_name": "Cedartown",
    "state_alpha": "GA",
    "county_name": "Polk",
    "county_numeric": "233",
    "prim_lat_dec": "34.0537104",
    "prim_long_dec": "-85.2549519",
    "elev_in_m": "256",
    "elev_in_ft": "840",
    "lat": 34.0537104,
    "long": -85.2549519
  },
  {
    "globaleventid": 261516479,
    "sqldate": 20130731,
    "monthyear": 201307,
    "year": 2013,
    "fractiondate": "2013.5781",
    "eventcode": 112,
    "quadclass": 3,
    "nummentions": 2,
    "numsources": 1,
    "numarticles": 2,
    "avgtone": "4.41176470588235",
    "sourceurl": "http://www.ptinews.com/news/3849429_Manning-acquitted-of-aiding-enemy-faces-espionage-",
    "feature_id": "531871",
    "feature_name": "Washington",
    "state_alpha": "DC",
    "county_name": "District of Columbia",
    "county_numeric": "001",
    "prim_lat_dec": "38.8951118",
    "prim_long_dec": "-77.0363658",
    "elev_in_m": "7",
    "elev_in_ft": "23",
    "lat": 38.8951118,
    "long": -77.0363658
  },
  {
    "globaleventid": 261516478,
    "sqldate": 20130731,
    "monthyear": 201307,
    "year": 2013,
    "fractiondate": "2013.5781",
    "eventcode": 112,
    "quadclass": 3,
    "nummentions": 1,
    "numsources": 1,
    "numarticles": 1,
    "avgtone": "0.0",
    "sourceurl": "http://www.gazette.net/article/20130730/NEWS/130739946/1122/laurel/Germantown-man-faces-federal-sex-trafficking-charges&template=gazette",
    "feature_id": "407044",
    "feature_name": "Decatur",
    "state_alpha": "IL",
    "county_name": "Macon",
    "county_numeric": "115",
    "prim_lat_dec": "39.8403147",
    "prim_long_dec": "-88.9548001",
    "elev_in_m": "206",
    "elev_in_ft": "676",
    "lat": 39.8403147,
    "long": -88.9548001
  },
  {
    "globaleventid": 261516477,
    "sqldate": 20130731,
    "monthyear": 201307,
    "year": 2013,
    "fractiondate": "2013.5781",
    "eventcode": 112,
    "quadclass": 3,
    "nummentions": 1,
    "numsources": 1,
    "numarticles": 1,
    "avgtone": "0.0",
    "sourceurl": "http://www.gazette.net/article/20130730/NEWS/130739946/1122/laurel/Germantown-man-faces-federal-sex-trafficking-charges&template=gazette",
    "feature_id": "407044",
    "feature_name": "Decatur",
    "state_alpha": "IL",
    "county_name": "Macon",
    "county_numeric": "115",
    "prim_lat_dec": "39.8403147",
    "prim_long_dec": "-88.9548001",
    "elev_in_m": "206",
    "elev_in_ft": "676",
    "lat": 39.8403147,
    "long": -88.9548001
  },
  {
    "globaleventid": 261516469,
    "sqldate": 20130731,
    "monthyear": 201307,
    "year": 2013,
    "fractiondate": "2013.5781",
    "eventcode": 111,
    "quadclass": 3,
    "nummentions": 24,
    "numsources": 6,
    "numarticles": 24,
    "avgtone": "3.91489574856549",
    "sourceurl": "http://www.mcclatchydc.com/2013/07/30/198101/bradley-manning-acquitted-on-most.html",
    "feature_id": "531871",
    "feature_name": "Washington",
    "state_alpha": "DC",
    "county_name": "District of Columbia",
    "county_numeric": "001",
    "prim_lat_dec": "38.8951118",
    "prim_long_dec": "-77.0363658",
    "elev_in_m": "7",
    "elev_in_ft": "23",
    "lat": 38.8951118,
    "long": -77.0363658
  },
  {
    "globaleventid": 261516468,
    "sqldate": 20130731,
    "monthyear": 201307,
    "year": 2013,
    "fractiondate": "2013.5781",
    "eventcode": 111,
    "quadclass": 3,
    "nummentions": 4,
    "numsources": 1,
    "numarticles": 4,
    "avgtone": "3.30985915492958",
    "sourceurl": "http://www.sacbee.com/2013/07/30/5609738/bradley-manning-acquitted-on-most.html",
    "feature_id": "1659564",
    "feature_name": "Sacramento",
    "state_alpha": "CA",
    "county_name": "Sacramento",
    "county_numeric": "067",
    "prim_lat_dec": "38.5815719",
    "prim_long_dec": "-121.4943996",
    "elev_in_m": "8",
    "elev_in_ft": "26",
    "lat": 38.5815719,
    "long": -121.4943996
  },
  {
    "globaleventid": 261516467,
    "sqldate": 20130731,
    "monthyear": 201307,
    "year": 2013,
    "fractiondate": "2013.5781",
    "eventcode": 111,
    "quadclass": 3,
    "nummentions": 4,
    "numsources": 1,
    "numarticles": 4,
    "avgtone": "3.97219463753724",
    "sourceurl": "http://www.sanluisobispo.com/2013/07/30/2607332/manning-not-guilty-of-aiding-the.html",
    "feature_id": "1652788",
    "feature_name": "San Luis Obispo",
    "state_alpha": "CA",
    "county_name": "San Luis Obispo",
    "county_numeric": "079",
    "prim_lat_dec": "35.2827524",
    "prim_long_dec": "-120.6596156",
    "elev_in_m": "71",
    "elev_in_ft": "233",
    "lat": 35.2827524,
    "long": -120.6596156
  },
  {
    "globaleventid": 261516463,
    "sqldate": 20130731,
    "monthyear": 201307,
    "year": 2013,
    "fractiondate": "2013.5781",
    "eventcode": 110,
    "quadclass": 3,
    "nummentions": 7,
    "numsources": 1,
    "numarticles": 7,
    "avgtone": "3.86740331491713",
    "sourceurl": "http://www.sangrechronicle.com/articles/2013/07/31/angel_fire/doc51f2936a61e9e091185212.txt",
    "feature_id": "911545",
    "feature_name": "Taos",
    "state_alpha": "NM",
    "county_name": "Taos",
    "county_numeric": "055",
    "prim_lat_dec": "36.4072485",
    "prim_long_dec": "-105.5730665",
    "elev_in_m": "2124",
    "elev_in_ft": "6968",
    "lat": 36.4072485,
    "long": -105.5730665
  },
  {
    "globaleventid": 261516462,
    "sqldate": 20130731,
    "monthyear": 201307,
    "year": 2013,
    "fractiondate": "2013.5781",
    "eventcode": 110,
    "quadclass": 3,
    "nummentions": 10,
    "numsources": 1,
    "numarticles": 10,
    "avgtone": "1.75219023779725",
    "sourceurl": "http://www.thefiscaltimes.com/Articles/2013/07/31/Tax-Reform-No-Takers-for-Obamas-Grand-Bargain.aspx",
    "feature_id": "531871",
    "feature_name": "Washington",
    "state_alpha": "DC",
    "county_name": "District of Columbia",
    "county_numeric": "001",
    "prim_lat_dec": "38.8951118",
    "prim_long_dec": "-77.0363658",
    "elev_in_m": "7",
    "elev_in_ft": "23",
    "lat": 38.8951118,
    "long": -77.0363658
  },
  {
    "globaleventid": 261516460,
    "sqldate": 20130731,
    "monthyear": 201307,
    "year": 2013,
    "fractiondate": "2013.5781",
    "eventcode": 100,
    "quadclass": 3,
    "nummentions": 14,
    "numsources": 7,
    "numarticles": 14,
    "avgtone": "1.44268179466956",
    "sourceurl": "http://www.westport-news.com/news/crime/article/Ex-husband-sentenced-after-wife-found-in-river-4698469.php",
    "feature_id": "771800",
    "feature_name": "Glendive",
    "state_alpha": "MT",
    "county_name": "Dawson",
    "county_numeric": "021",
    "prim_lat_dec": "47.1052899",
    "prim_long_dec": "-104.7124597",
    "elev_in_m": "633",
    "elev_in_ft": "2077",
    "lat": 47.1052899,
    "long": -104.7124597
  },
  {
    "globaleventid": 261516459,
    "sqldate": 20130731,
    "monthyear": 201307,
    "year": 2013,
    "fractiondate": "2013.5781",
    "eventcode": 100,
    "quadclass": 3,
    "nummentions": 2,
    "numsources": 1,
    "numarticles": 2,
    "avgtone": "1.92616372391653",
    "sourceurl": "http://mwcnews.net/news/americas/29205-manning-sentencing.html",
    "feature_id": "1100033",
    "feature_name": "Yale",
    "state_alpha": "OK",
    "county_name": "Payne",
    "county_numeric": "119",
    "prim_lat_dec": "36.1142305",
    "prim_long_dec": "-96.6991933",
    "elev_in_m": "245",
    "elev_in_ft": "804",
    "lat": 36.1142305,
    "long": -96.6991933
  },
  {
    "globaleventid": 261516089,
    "sqldate": 20130731,
    "monthyear": 201307,
    "year": 2013,
    "fractiondate": "2013.5781",
    "eventcode": 173,
    "quadclass": 4,
    "nummentions": 4,
    "numsources": 1,
    "numarticles": 4,
    "avgtone": "2.17391304347826",
    "sourceurl": "http://www.gulf-times.com/us-latin%20america/182/details/361430/manning-trial-moves-to-sentencing-after-conviction",
    "feature_id": "531871",
    "feature_name": "Washington",
    "state_alpha": "DC",
    "county_name": "District of Columbia",
    "county_numeric": "001",
    "prim_lat_dec": "38.8951118",
    "prim_long_dec": "-77.0363658",
    "elev_in_m": "7",
    "elev_in_ft": "23",
    "lat": 38.8951118,
    "long": -77.0363658
  },
  {
    "globaleventid": 261516054,
    "sqldate": 20130731,
    "monthyear": 201307,
    "year": 2013,
    "fractiondate": "2013.5781",
    "eventcode": 1312,
    "quadclass": 3,
    "nummentions": 8,
    "numsources": 1,
    "numarticles": 8,
    "avgtone": "3.6046511627907",
    "sourceurl": "http://baltimorepostexaminer.com/dump-russian-stoli/2013/07/31",
    "feature_id": "1510840",
    "feature_name": "Brooklyn",
    "state_alpha": "WA",
    "county_name": "Pacific",
    "county_numeric": "049",
    "prim_lat_dec": "46.776211",
    "prim_long_dec": "-123.5098812",
    "elev_in_m": "54",
    "elev_in_ft": "177",
    "lat": 46.776211,
    "long": -123.5098812
  },
  {
    "globaleventid": 261515836,
    "sqldate": 20130731,
    "monthyear": 201307,
    "year": 2013,
    "fractiondate": "2013.5781",
    "eventcode": 114,
    "quadclass": 3,
    "nummentions": 2,
    "numsources": 1,
    "numarticles": 2,
    "avgtone": "2.83687943262411",
    "sourceurl": "http://www.greenwichtime.com/news/article/Trending-How-wide-is-our-wage-gap-4699625.php&c=j27UUbFSJ6Chm3-ikljxH26ROlB8WZ9BjSsLLhjE08Q&mkt=en-us",
    "feature_id": "209223",
    "feature_name": "New Canaan",
    "state_alpha": "CT",
    "county_name": "Fairfield",
    "county_numeric": "001",
    "prim_lat_dec": "41.146763",
    "prim_long_dec": "-73.4948446",
    "elev_in_m": "92",
    "elev_in_ft": "302",
    "lat": 41.146763,
    "long": -73.4948446
  },
  {
    "globaleventid": 261515824,
    "sqldate": 20130731,
    "monthyear": 201307,
    "year": 2013,
    "fractiondate": "2013.5781",
    "eventcode": 190,
    "quadclass": 4,
    "nummentions": 10,
    "numsources": 1,
    "numarticles": 10,
    "avgtone": "5.0381679389313",
    "sourceurl": "http://swampland.time.com/2013/07/31/immigration-debate-brings-strange-bedfellows-and-new-hope-to-washington/",
    "feature_id": "531871",
    "feature_name": "Washington",
    "state_alpha": "DC",
    "county_name": "District of Columbia",
    "county_numeric": "001",
    "prim_lat_dec": "38.8951118",
    "prim_long_dec": "-77.0363658",
    "elev_in_m": "7",
    "elev_in_ft": "23",
    "lat": 38.8951118,
    "long": -77.0363658
  },
  {
    "globaleventid": 261515588,
    "sqldate": 20130731,
    "monthyear": 201307,
    "year": 2013,
    "fractiondate": "2013.5781",
    "eventcode": 193,
    "quadclass": 4,
    "nummentions": 3,
    "numsources": 1,
    "numarticles": 3,
    "avgtone": "1.65394402035623",
    "sourceurl": "http://www.sacbee.com/2013/07/30/5610082/battleground-honduras-honduran.html",
    "feature_id": "1662328",
    "feature_name": "Los Angeles",
    "state_alpha": "CA",
    "county_name": "Los Angeles",
    "county_numeric": "037",
    "prim_lat_dec": "34.0522342",
    "prim_long_dec": "-118.2436849",
    "elev_in_m": "89",
    "elev_in_ft": "292",
    "lat": 34.0522342,
    "long": -118.2436849
  },
  {
    "globaleventid": 261515552,
    "sqldate": 20130731,
    "monthyear": 201307,
    "year": 2013,
    "fractiondate": "2013.5781",
    "eventcode": 111,
    "quadclass": 3,
    "nummentions": 3,
    "numsources": 1,
    "numarticles": 3,
    "avgtone": "5.23138832997988",
    "sourceurl": "http://www.prweb.com/releases/Boulder-SEO-Marketing/Online-Marketing-Strategy/prweb10981739.htm",
    "feature_id": "201738",
    "feature_name": "Denver",
    "state_alpha": "CO",
    "county_name": "Denver",
    "county_numeric": "031",
    "prim_lat_dec": "39.7391536",
    "prim_long_dec": "-104.9847034",
    "elev_in_m": "1609",
    "elev_in_ft": "5279",
    "lat": 39.7391536,
    "long": -104.9847034
  },
  {
    "globaleventid": 261515319,
    "sqldate": 20130731,
    "monthyear": 201307,
    "year": 2013,
    "fractiondate": "2013.5781",
    "eventcode": 111,
    "quadclass": 3,
    "nummentions": 4,
    "numsources": 1,
    "numarticles": 4,
    "avgtone": "2.39348970799426",
    "sourceurl": "http://nacla.org/news/2013/7/31/open-letter-media-irony-snowdens-request-asylum-venezuela-and-ecuador-latin-america-e",
    "feature_id": "531871",
    "feature_name": "Washington",
    "state_alpha": "DC",
    "county_name": "District of Columbia",
    "county_numeric": "001",
    "prim_lat_dec": "38.8951118",
    "prim_long_dec": "-77.0363658",
    "elev_in_m": "7",
    "elev_in_ft": "23",
    "lat": 38.8951118,
    "long": -77.0363658
  },
  {
    "globaleventid": 261515273,
    "sqldate": 20130731,
    "monthyear": 201307,
    "year": 2013,
    "fractiondate": "2013.5781",
    "eventcode": 111,
    "quadclass": 3,
    "nummentions": 3,
    "numsources": 1,
    "numarticles": 3,
    "avgtone": "0.0",
    "sourceurl": "BBC Monitoring",
    "feature_id": "531871",
    "feature_name": "Washington",
    "state_alpha": "DC",
    "county_name": "District of Columbia",
    "county_numeric": "001",
    "prim_lat_dec": "38.8951118",
    "prim_long_dec": "-77.0363658",
    "elev_in_m": "7",
    "elev_in_ft": "23",
    "lat": 38.8951118,
    "long": -77.0363658
  },
  {
    "globaleventid": 261515238,
    "sqldate": 20130731,
    "monthyear": 201307,
    "year": 2013,
    "fractiondate": "2013.5781",
    "eventcode": 173,
    "quadclass": 4,
    "nummentions": 5,
    "numsources": 1,
    "numarticles": 5,
    "avgtone": "1.80995475113122",
    "sourceurl": "http://bangordailynews.com/2013/07/31/news/portland/30-year-old-inmate-dies-after-being-rushed-from-cumberland-county-jail-to-hospital/",
    "feature_id": "573692",
    "feature_name": "Portland",
    "state_alpha": "ME",
    "county_name": "Cumberland",
    "county_numeric": "005",
    "prim_lat_dec": "43.661471",
    "prim_long_dec": "-70.2553259",
    "elev_in_m": "19",
    "elev_in_ft": "62",
    "lat": 43.661471,
    "long": -70.2553259
  },
  {
    "globaleventid": 261515228,
    "sqldate": 20130731,
    "monthyear": 201307,
    "year": 2013,
    "fractiondate": "2013.5781",
    "eventcode": 193,
    "quadclass": 4,
    "nummentions": 6,
    "numsources": 1,
    "numarticles": 6,
    "avgtone": "0.0",
    "sourceurl": "http://www.cw56.com/news/articles/local/boston/10011298322360/inmate-shoots-deputy-at-mass-eye-and-ear/",
    "feature_id": "617565",
    "feature_name": "Boston",
    "state_alpha": "MA",
    "county_name": "Suffolk",
    "county_numeric": "025",
    "prim_lat_dec": "42.3584308",
    "prim_long_dec": "-71.0597732",
    "elev_in_m": "14",
    "elev_in_ft": "46",
    "lat": 42.3584308,
    "long": -71.0597732
  },
  {
    "globaleventid": 261515225,
    "sqldate": 20130731,
    "monthyear": 201307,
    "year": 2013,
    "fractiondate": "2013.5781",
    "eventcode": 173,
    "quadclass": 4,
    "nummentions": 6,
    "numsources": 1,
    "numarticles": 6,
    "avgtone": "1.58730158730159",
    "sourceurl": "http://www.ctpost.com/news/crime/article/Ex-husband-of-Glendive-woman-sentenced-for-killing-4698469.php",
    "feature_id": "771800",
    "feature_name": "Glendive",
    "state_alpha": "MT",
    "county_name": "Dawson",
    "county_numeric": "021",
    "prim_lat_dec": "47.1052899",
    "prim_long_dec": "-104.7124597",
    "elev_in_m": "633",
    "elev_in_ft": "2077",
    "lat": 47.1052899,
    "long": -104.7124597
  },
  {
    "globaleventid": 261515223,
    "sqldate": 20130731,
    "monthyear": 201307,
    "year": 2013,
    "fractiondate": "2013.5781",
    "eventcode": 173,
    "quadclass": 4,
    "nummentions": 2,
    "numsources": 1,
    "numarticles": 2,
    "avgtone": "1.23711340206186",
    "sourceurl": "http://www.dailyjournal.net/view/story/c63984bc701f4fbabfdaf56aaf923a15/MT--Missing-Glendive-Woman-Sentence/",
    "feature_id": "771800",
    "feature_name": "Glendive",
    "state_alpha": "MT",
    "county_name": "Dawson",
    "county_numeric": "021",
    "prim_lat_dec": "47.1052899",
    "prim_long_dec": "-104.7124597",
    "elev_in_m": "633",
    "elev_in_ft": "2077",
    "lat": 47.1052899,
    "long": -104.7124597
  },
  {
    "globaleventid": 261515144,
    "sqldate": 20130731,
    "monthyear": 201307,
    "year": 2013,
    "fractiondate": "2013.5781",
    "eventcode": 190,
    "quadclass": 4,
    "nummentions": 4,
    "numsources": 1,
    "numarticles": 4,
    "avgtone": "0.963855421686747",
    "sourceurl": "http://www.bizjournals.com/washington/blog/fedbiz_daily/2013/07/booz-allen-ceo-ralph-shrader-addresses.html",
    "feature_id": "531871",
    "feature_name": "Washington",
    "state_alpha": "DC",
    "county_name": "District of Columbia",
    "county_numeric": "001",
    "prim_lat_dec": "38.8951118",
    "prim_long_dec": "-77.0363658",
    "elev_in_m": "7",
    "elev_in_ft": "23",
    "lat": 38.8951118,
    "long": -77.0363658
  },
  {
    "globaleventid": 261515132,
    "sqldate": 20130731,
    "monthyear": 201307,
    "year": 2013,
    "fractiondate": "2013.5781",
    "eventcode": 110,
    "quadclass": 3,
    "nummentions": 10,
    "numsources": 1,
    "numarticles": 10,
    "avgtone": "1.75219023779725",
    "sourceurl": "http://www.thefiscaltimes.com/Articles/2013/07/31/Tax-Reform-No-Takers-for-Obamas-Grand-Bargain.aspx",
    "feature_id": "531871",
    "feature_name": "Washington",
    "state_alpha": "DC",
    "county_name": "District of Columbia",
    "county_numeric": "001",
    "prim_lat_dec": "38.8951118",
    "prim_long_dec": "-77.0363658",
    "elev_in_m": "7",
    "elev_in_ft": "23",
    "lat": 38.8951118,
    "long": -77.0363658
  },
  {
    "globaleventid": 261513845,
    "sqldate": 20130731,
    "monthyear": 201307,
    "year": 2013,
    "fractiondate": "2013.5781",
    "eventcode": 190,
    "quadclass": 4,
    "nummentions": 1,
    "numsources": 1,
    "numarticles": 1,
    "avgtone": "1.5625",
    "sourceurl": "http://www.onlinesentinel.com/news/a-lifetime-behind-bars-_2013-04-14.html?pagenum=full&c=1woy4CxsorFq_ZhQl3tRqazo4cortvJozdcpf8KG2Qg&mkt=en-us",
    "feature_id": "577893",
    "feature_name": "Waterville",
    "state_alpha": "ME",
    "county_name": "Kennebec",
    "county_numeric": "011",
    "prim_lat_dec": "44.5520105",
    "prim_long_dec": "-69.6317121",
    "elev_in_m": "33",
    "elev_in_ft": "108",
    "lat": 44.5520105,
    "long": -69.6317121
  },
  {
    "globaleventid": 261513844,
    "sqldate": 20130731,
    "monthyear": 201307,
    "year": 2013,
    "fractiondate": "2013.5781",
    "eventcode": 190,
    "quadclass": 4,
    "nummentions": 1,
    "numsources": 1,
    "numarticles": 1,
    "avgtone": "1.5625",
    "sourceurl": "http://www.onlinesentinel.com/news/a-lifetime-behind-bars-_2013-04-14.html?pagenum=full&c=1woy4CxsorFq_ZhQl3tRqazo4cortvJozdcpf8KG2Qg&mkt=en-us",
    "feature_id": "573692",
    "feature_name": "Portland",
    "state_alpha": "ME",
    "county_name": "Cumberland",
    "county_numeric": "005",
    "prim_lat_dec": "43.661471",
    "prim_long_dec": "-70.2553259",
    "elev_in_m": "19",
    "elev_in_ft": "62",
    "lat": 43.661471,
    "long": -70.2553259
  },
  {
    "globaleventid": 261513734,
    "sqldate": 20130731,
    "monthyear": 201307,
    "year": 2013,
    "fractiondate": "2013.5781",
    "eventcode": 190,
    "quadclass": 4,
    "nummentions": 4,
    "numsources": 1,
    "numarticles": 4,
    "avgtone": "2.53164556962025",
    "sourceurl": "http://www.theoaklandpress.com/articles/2013/07/31/news/cops_and_courts/doc51f994efe33fb062017906.txt",
    "feature_id": "1615720",
    "feature_name": "Walled Lake",
    "state_alpha": "MI",
    "county_name": "Oakland",
    "county_numeric": "125",
    "prim_lat_dec": "42.537811",
    "prim_long_dec": "-83.4810481",
    "elev_in_m": "286",
    "elev_in_ft": "938",
    "lat": 42.537811,
    "long": -83.4810481
  },
  {
    "globaleventid": 261513732,
    "sqldate": 20130731,
    "monthyear": 201307,
    "year": 2013,
    "fractiondate": "2013.5781",
    "eventcode": 190,
    "quadclass": 4,
    "nummentions": 4,
    "numsources": 1,
    "numarticles": 4,
    "avgtone": "2.53164556962025",
    "sourceurl": "http://www.theoaklandpress.com/articles/2013/07/31/news/cops_and_courts/doc51f994efe33fb062017906.txt",
    "feature_id": "1615720",
    "feature_name": "Walled Lake",
    "state_alpha": "MI",
    "county_name": "Oakland",
    "county_numeric": "125",
    "prim_lat_dec": "42.537811",
    "prim_long_dec": "-83.4810481",
    "elev_in_m": "286",
    "elev_in_ft": "938",
    "lat": 42.537811,
    "long": -83.4810481
  },
  {
    "globaleventid": 261513731,
    "sqldate": 20130731,
    "monthyear": 201307,
    "year": 2013,
    "fractiondate": "2013.5781",
    "eventcode": 190,
    "quadclass": 4,
    "nummentions": 2,
    "numsources": 1,
    "numarticles": 2,
    "avgtone": "2.53164556962025",
    "sourceurl": "http://www.theoaklandpress.com/articles/2013/07/31/news/cops_and_courts/doc51f994efe33fb062017906.txt",
    "feature_id": "1615720",
    "feature_name": "Walled Lake",
    "state_alpha": "MI",
    "county_name": "Oakland",
    "county_numeric": "125",
    "prim_lat_dec": "42.537811",
    "prim_long_dec": "-83.4810481",
    "elev_in_m": "286",
    "elev_in_ft": "938",
    "lat": 42.537811,
    "long": -83.4810481
  },
  {
    "globaleventid": 261513611,
    "sqldate": 20130731,
    "monthyear": 201307,
    "year": 2013,
    "fractiondate": "2013.5781",
    "eventcode": 173,
    "quadclass": 4,
    "nummentions": 6,
    "numsources": 1,
    "numarticles": 6,
    "avgtone": "2.62054507337526",
    "sourceurl": "http://english.ruvr.ru/news/2013_07_31/Moscow-will-harshly-react-to-possible-extradition-of-Dmitry-Ustinov-to-US-Dolgov-6195/",
    "feature_id": "531871",
    "feature_name": "Washington",
    "state_alpha": "DC",
    "county_name": "District of Columbia",
    "county_numeric": "001",
    "prim_lat_dec": "38.8951118",
    "prim_long_dec": "-77.0363658",
    "elev_in_m": "7",
    "elev_in_ft": "23",
    "lat": 38.8951118,
    "long": -77.0363658
  },
  {
    "globaleventid": 261513348,
    "sqldate": 20130731,
    "monthyear": 201307,
    "year": 2013,
    "fractiondate": "2013.5781",
    "eventcode": 130,
    "quadclass": 3,
    "nummentions": 12,
    "numsources": 1,
    "numarticles": 12,
    "avgtone": "2.71604938271605",
    "sourceurl": "http://www.denverpost.com/news/ci_23768610/mark-udall-joins-other-senators-press-obama-personally",
    "feature_id": "531871",
    "feature_name": "Washington",
    "state_alpha": "DC",
    "county_name": "District of Columbia",
    "county_numeric": "001",
    "prim_lat_dec": "38.8951118",
    "prim_long_dec": "-77.0363658",
    "elev_in_m": "7",
    "elev_in_ft": "23",
    "lat": 38.8951118,
    "long": -77.0363658
  },
  {
    "globaleventid": 261513299,
    "sqldate": 20130731,
    "monthyear": 201307,
    "year": 2013,
    "fractiondate": "2013.5781",
    "eventcode": 190,
    "quadclass": 4,
    "nummentions": 18,
    "numsources": 3,
    "numarticles": 18,
    "avgtone": "2.9519453893167",
    "sourceurl": "http://www.thestate.com/2013/07/31/2892966/documents-show-nsa-violated-court.html",
    "feature_id": "531871",
    "feature_name": "Washington",
    "state_alpha": "DC",
    "county_name": "District of Columbia",
    "county_numeric": "001",
    "prim_lat_dec": "38.8951118",
    "prim_long_dec": "-77.0363658",
    "elev_in_m": "7",
    "elev_in_ft": "23",
    "lat": 38.8951118,
    "long": -77.0363658
  },
  {
    "globaleventid": 261513203,
    "sqldate": 20130731,
    "monthyear": 201307,
    "year": 2013,
    "fractiondate": "2013.5781",
    "eventcode": 112,
    "quadclass": 3,
    "nummentions": 1,
    "numsources": 1,
    "numarticles": 1,
    "avgtone": "0.0",
    "sourceurl": "http://www.grandforksherald.com/event/article/id/269660/group/homepage/",
    "feature_id": "1030633",
    "feature_name": "Park River",
    "state_alpha": "ND",
    "county_name": "Walsh",
    "county_numeric": "099",
    "prim_lat_dec": "48.3986043",
    "prim_long_dec": "-97.7411999",
    "elev_in_m": "303",
    "elev_in_ft": "994",
    "lat": 48.3986043,
    "long": -97.7411999
  },
  {
    "globaleventid": 261513178,
    "sqldate": 20130731,
    "monthyear": 201307,
    "year": 2013,
    "fractiondate": "2013.5781",
    "eventcode": 110,
    "quadclass": 3,
    "nummentions": 2,
    "numsources": 1,
    "numarticles": 2,
    "avgtone": "3.93996247654784",
    "sourceurl": "http://news.yahoo.com/why-did-ron-paul-s-group-single-out-marco-rubio-for-voting-against-rand-paul%E2%80%99s-aid-bill--210620563.html",
    "feature_id": "529313",
    "feature_name": "Capitol Hill",
    "state_alpha": "DC",
    "county_name": "District of Columbia",
    "county_numeric": "001",
    "prim_lat_dec": "38.8890009",
    "prim_long_dec": "-77.0002537",
    "elev_in_m": "28",
    "elev_in_ft": "92",
    "lat": 38.8890009,
    "long": -77.0002537
  },
  {
    "globaleventid": 261513173,
    "sqldate": 20130731,
    "monthyear": 201307,
    "year": 2013,
    "fractiondate": "2013.5781",
    "eventcode": 190,
    "quadclass": 4,
    "nummentions": 10,
    "numsources": 1,
    "numarticles": 10,
    "avgtone": "4.11985018726592",
    "sourceurl": "http://washingtonexaminer.com/obama-draws-contrasts-between-house-senate-gop/article/feed/2109366",
    "feature_id": "531871",
    "feature_name": "Washington",
    "state_alpha": "DC",
    "county_name": "District of Columbia",
    "county_numeric": "001",
    "prim_lat_dec": "38.8951118",
    "prim_long_dec": "-77.0363658",
    "elev_in_m": "7",
    "elev_in_ft": "23",
    "lat": 38.8951118,
    "long": -77.0363658
  },
  {
    "globaleventid": 261513168,
    "sqldate": 20130731,
    "monthyear": 201307,
    "year": 2013,
    "fractiondate": "2013.5781",
    "eventcode": 120,
    "quadclass": 3,
    "nummentions": 3,
    "numsources": 1,
    "numarticles": 3,
    "avgtone": "1.89764232317424",
    "sourceurl": "http://www.rivertowns.net/content/counties-scheme-get-medicaid-funds-walker-likens-himself-fdr-sweeping-reforms-plus-9-more-0",
    "feature_id": "1577901",
    "feature_name": "Milwaukee",
    "state_alpha": "WI",
    "county_name": "Milwaukee",
    "county_numeric": "079",
    "prim_lat_dec": "43.0389025",
    "prim_long_dec": "-87.9064736",
    "elev_in_m": "187",
    "elev_in_ft": "614",
    "lat": 43.0389025,
    "long": -87.9064736
  },
  {
    "globaleventid": 261513159,
    "sqldate": 20130731,
    "monthyear": 201307,
    "year": 2013,
    "fractiondate": "2013.5781",
    "eventcode": 111,
    "quadclass": 3,
    "nummentions": 10,
    "numsources": 1,
    "numarticles": 10,
    "avgtone": "2.03862660944206",
    "sourceurl": "http://blouinnews.com/64370/story/obama-makes-grand-bargain-offer-reluctant-gop",
    "feature_id": "531871",
    "feature_name": "Washington",
    "state_alpha": "DC",
    "county_name": "District of Columbia",
    "county_numeric": "001",
    "prim_lat_dec": "38.8951118",
    "prim_long_dec": "-77.0363658",
    "elev_in_m": "7",
    "elev_in_ft": "23",
    "lat": 38.8951118,
    "long": -77.0363658
  },
  {
    "globaleventid": 261513158,
    "sqldate": 20130731,
    "monthyear": 201307,
    "year": 2013,
    "fractiondate": "2013.5781",
    "eventcode": 111,
    "quadclass": 3,
    "nummentions": 10,
    "numsources": 1,
    "numarticles": 10,
    "avgtone": "0.952380952380952",
    "sourceurl": "http://thehill.com/blogs/blog-briefing-room/news/314617-obama-heads-to-capitol-to-rally-house-senate-democrats",
    "feature_id": "529313",
    "feature_name": "Capitol Hill",
    "state_alpha": "DC",
    "county_name": "District of Columbia",
    "county_numeric": "001",
    "prim_lat_dec": "38.8890009",
    "prim_long_dec": "-77.0002537",
    "elev_in_m": "28",
    "elev_in_ft": "92",
    "lat": 38.8890009,
    "long": -77.0002537
  },
  {
    "globaleventid": 261513152,
    "sqldate": 20130731,
    "monthyear": 201307,
    "year": 2013,
    "fractiondate": "2013.5781",
    "eventcode": 100,
    "quadclass": 3,
    "nummentions": 4,
    "numsources": 1,
    "numarticles": 4,
    "avgtone": "1.9559902200489",
    "sourceurl": "http://www.marketwatch.com/story/obama-talks-fed-choices-with-lawmakers-2013-07-31?siteid=rss&utm_source=feedburner&utm_medium=feed&utm_campaign=Feed%3A%20marketwatch%2Ffinancial%20(MarketWatch.com%20-%20Financial%20Services%20Industry%20News)",
    "feature_id": "529313",
    "feature_name": "Capitol Hill",
    "state_alpha": "DC",
    "county_name": "District of Columbia",
    "county_numeric": "001",
    "prim_lat_dec": "38.8890009",
    "prim_long_dec": "-77.0002537",
    "elev_in_m": "28",
    "elev_in_ft": "92",
    "lat": 38.8890009,
    "long": -77.0002537
  },
  {
    "globaleventid": 261513151,
    "sqldate": 20130731,
    "monthyear": 201307,
    "year": 2013,
    "fractiondate": "2013.5781",
    "eventcode": 100,
    "quadclass": 3,
    "nummentions": 16,
    "numsources": 1,
    "numarticles": 16,
    "avgtone": "1.9559902200489",
    "sourceurl": "http://www.marketwatch.com/story/obama-talks-fed-choices-with-lawmakers-2013-07-31?siteid=rss&utm_source=feedburner&utm_medium=feed&utm_campaign=Feed%3A%20marketwatch%2Ffinancial%20(MarketWatch.com%20-%20Financial%20Services%20Industry%20News)",
    "feature_id": "529313",
    "feature_name": "Capitol Hill",
    "state_alpha": "DC",
    "county_name": "District of Columbia",
    "county_numeric": "001",
    "prim_lat_dec": "38.8890009",
    "prim_long_dec": "-77.0002537",
    "elev_in_m": "28",
    "elev_in_ft": "92",
    "lat": 38.8890009,
    "long": -77.0002537
  },
  {
    "globaleventid": 261513084,
    "sqldate": 20130731,
    "monthyear": 201307,
    "year": 2013,
    "fractiondate": "2013.5781",
    "eventcode": 190,
    "quadclass": 4,
    "nummentions": 60,
    "numsources": 6,
    "numarticles": 56,
    "avgtone": "2.26839185913746",
    "sourceurl": "http://www.dailymail.co.uk/news/article-2382312/NSA-chief-heckled-defends-agencys-surveillance-programs-hacking-conference.html?ITO=1490&ns_campaign=1490",
    "feature_id": "847388",
    "feature_name": "Las Vegas",
    "state_alpha": "NV",
    "county_name": "Clark",
    "county_numeric": "003",
    "prim_lat_dec": "36.1749705",
    "prim_long_dec": "-115.137223",
    "elev_in_m": "610",
    "elev_in_ft": "2001",
    "lat": 36.1749705,
    "long": -115.137223
  },
  {
    "globaleventid": 261513083,
    "sqldate": 20130731,
    "monthyear": 201307,
    "year": 2013,
    "fractiondate": "2013.5781",
    "eventcode": 190,
    "quadclass": 4,
    "nummentions": 4,
    "numsources": 1,
    "numarticles": 4,
    "avgtone": "0.666666666666667",
    "sourceurl": "http://www.sanluisobispo.com/2013/07/30/2607307/another-top-democrat-declines.html",
    "feature_id": "531871",
    "feature_name": "Washington",
    "state_alpha": "DC",
    "county_name": "District of Columbia",
    "county_numeric": "001",
    "prim_lat_dec": "38.8951118",
    "prim_long_dec": "-77.0363658",
    "elev_in_m": "7",
    "elev_in_ft": "23",
    "lat": 38.8951118,
    "long": -77.0363658
  },
  {
    "globaleventid": 261513081,
    "sqldate": 20130731,
    "monthyear": 201307,
    "year": 2013,
    "fractiondate": "2013.5781",
    "eventcode": 190,
    "quadclass": 4,
    "nummentions": 4,
    "numsources": 1,
    "numarticles": 4,
    "avgtone": "2.28310502283105",
    "sourceurl": "http://www.indyweek.com/indyweek/how-democrats-can-reclaim-north-carolina-government/Content?oid=3685711",
    "feature_id": "1018864",
    "feature_name": "Asheville",
    "state_alpha": "NC",
    "county_name": "Buncombe",
    "county_numeric": "021",
    "prim_lat_dec": "35.6009452",
    "prim_long_dec": "-82.554015",
    "elev_in_m": "649",
    "elev_in_ft": "2129",
    "lat": 35.6009452,
    "long": -82.554015
  },
  {
    "globaleventid": 261513079,
    "sqldate": 20130731,
    "monthyear": 201307,
    "year": 2013,
    "fractiondate": "2013.5781",
    "eventcode": 1711,
    "quadclass": 4,
    "nummentions": 4,
    "numsources": 1,
    "numarticles": 4,
    "avgtone": "1.94552529182879",
    "sourceurl": "http://www.fox19.com/story/22982204/lawmakers-inspect-speed-cameras-confiscated-from-elmwood-place",
    "feature_id": "1064618",
    "feature_name": "Elmwood Place",
    "state_alpha": "OH",
    "county_name": "Hamilton",
    "county_numeric": "061",
    "prim_lat_dec": "39.1872809",
    "prim_long_dec": "-84.4879985",
    "elev_in_m": "160",
    "elev_in_ft": "525",
    "lat": 39.1872809,
    "long": -84.4879985
  },
  {
    "globaleventid": 261513078,
    "sqldate": 20130731,
    "monthyear": 201307,
    "year": 2013,
    "fractiondate": "2013.5781",
    "eventcode": 1711,
    "quadclass": 4,
    "nummentions": 6,
    "numsources": 1,
    "numarticles": 6,
    "avgtone": "1.94552529182879",
    "sourceurl": "http://www.fox19.com/story/22982204/lawmakers-inspect-speed-cameras-confiscated-from-elmwood-place",
    "feature_id": "1064618",
    "feature_name": "Elmwood Place",
    "state_alpha": "OH",
    "county_name": "Hamilton",
    "county_numeric": "061",
    "prim_lat_dec": "39.1872809",
    "prim_long_dec": "-84.4879985",
    "elev_in_m": "160",
    "elev_in_ft": "525",
    "lat": 39.1872809,
    "long": -84.4879985
  },
  {
    "globaleventid": 261513072,
    "sqldate": 20130731,
    "monthyear": 201307,
    "year": 2013,
    "fractiondate": "2013.5781",
    "eventcode": 162,
    "quadclass": 4,
    "nummentions": 8,
    "numsources": 1,
    "numarticles": 8,
    "avgtone": "2.54777070063694",
    "sourceurl": "http://www.worldtribune.com/2013/07/31/obama-administration-losing-credibility-in-cairo/",
    "feature_id": "531871",
    "feature_name": "Washington",
    "state_alpha": "DC",
    "county_name": "District of Columbia",
    "county_numeric": "001",
    "prim_lat_dec": "38.8951118",
    "prim_long_dec": "-77.0363658",
    "elev_in_m": "7",
    "elev_in_ft": "23",
    "lat": 38.8951118,
    "long": -77.0363658
  },
  {
    "globaleventid": 261513071,
    "sqldate": 20130731,
    "monthyear": 201307,
    "year": 2013,
    "fractiondate": "2013.5781",
    "eventcode": 162,
    "quadclass": 4,
    "nummentions": 10,
    "numsources": 1,
    "numarticles": 10,
    "avgtone": "2.7359781121751",
    "sourceurl": "http://www.kjct8.com/news/Egypt-plans-to-clear-pro-Morsy-protests/-/163152/21260686/-/1y85qsz/-/index.html",
    "feature_id": "423587",
    "feature_name": "Chicago",
    "state_alpha": "IL",
    "county_name": "Cook",
    "county_numeric": "031",
    "prim_lat_dec": "41.850033",
    "prim_long_dec": "-87.6500523",
    "elev_in_m": "179",
    "elev_in_ft": "587",
    "lat": 41.850033,
    "long": -87.6500523
  },
  {
    "globaleventid": 261513070,
    "sqldate": 20130731,
    "monthyear": 201307,
    "year": 2013,
    "fractiondate": "2013.5781",
    "eventcode": 162,
    "quadclass": 4,
    "nummentions": 10,
    "numsources": 1,
    "numarticles": 10,
    "avgtone": "2.4390243902439",
    "sourceurl": "http://www.lakewyliepilot.com/2013/07/31/2001397/senate-kills-effort-to-cut-off.html",
    "feature_id": "1233775",
    "feature_name": "Lake Wylie",
    "state_alpha": "SC",
    "county_name": "York",
    "county_numeric": "091",
    "prim_lat_dec": "35.108476",
    "prim_long_dec": "-81.0428538",
    "elev_in_m": "179",
    "elev_in_ft": "587",
    "lat": 35.108476,
    "long": -81.0428538
  },
  {
    "globaleventid": 261513060,
    "sqldate": 20130731,
    "monthyear": 201307,
    "year": 2013,
    "fractiondate": "2013.5781",
    "eventcode": 129,
    "quadclass": 3,
    "nummentions": 1,
    "numsources": 1,
    "numarticles": 1,
    "avgtone": "1.16504854368932",
    "sourceurl": "http://quincyjournal.com/above-the-fold/2013/07/31/legislative-leaders-sue-governor-over-withheld-paychecks/",
    "feature_id": "423587",
    "feature_name": "Chicago",
    "state_alpha": "IL",
    "county_name": "Cook",
    "county_numeric": "031",
    "prim_lat_dec": "41.850033",
    "prim_long_dec": "-87.6500523",
    "elev_in_m": "179",
    "elev_in_ft": "587",
    "lat": 41.850033,
    "long": -87.6500523
  },
  {
    "globaleventid": 261513059,
    "sqldate": 20130731,
    "monthyear": 201307,
    "year": 2013,
    "fractiondate": "2013.5781",
    "eventcode": 129,
    "quadclass": 3,
    "nummentions": 6,
    "numsources": 1,
    "numarticles": 6,
    "avgtone": "1.16504854368932",
    "sourceurl": "http://quincyjournal.com/above-the-fold/2013/07/31/legislative-leaders-sue-governor-over-withheld-paychecks/",
    "feature_id": "423587",
    "feature_name": "Chicago",
    "state_alpha": "IL",
    "county_name": "Cook",
    "county_numeric": "031",
    "prim_lat_dec": "41.850033",
    "prim_long_dec": "-87.6500523",
    "elev_in_m": "179",
    "elev_in_ft": "587",
    "lat": 41.850033,
    "long": -87.6500523
  },
  {
    "globaleventid": 261513058,
    "sqldate": 20130731,
    "monthyear": 201307,
    "year": 2013,
    "fractiondate": "2013.5781",
    "eventcode": 129,
    "quadclass": 3,
    "nummentions": 4,
    "numsources": 1,
    "numarticles": 4,
    "avgtone": "1.85414091470952",
    "sourceurl": "http://www.westendword.com/Articles-Columnists-c-2013-07-30-187992.114137-Time-To-Speak-Out-Against-Legislative-Nonsense.html",
    "feature_id": "2469219",
    "feature_name": "West End",
    "state_alpha": "MO",
    "county_name": "St. Louis (city)",
    "county_numeric": "510",
    "prim_lat_dec": "38.6612",
    "prim_long_dec": "-90.2893",
    "elev_in_m": "161",
    "elev_in_ft": "528",
    "lat": 38.6612,
    "long": -90.2893
  },
  {
    "globaleventid": 261513057,
    "sqldate": 20130731,
    "monthyear": 201307,
    "year": 2013,
    "fractiondate": "2013.5781",
    "eventcode": 121,
    "quadclass": 3,
    "nummentions": 10,
    "numsources": 1,
    "numarticles": 10,
    "avgtone": "2.7359781121751",
    "sourceurl": "http://www.kjct8.com/news/Egypt-plans-to-clear-pro-Morsy-protests/-/163152/21260686/-/1y85qsz/-/index.html",
    "feature_id": "423587",
    "feature_name": "Chicago",
    "state_alpha": "IL",
    "county_name": "Cook",
    "county_numeric": "031",
    "prim_lat_dec": "41.850033",
    "prim_long_dec": "-87.6500523",
    "elev_in_m": "179",
    "elev_in_ft": "587",
    "lat": 41.850033,
    "long": -87.6500523
  },
  {
    "globaleventid": 261513047,
    "sqldate": 20130731,
    "monthyear": 201307,
    "year": 2013,
    "fractiondate": "2013.5781",
    "eventcode": 120,
    "quadclass": 3,
    "nummentions": 4,
    "numsources": 1,
    "numarticles": 4,
    "avgtone": "2.72727272727273",
    "sourceurl": "http://www.weau.com/news/headlines/Eau-Claire-La-Crosse-among-20-counties-looking-for-federal-healthcare-money-217679401.html",
    "feature_id": "1564402",
    "feature_name": "Eau Claire",
    "state_alpha": "WI",
    "county_name": "Eau Claire",
    "county_numeric": "035",
    "prim_lat_dec": "44.811349",
    "prim_long_dec": "-91.4984941",
    "elev_in_m": "240",
    "elev_in_ft": "787",
    "lat": 44.811349,
    "long": -91.4984941
  },
  {
    "globaleventid": 261513046,
    "sqldate": 20130731,
    "monthyear": 201307,
    "year": 2013,
    "fractiondate": "2013.5781",
    "eventcode": 120,
    "quadclass": 3,
    "nummentions": 2,
    "numsources": 1,
    "numarticles": 2,
    "avgtone": "2.98913043478261",
    "sourceurl": "http://www.news-journal.com/news/state/perry-calls-rd-special-session/article_fe7e8327-41f2-5f05-bcef-988135976724.html",
    "feature_id": "1374262",
    "feature_name": "Jacksonville",
    "state_alpha": "TX",
    "county_name": "Cherokee",
    "county_numeric": "073",
    "prim_lat_dec": "31.963778",
    "prim_long_dec": "-95.2705042",
    "elev_in_m": "159",
    "elev_in_ft": "522",
    "lat": 31.963778,
    "long": -95.2705042
  },
  {
    "globaleventid": 261513045,
    "sqldate": 20130731,
    "monthyear": 201307,
    "year": 2013,
    "fractiondate": "2013.5781",
    "eventcode": 120,
    "quadclass": 3,
    "nummentions": 10,
    "numsources": 1,
    "numarticles": 10,
    "avgtone": "2.4390243902439",
    "sourceurl": "http://www.lakewyliepilot.com/2013/07/31/2001397/senate-kills-effort-to-cut-off.html",
    "feature_id": "1233775",
    "feature_name": "Lake Wylie",
    "state_alpha": "SC",
    "county_name": "York",
    "county_numeric": "091",
    "prim_lat_dec": "35.108476",
    "prim_long_dec": "-81.0428538",
    "elev_in_m": "179",
    "elev_in_ft": "587",
    "lat": 35.108476,
    "long": -81.0428538
  },
  {
    "globaleventid": 261513044,
    "sqldate": 20130731,
    "monthyear": 201307,
    "year": 2013,
    "fractiondate": "2013.5781",
    "eventcode": 120,
    "quadclass": 3,
    "nummentions": 1,
    "numsources": 1,
    "numarticles": 1,
    "avgtone": "4.30809399477807",
    "sourceurl": "http://www.newstalkradiowhio.com/ap/ap/legislative/mich-senate-panel-likely-to-vote-on-medicaid-bill/nY8h6/",
    "feature_id": "1093780",
    "feature_name": "Hillsdale",
    "state_alpha": "OK",
    "county_name": "Garfield",
    "county_numeric": "047",
    "prim_lat_dec": "36.563087",
    "prim_long_dec": "-97.9914503",
    "elev_in_m": "375",
    "elev_in_ft": "1230",
    "lat": 36.563087,
    "long": -97.9914503
  },
  {
    "globaleventid": 261513042,
    "sqldate": 20130731,
    "monthyear": 201307,
    "year": 2013,
    "fractiondate": "2013.5781",
    "eventcode": 115,
    "quadclass": 3,
    "nummentions": 2,
    "numsources": 1,
    "numarticles": 2,
    "avgtone": "1.16504854368932",
    "sourceurl": "http://quincyjournal.com/above-the-fold/2013/07/31/legislative-leaders-sue-governor-over-withheld-paychecks/",
    "feature_id": "426595",
    "feature_name": "Springfield",
    "state_alpha": "IL",
    "county_name": "Sangamon",
    "county_numeric": "167",
    "prim_lat_dec": "39.8017171",
    "prim_long_dec": "-89.6437107",
    "elev_in_m": "183",
    "elev_in_ft": "600",
    "lat": 39.8017171,
    "long": -89.6437107
  },
  {
    "globaleventid": 261513040,
    "sqldate": 20130731,
    "monthyear": 201307,
    "year": 2013,
    "fractiondate": "2013.5781",
    "eventcode": 115,
    "quadclass": 3,
    "nummentions": 1,
    "numsources": 1,
    "numarticles": 1,
    "avgtone": "1.16504854368932",
    "sourceurl": "http://quincyjournal.com/above-the-fold/2013/07/31/legislative-leaders-sue-governor-over-withheld-paychecks/",
    "feature_id": "426595",
    "feature_name": "Springfield",
    "state_alpha": "IL",
    "county_name": "Sangamon",
    "county_numeric": "167",
    "prim_lat_dec": "39.8017171",
    "prim_long_dec": "-89.6437107",
    "elev_in_m": "183",
    "elev_in_ft": "600",
    "lat": 39.8017171,
    "long": -89.6437107
  },
  {
    "globaleventid": 261513035,
    "sqldate": 20130731,
    "monthyear": 201307,
    "year": 2013,
    "fractiondate": "2013.5781",
    "eventcode": 114,
    "quadclass": 3,
    "nummentions": 7,
    "numsources": 1,
    "numarticles": 7,
    "avgtone": "2.40334378265413",
    "sourceurl": "http://www.news-journalonline.com/article/20130731/APW/1307310584",
    "feature_id": "531871",
    "feature_name": "Washington",
    "state_alpha": "DC",
    "county_name": "District of Columbia",
    "county_numeric": "001",
    "prim_lat_dec": "38.8951118",
    "prim_long_dec": "-77.0363658",
    "elev_in_m": "7",
    "elev_in_ft": "23",
    "lat": 38.8951118,
    "long": -77.0363658
  },
  {
    "globaleventid": 261513034,
    "sqldate": 20130731,
    "monthyear": 201307,
    "year": 2013,
    "fractiondate": "2013.5781",
    "eventcode": 114,
    "quadclass": 3,
    "nummentions": 196,
    "numsources": 22,
    "numarticles": 196,
    "avgtone": "2.17933167234406",
    "sourceurl": "http://www.beloitdailynews.com/news/national/obama-reassures-dems-on-health-care-immigration/article_52951aa7-4102-524e-a6f8-22ad81c9823e.html",
    "feature_id": "529313",
    "feature_name": "Capitol Hill",
    "state_alpha": "DC",
    "county_name": "District of Columbia",
    "county_numeric": "001",
    "prim_lat_dec": "38.8890009",
    "prim_long_dec": "-77.0002537",
    "elev_in_m": "28",
    "elev_in_ft": "92",
    "lat": 38.8890009,
    "long": -77.0002537
  },
  {
    "globaleventid": 261513028,
    "sqldate": 20130731,
    "monthyear": 201307,
    "year": 2013,
    "fractiondate": "2013.5781",
    "eventcode": 112,
    "quadclass": 3,
    "nummentions": 1,
    "numsources": 1,
    "numarticles": 1,
    "avgtone": "0.0",
    "sourceurl": "http://www.inforum.com/event/article/id/407786/",
    "feature_id": "1030633",
    "feature_name": "Park River",
    "state_alpha": "ND",
    "county_name": "Walsh",
    "county_numeric": "099",
    "prim_lat_dec": "48.3986043",
    "prim_long_dec": "-97.7411999",
    "elev_in_m": "303",
    "elev_in_ft": "994",
    "lat": 48.3986043,
    "long": -97.7411999
  },
  {
    "globaleventid": 261513026,
    "sqldate": 20130731,
    "monthyear": 201307,
    "year": 2013,
    "fractiondate": "2013.5781",
    "eventcode": 112,
    "quadclass": 3,
    "nummentions": 2,
    "numsources": 1,
    "numarticles": 2,
    "avgtone": "2.56756756756757",
    "sourceurl": "http://medcitynews.com/2013/07/the-gloves-are-off-senate-republicans-publicly-disagree-over-obamacare-strategy/",
    "feature_id": "531871",
    "feature_name": "Washington",
    "state_alpha": "DC",
    "county_name": "District of Columbia",
    "county_numeric": "001",
    "prim_lat_dec": "38.8951118",
    "prim_long_dec": "-77.0363658",
    "elev_in_m": "7",
    "elev_in_ft": "23",
    "lat": 38.8951118,
    "long": -77.0363658
  },
  {
    "globaleventid": 261513025,
    "sqldate": 20130731,
    "monthyear": 201307,
    "year": 2013,
    "fractiondate": "2013.5781",
    "eventcode": 112,
    "quadclass": 3,
    "nummentions": 1,
    "numsources": 1,
    "numarticles": 1,
    "avgtone": "0.0",
    "sourceurl": "http://www.inforum.com/event/article/id/407786/",
    "feature_id": "1030633",
    "feature_name": "Park River",
    "state_alpha": "ND",
    "county_name": "Walsh",
    "county_numeric": "099",
    "prim_lat_dec": "48.3986043",
    "prim_long_dec": "-97.7411999",
    "elev_in_m": "303",
    "elev_in_ft": "994",
    "lat": 48.3986043,
    "long": -97.7411999
  },
  {
    "globaleventid": 261513024,
    "sqldate": 20130731,
    "monthyear": 201307,
    "year": 2013,
    "fractiondate": "2013.5781",
    "eventcode": 112,
    "quadclass": 3,
    "nummentions": 3,
    "numsources": 1,
    "numarticles": 3,
    "avgtone": "0.0",
    "sourceurl": "http://www.grandforksherald.com/event/article/id/269660/group/homepage/",
    "feature_id": "1030633",
    "feature_name": "Park River",
    "state_alpha": "ND",
    "county_name": "Walsh",
    "county_numeric": "099",
    "prim_lat_dec": "48.3986043",
    "prim_long_dec": "-97.7411999",
    "elev_in_m": "303",
    "elev_in_ft": "994",
    "lat": 48.3986043,
    "long": -97.7411999
  },
  {
    "globaleventid": 261513016,
    "sqldate": 20130731,
    "monthyear": 201307,
    "year": 2013,
    "fractiondate": "2013.5781",
    "eventcode": 111,
    "quadclass": 3,
    "nummentions": 4,
    "numsources": 1,
    "numarticles": 4,
    "avgtone": "1.1437908496732",
    "sourceurl": "http://tbo.com/article/20130731/ARTICLE/130739848",
    "feature_id": "292005",
    "feature_name": "Tampa",
    "state_alpha": "FL",
    "county_name": "Hillsborough",
    "county_numeric": "057",
    "prim_lat_dec": "27.9475216",
    "prim_long_dec": "-82.4584279",
    "elev_in_m": "5",
    "elev_in_ft": "16",
    "lat": 27.9475216,
    "long": -82.4584279
  },
  {
    "globaleventid": 261513015,
    "sqldate": 20130731,
    "monthyear": 201307,
    "year": 2013,
    "fractiondate": "2013.5781",
    "eventcode": 111,
    "quadclass": 3,
    "nummentions": 2,
    "numsources": 1,
    "numarticles": 2,
    "avgtone": "1.4",
    "sourceurl": "http://www.washingtonpost.com/local/virginia-politics/ads-target-mcauliffes-memoir/2013/07/31/41b9f4a2-f9f8-11e2-9bde-7ddaa186b751_story.html?wprss=rss_local",
    "feature_id": "1499957",
    "feature_name": "Richmond",
    "state_alpha": "VA",
    "county_name": "Richmond (city)",
    "county_numeric": "760",
    "prim_lat_dec": "37.5537575",
    "prim_long_dec": "-77.4602617",
    "elev_in_m": "64",
    "elev_in_ft": "210",
    "lat": 37.5537575,
    "long": -77.4602617
  },
  {
    "globaleventid": 261513014,
    "sqldate": 20130731,
    "monthyear": 201307,
    "year": 2013,
    "fractiondate": "2013.5781",
    "eventcode": 111,
    "quadclass": 3,
    "nummentions": 2,
    "numsources": 1,
    "numarticles": 2,
    "avgtone": "1.4",
    "sourceurl": "http://www.washingtonpost.com/local/virginia-politics/ads-target-mcauliffes-memoir/2013/07/31/41b9f4a2-f9f8-11e2-9bde-7ddaa186b751_story.html?wprss=rss_local",
    "feature_id": "1499957",
    "feature_name": "Richmond",
    "state_alpha": "VA",
    "county_name": "Richmond (city)",
    "county_numeric": "760",
    "prim_lat_dec": "37.5537575",
    "prim_long_dec": "-77.4602617",
    "elev_in_m": "64",
    "elev_in_ft": "210",
    "lat": 37.5537575,
    "long": -77.4602617
  },
  {
    "globaleventid": 261513012,
    "sqldate": 20130731,
    "monthyear": 201307,
    "year": 2013,
    "fractiondate": "2013.5781",
    "eventcode": 110,
    "quadclass": 3,
    "nummentions": 2,
    "numsources": 1,
    "numarticles": 2,
    "avgtone": "1.71232876712329",
    "sourceurl": "http://www.thestate.com/2013/07/31/2892219/gov-nikki-haley-meets-with-business.html",
    "feature_id": "1249990",
    "feature_name": "Orangeburg",
    "state_alpha": "SC",
    "county_name": "Orangeburg",
    "county_numeric": "075",
    "prim_lat_dec": "33.4918203",
    "prim_long_dec": "-80.8556476",
    "elev_in_m": "74",
    "elev_in_ft": "243",
    "lat": 33.4918203,
    "long": -80.8556476
  },
  {
    "globaleventid": 261513003,
    "sqldate": 20130731,
    "monthyear": 201307,
    "year": 2013,
    "fractiondate": "2013.5781",
    "eventcode": 110,
    "quadclass": 3,
    "nummentions": 5,
    "numsources": 1,
    "numarticles": 5,
    "avgtone": "0.55045871559633",
    "sourceurl": "http://www.onlinesentinel.com/news/skowhegan-district-court_2013-07-31.html",
    "feature_id": "575529",
    "feature_name": "Skowhegan",
    "state_alpha": "ME",
    "county_name": "Somerset",
    "county_numeric": "025",
    "prim_lat_dec": "44.7650618",
    "prim_long_dec": "-69.719218",
    "elev_in_m": "52",
    "elev_in_ft": "171",
    "lat": 44.7650618,
    "long": -69.719218
  },
  {
    "globaleventid": 261513002,
    "sqldate": 20130731,
    "monthyear": 201307,
    "year": 2013,
    "fractiondate": "2013.5781",
    "eventcode": 110,
    "quadclass": 3,
    "nummentions": 4,
    "numsources": 1,
    "numarticles": 4,
    "avgtone": "2.16049382716049",
    "sourceurl": "http://www.bloomberg.com/news/2013-07-31/fha-solvency-legislation-advanced-by-senate-banking-committee.html",
    "feature_id": "531871",
    "feature_name": "Washington",
    "state_alpha": "DC",
    "county_name": "District of Columbia",
    "county_numeric": "001",
    "prim_lat_dec": "38.8951118",
    "prim_long_dec": "-77.0363658",
    "elev_in_m": "7",
    "elev_in_ft": "23",
    "lat": 38.8951118,
    "long": -77.0363658
  },
  {
    "globaleventid": 261513001,
    "sqldate": 20130731,
    "monthyear": 201307,
    "year": 2013,
    "fractiondate": "2013.5781",
    "eventcode": 110,
    "quadclass": 3,
    "nummentions": 2,
    "numsources": 1,
    "numarticles": 2,
    "avgtone": "4.68451242829828",
    "sourceurl": "http://www.nola.com/society/index.ssf/2013/07/huzzahs_happenings_social_scen.html",
    "feature_id": "1629985",
    "feature_name": "New Orleans",
    "state_alpha": "LA",
    "county_name": "Orleans",
    "county_numeric": "071",
    "prim_lat_dec": "29.9546482",
    "prim_long_dec": "-90.075072",
    "elev_in_m": "0",
    "elev_in_ft": "0",
    "lat": 29.9546482,
    "long": -90.075072
  },
  {
    "globaleventid": 261512390,
    "sqldate": 20130731,
    "monthyear": 201307,
    "year": 2013,
    "fractiondate": "2013.5781",
    "eventcode": 160,
    "quadclass": 4,
    "nummentions": 15,
    "numsources": 1,
    "numarticles": 15,
    "avgtone": "1.57642220699109",
    "sourceurl": "http://www.washingtonpost.com/blogs/fact-checker/post/a-misleading-obamacare-poll-courtesy-of-the-chamber-of-commerce-and-harris-interactive/2013/07/30/26e5f51c-f94a-11e2-8e84-c56731a202fb_blog.html?wprss=rss_homepage",
    "feature_id": "531871",
    "feature_name": "Washington",
    "state_alpha": "DC",
    "county_name": "District of Columbia",
    "county_numeric": "001",
    "prim_lat_dec": "38.8951118",
    "prim_long_dec": "-77.0363658",
    "elev_in_m": "7",
    "elev_in_ft": "23",
    "lat": 38.8951118,
    "long": -77.0363658
  },
  {
    "globaleventid": 261512351,
    "sqldate": 20130731,
    "monthyear": 201307,
    "year": 2013,
    "fractiondate": "2013.5781",
    "eventcode": 114,
    "quadclass": 3,
    "nummentions": 10,
    "numsources": 1,
    "numarticles": 10,
    "avgtone": "1.38121546961326",
    "sourceurl": "http://www.washingtonguardian.com/berlusconis-defense-seeks-overturn-conviction",
    "feature_id": "1512301",
    "feature_name": "Hollywood",
    "state_alpha": "WA",
    "county_name": "King",
    "county_numeric": "033",
    "prim_lat_dec": "47.7309322",
    "prim_long_dec": "-122.1292908",
    "elev_in_m": "109",
    "elev_in_ft": "358",
    "lat": 47.7309322,
    "long": -122.1292908
  },
  {
    "globaleventid": 261512350,
    "sqldate": 20130731,
    "monthyear": 201307,
    "year": 2013,
    "fractiondate": "2013.5781",
    "eventcode": 114,
    "quadclass": 3,
    "nummentions": 10,
    "numsources": 1,
    "numarticles": 10,
    "avgtone": "1.29198966408269",
    "sourceurl": "http://www.wistv.com/story/22974601/berlusconis-high-court-challenge-enters-2nd-day",
    "feature_id": "1231398",
    "feature_name": "Hollywood",
    "state_alpha": "SC",
    "county_name": "Charleston",
    "county_numeric": "019",
    "prim_lat_dec": "32.7343442",
    "prim_long_dec": "-80.2417651",
    "elev_in_m": "9",
    "elev_in_ft": "30",
    "lat": 32.7343442,
    "long": -80.2417651
  },
  {
    "globaleventid": 261512346,
    "sqldate": 20130731,
    "monthyear": 201307,
    "year": 2013,
    "fractiondate": "2013.5781",
    "eventcode": 110,
    "quadclass": 3,
    "nummentions": 10,
    "numsources": 1,
    "numarticles": 10,
    "avgtone": "2.55839822024472",
    "sourceurl": "http://www.latimes.com/news/politics/la-pn-secret-nsa-surveillance-court-order-20130731,0,1310703.story?track=rss&utm_source=feedburner&utm_medium=feed&utm_campaign=Feed%3A+latimes%2Fnews%2Fpolitics+%28L.A.+Times+-+Politics%29",
    "feature_id": "1661377",
    "feature_name": "San Diego",
    "state_alpha": "CA",
    "county_name": "San Diego",
    "county_numeric": "073",
    "prim_lat_dec": "32.7153292",
    "prim_long_dec": "-117.1572551",
    "elev_in_m": "19",
    "elev_in_ft": "62",
    "lat": 32.7153292,
    "long": -117.1572551
  },
  {
    "globaleventid": 261512209,
    "sqldate": 20130731,
    "monthyear": 201307,
    "year": 2013,
    "fractiondate": "2013.5781",
    "eventcode": 111,
    "quadclass": 3,
    "nummentions": 10,
    "numsources": 1,
    "numarticles": 10,
    "avgtone": "2.44565217391304",
    "sourceurl": "http://www.huffingtonpost.com/2013/07/30/nsa-surveillance_n_3679528.html?utm_hp_ref=denver&ir=Denver",
    "feature_id": "531871",
    "feature_name": "Washington",
    "state_alpha": "DC",
    "county_name": "District of Columbia",
    "county_numeric": "001",
    "prim_lat_dec": "38.8951118",
    "prim_long_dec": "-77.0363658",
    "elev_in_m": "7",
    "elev_in_ft": "23",
    "lat": 38.8951118,
    "long": -77.0363658
  },
  {
    "globaleventid": 261512196,
    "sqldate": 20130731,
    "monthyear": 201307,
    "year": 2013,
    "fractiondate": "2013.5781",
    "eventcode": 190,
    "quadclass": 4,
    "nummentions": 3,
    "numsources": 1,
    "numarticles": 3,
    "avgtone": "2.56756756756757",
    "sourceurl": "http://medcitynews.com/2013/07/the-gloves-are-off-senate-republicans-publicly-disagree-over-obamacare-strategy/",
    "feature_id": "531871",
    "feature_name": "Washington",
    "state_alpha": "DC",
    "county_name": "District of Columbia",
    "county_numeric": "001",
    "prim_lat_dec": "38.8951118",
    "prim_long_dec": "-77.0363658",
    "elev_in_m": "7",
    "elev_in_ft": "23",
    "lat": 38.8951118,
    "long": -77.0363658
  },
  {
    "globaleventid": 261512179,
    "sqldate": 20130731,
    "monthyear": 201307,
    "year": 2013,
    "fractiondate": "2013.5781",
    "eventcode": 130,
    "quadclass": 3,
    "nummentions": 5,
    "numsources": 1,
    "numarticles": 5,
    "avgtone": "1.79640718562874",
    "sourceurl": "http://thehill.com/blogs/blog-briefing-room/news/314843-obama-lawmakers-to-huddle-on-nsa-surveillance",
    "feature_id": "529313",
    "feature_name": "Capitol Hill",
    "state_alpha": "DC",
    "county_name": "District of Columbia",
    "county_numeric": "001",
    "prim_lat_dec": "38.8890009",
    "prim_long_dec": "-77.0002537",
    "elev_in_m": "28",
    "elev_in_ft": "92",
    "lat": 38.8890009,
    "long": -77.0002537
  },
  {
    "globaleventid": 261512176,
    "sqldate": 20130731,
    "monthyear": 201307,
    "year": 2013,
    "fractiondate": "2013.5781",
    "eventcode": 129,
    "quadclass": 3,
    "nummentions": 5,
    "numsources": 1,
    "numarticles": 5,
    "avgtone": "3.59520639147803",
    "sourceurl": "http://blogs.rollcall.com/goppers/in-a-government-shutdown-heritage-action-lacks-a-plan-b/",
    "feature_id": "531871",
    "feature_name": "Washington",
    "state_alpha": "DC",
    "county_name": "District of Columbia",
    "county_numeric": "001",
    "prim_lat_dec": "38.8951118",
    "prim_long_dec": "-77.0363658",
    "elev_in_m": "7",
    "elev_in_ft": "23",
    "lat": 38.8951118,
    "long": -77.0363658
  },
  {
    "globaleventid": 261512168,
    "sqldate": 20130731,
    "monthyear": 201307,
    "year": 2013,
    "fractiondate": "2013.5781",
    "eventcode": 112,
    "quadclass": 3,
    "nummentions": 10,
    "numsources": 1,
    "numarticles": 10,
    "avgtone": "2.44565217391304",
    "sourceurl": "http://www.huffingtonpost.com/2013/07/30/nsa-surveillance_n_3679528.html?utm_hp_ref=denver&ir=Denver",
    "feature_id": "531871",
    "feature_name": "Washington",
    "state_alpha": "DC",
    "county_name": "District of Columbia",
    "county_numeric": "001",
    "prim_lat_dec": "38.8951118",
    "prim_long_dec": "-77.0363658",
    "elev_in_m": "7",
    "elev_in_ft": "23",
    "lat": 38.8951118,
    "long": -77.0363658
  },
  {
    "globaleventid": 261512158,
    "sqldate": 20130731,
    "monthyear": 201307,
    "year": 2013,
    "fractiondate": "2013.5781",
    "eventcode": 111,
    "quadclass": 3,
    "nummentions": 2,
    "numsources": 1,
    "numarticles": 2,
    "avgtone": "2.2181146025878",
    "sourceurl": "http://www.abqjournal.com/228002/news/hsd-decision-protested.html",
    "feature_id": "928679",
    "feature_name": "Albuquerque",
    "state_alpha": "NM",
    "county_name": "Bernalillo",
    "county_numeric": "001",
    "prim_lat_dec": "35.0844909",
    "prim_long_dec": "-106.6511367",
    "elev_in_m": "1510",
    "elev_in_ft": "4954",
    "lat": 35.0844909,
    "long": -106.6511367
  },
  {
    "globaleventid": 261512157,
    "sqldate": 20130731,
    "monthyear": 201307,
    "year": 2013,
    "fractiondate": "2013.5781",
    "eventcode": 111,
    "quadclass": 3,
    "nummentions": 2,
    "numsources": 1,
    "numarticles": 2,
    "avgtone": "2.23004694835681",
    "sourceurl": "http://www.heraldnet.com/article/20130730/BIZ/707309896/1005",
    "feature_id": "531871",
    "feature_name": "Washington",
    "state_alpha": "DC",
    "county_name": "District of Columbia",
    "county_numeric": "001",
    "prim_lat_dec": "38.8951118",
    "prim_long_dec": "-77.0363658",
    "elev_in_m": "7",
    "elev_in_ft": "23",
    "lat": 38.8951118,
    "long": -77.0363658
  },
  {
    "globaleventid": 261512151,
    "sqldate": 20130731,
    "monthyear": 201307,
    "year": 2013,
    "fractiondate": "2013.5781",
    "eventcode": 110,
    "quadclass": 3,
    "nummentions": 10,
    "numsources": 1,
    "numarticles": 10,
    "avgtone": "1.24223602484472",
    "sourceurl": "http://tv.msnbc.com/2013/07/31/congress-told-of-extent-of-nsa-surveillance-program-years-ago/",
    "feature_id": "531871",
    "feature_name": "Washington",
    "state_alpha": "DC",
    "county_name": "District of Columbia",
    "county_numeric": "001",
    "prim_lat_dec": "38.8951118",
    "prim_long_dec": "-77.0363658",
    "elev_in_m": "7",
    "elev_in_ft": "23",
    "lat": 38.8951118,
    "long": -77.0363658
  },
  {
    "globaleventid": 261511947,
    "sqldate": 20130731,
    "monthyear": 201307,
    "year": 2013,
    "fractiondate": "2013.5781",
    "eventcode": 162,
    "quadclass": 4,
    "nummentions": 10,
    "numsources": 1,
    "numarticles": 10,
    "avgtone": "2.4390243902439",
    "sourceurl": "http://www.lakewyliepilot.com/2013/07/31/2001397/senate-kills-effort-to-cut-off.html",
    "feature_id": "1233775",
    "feature_name": "Lake Wylie",
    "state_alpha": "SC",
    "county_name": "York",
    "county_numeric": "091",
    "prim_lat_dec": "35.108476",
    "prim_long_dec": "-81.0428538",
    "elev_in_m": "179",
    "elev_in_ft": "587",
    "lat": 35.108476,
    "long": -81.0428538
  },
  {
    "globaleventid": 261511936,
    "sqldate": 20130731,
    "monthyear": 201307,
    "year": 2013,
    "fractiondate": "2013.5781",
    "eventcode": 120,
    "quadclass": 3,
    "nummentions": 44,
    "numsources": 5,
    "numarticles": 44,
    "avgtone": "3.196898025468",
    "sourceurl": "http://www.beaumontenterprise.com/news/politics/article/Senate-roundly-rejects-proposal-to-halt-Egypt-aid-4697856.php",
    "feature_id": "531871",
    "feature_name": "Washington",
    "state_alpha": "DC",
    "county_name": "District of Columbia",
    "county_numeric": "001",
    "prim_lat_dec": "38.8951118",
    "prim_long_dec": "-77.0363658",
    "elev_in_m": "7",
    "elev_in_ft": "23",
    "lat": 38.8951118,
    "long": -77.0363658
  },
  {
    "globaleventid": 261511934,
    "sqldate": 20130731,
    "monthyear": 201307,
    "year": 2013,
    "fractiondate": "2013.5781",
    "eventcode": 120,
    "quadclass": 3,
    "nummentions": 2,
    "numsources": 1,
    "numarticles": 2,
    "avgtone": "4.03800475059382",
    "sourceurl": "http://dailycaller.com/2013/07/31/senate-continues-aid-to-egypt-over-rand-pauls-objections/",
    "feature_id": "423587",
    "feature_name": "Chicago",
    "state_alpha": "IL",
    "county_name": "Cook",
    "county_numeric": "031",
    "prim_lat_dec": "41.850033",
    "prim_long_dec": "-87.6500523",
    "elev_in_m": "179",
    "elev_in_ft": "587",
    "lat": 41.850033,
    "long": -87.6500523
  },
  {
    "globaleventid": 261511904,
    "sqldate": 20130731,
    "monthyear": 201307,
    "year": 2013,
    "fractiondate": "2013.5781",
    "eventcode": 193,
    "quadclass": 4,
    "nummentions": 8,
    "numsources": 1,
    "numarticles": 8,
    "avgtone": "3.24825986078886",
    "sourceurl": "http://www.phillyburbs.com/news/local/burlington_county_times_news/th-district-lawmakers-want-minimum-security-standards-for-new-schools/article_bf096212-080e-5e59-93d8-831c5ed83e6e.html",
    "feature_id": "423587",
    "feature_name": "Chicago",
    "state_alpha": "IL",
    "county_name": "Cook",
    "county_numeric": "031",
    "prim_lat_dec": "41.850033",
    "prim_long_dec": "-87.6500523",
    "elev_in_m": "179",
    "elev_in_ft": "587",
    "lat": 41.850033,
    "long": -87.6500523
  },
  {
    "globaleventid": 261511903,
    "sqldate": 20130731,
    "monthyear": 201307,
    "year": 2013,
    "fractiondate": "2013.5781",
    "eventcode": 193,
    "quadclass": 4,
    "nummentions": 2,
    "numsources": 1,
    "numarticles": 2,
    "avgtone": "3.24825986078886",
    "sourceurl": "http://www.phillyburbs.com/news/local/burlington_county_times_news/th-district-lawmakers-want-minimum-security-standards-for-new-schools/article_bf096212-080e-5e59-93d8-831c5ed83e6e.html",
    "feature_id": "423587",
    "feature_name": "Chicago",
    "state_alpha": "IL",
    "county_name": "Cook",
    "county_numeric": "031",
    "prim_lat_dec": "41.850033",
    "prim_long_dec": "-87.6500523",
    "elev_in_m": "179",
    "elev_in_ft": "587",
    "lat": 41.850033,
    "long": -87.6500523
  },
  {
    "globaleventid": 261511901,
    "sqldate": 20130731,
    "monthyear": 201307,
    "year": 2013,
    "fractiondate": "2013.5781",
    "eventcode": 172,
    "quadclass": 4,
    "nummentions": 10,
    "numsources": 1,
    "numarticles": 10,
    "avgtone": "1.25",
    "sourceurl": "http://www.chicagotribune.com/news/local/breaking/chi-judge-denies-motion-to-halt-cps-school-closings-20130731,0,622455.story",
    "feature_id": "423587",
    "feature_name": "Chicago",
    "state_alpha": "IL",
    "county_name": "Cook",
    "county_numeric": "031",
    "prim_lat_dec": "41.850033",
    "prim_long_dec": "-87.6500523",
    "elev_in_m": "179",
    "elev_in_ft": "587",
    "lat": 41.850033,
    "long": -87.6500523
  },
  {
    "globaleventid": 261511899,
    "sqldate": 20130731,
    "monthyear": 201307,
    "year": 2013,
    "fractiondate": "2013.5781",
    "eventcode": 111,
    "quadclass": 3,
    "nummentions": 18,
    "numsources": 2,
    "numarticles": 18,
    "avgtone": "2.49480384199792",
    "sourceurl": "http://www.greenwichtime.com/news/article/LePage-blasts-Senate-president-for-school-remarks-4697859.php&c=VCd14UuVkCTzDaKE-ykv3fuUNE7AgjDZfvOEogoon4U&mkt=en-us",
    "feature_id": "573692",
    "feature_name": "Portland",
    "state_alpha": "ME",
    "county_name": "Cumberland",
    "county_numeric": "005",
    "prim_lat_dec": "43.661471",
    "prim_long_dec": "-70.2553259",
    "elev_in_m": "19",
    "elev_in_ft": "62",
    "lat": 43.661471,
    "long": -70.2553259
  },
  {
    "globaleventid": 261511897,
    "sqldate": 20130731,
    "monthyear": 201307,
    "year": 2013,
    "fractiondate": "2013.5781",
    "eventcode": 100,
    "quadclass": 3,
    "nummentions": 8,
    "numsources": 1,
    "numarticles": 8,
    "avgtone": "3.24825986078886",
    "sourceurl": "http://www.phillyburbs.com/news/local/burlington_county_times_news/th-district-lawmakers-want-minimum-security-standards-for-new-schools/article_bf096212-080e-5e59-93d8-831c5ed83e6e.html",
    "feature_id": "423587",
    "feature_name": "Chicago",
    "state_alpha": "IL",
    "county_name": "Cook",
    "county_numeric": "031",
    "prim_lat_dec": "41.850033",
    "prim_long_dec": "-87.6500523",
    "elev_in_m": "179",
    "elev_in_ft": "587",
    "lat": 41.850033,
    "long": -87.6500523
  },
  {
    "globaleventid": 261511896,
    "sqldate": 20130731,
    "monthyear": 201307,
    "year": 2013,
    "fractiondate": "2013.5781",
    "eventcode": 100,
    "quadclass": 3,
    "nummentions": 2,
    "numsources": 1,
    "numarticles": 2,
    "avgtone": "3.24825986078886",
    "sourceurl": "http://www.phillyburbs.com/news/local/burlington_county_times_news/th-district-lawmakers-want-minimum-security-standards-for-new-schools/article_bf096212-080e-5e59-93d8-831c5ed83e6e.html",
    "feature_id": "423587",
    "feature_name": "Chicago",
    "state_alpha": "IL",
    "county_name": "Cook",
    "county_numeric": "031",
    "prim_lat_dec": "41.850033",
    "prim_long_dec": "-87.6500523",
    "elev_in_m": "179",
    "elev_in_ft": "587",
    "lat": 41.850033,
    "long": -87.6500523
  },
  {
    "globaleventid": 261511830,
    "sqldate": 20130731,
    "monthyear": 201307,
    "year": 2013,
    "fractiondate": "2013.5781",
    "eventcode": 120,
    "quadclass": 3,
    "nummentions": 5,
    "numsources": 1,
    "numarticles": 5,
    "avgtone": "0.55045871559633",
    "sourceurl": "http://www.onlinesentinel.com/news/skowhegan-district-court_2013-07-31.html",
    "feature_id": "575529",
    "feature_name": "Skowhegan",
    "state_alpha": "ME",
    "county_name": "Somerset",
    "county_numeric": "025",
    "prim_lat_dec": "44.7650618",
    "prim_long_dec": "-69.719218",
    "elev_in_m": "52",
    "elev_in_ft": "171",
    "lat": 44.7650618,
    "long": -69.719218
  },
  {
    "globaleventid": 261511829,
    "sqldate": 20130731,
    "monthyear": 201307,
    "year": 2013,
    "fractiondate": "2013.5781",
    "eventcode": 110,
    "quadclass": 3,
    "nummentions": 5,
    "numsources": 1,
    "numarticles": 5,
    "avgtone": "0.55045871559633",
    "sourceurl": "http://www.onlinesentinel.com/news/skowhegan-district-court_2013-07-31.html",
    "feature_id": "575529",
    "feature_name": "Skowhegan",
    "state_alpha": "ME",
    "county_name": "Somerset",
    "county_numeric": "025",
    "prim_lat_dec": "44.7650618",
    "prim_long_dec": "-69.719218",
    "elev_in_m": "52",
    "elev_in_ft": "171",
    "lat": 44.7650618,
    "long": -69.719218
  },
  {
    "globaleventid": 261511808,
    "sqldate": 20130731,
    "monthyear": 201307,
    "year": 2013,
    "fractiondate": "2013.5781",
    "eventcode": 128,
    "quadclass": 3,
    "nummentions": 10,
    "numsources": 1,
    "numarticles": 10,
    "avgtone": "2.12121212121212",
    "sourceurl": "http://www.mysanantonio.com/news/world/article/Scuffles-erupt-over-Taiwan-China-trade-pact-4696877.php",
    "feature_id": "1380951",
    "feature_name": "San Antonio",
    "state_alpha": "TX",
    "county_name": "Bexar",
    "county_numeric": "029",
    "prim_lat_dec": "29.4241219",
    "prim_long_dec": "-98.4936282",
    "elev_in_m": "198",
    "elev_in_ft": "650",
    "lat": 29.4241219,
    "long": -98.4936282
  },
  {
    "globaleventid": 261511807,
    "sqldate": 20130731,
    "monthyear": 201307,
    "year": 2013,
    "fractiondate": "2013.5781",
    "eventcode": 128,
    "quadclass": 3,
    "nummentions": 10,
    "numsources": 1,
    "numarticles": 10,
    "avgtone": "3.34928229665072",
    "sourceurl": "http://www.lakewyliepilot.com/2013/07/30/2000505/scuffles-erupt-over-taiwan-china.html",
    "feature_id": "1233775",
    "feature_name": "Lake Wylie",
    "state_alpha": "SC",
    "county_name": "York",
    "county_numeric": "091",
    "prim_lat_dec": "35.108476",
    "prim_long_dec": "-81.0428538",
    "elev_in_m": "179",
    "elev_in_ft": "587",
    "lat": 35.108476,
    "long": -81.0428538
  },
  {
    "globaleventid": 261511754,
    "sqldate": 20130731,
    "monthyear": 201307,
    "year": 2013,
    "fractiondate": "2013.5781",
    "eventcode": 120,
    "quadclass": 3,
    "nummentions": 16,
    "numsources": 3,
    "numarticles": 16,
    "avgtone": "0.656157985582292",
    "sourceurl": "http://www.crainsnewyork.com/article/20130731/RETAIL_APPAREL/130739969&c=cJnqmrjBeIWPz49GjpDYX3dW68IkRKqyU-GNVceSGts&mkt=en-us",
    "feature_id": "1497051",
    "feature_name": "Norfolk",
    "state_alpha": "VA",
    "county_name": "Norfolk (city)",
    "county_numeric": "710",
    "prim_lat_dec": "36.8468146",
    "prim_long_dec": "-76.2852183",
    "elev_in_m": "3",
    "elev_in_ft": "10",
    "lat": 36.8468146,
    "long": -76.2852183
  },
  {
    "globaleventid": 261511748,
    "sqldate": 20130731,
    "monthyear": 201307,
    "year": 2013,
    "fractiondate": "2013.5781",
    "eventcode": 100,
    "quadclass": 3,
    "nummentions": 10,
    "numsources": 1,
    "numarticles": 10,
    "avgtone": "0.680272108843537",
    "sourceurl": "http://www.crainsnewyork.com/article/20130731/RETAIL_APPAREL/130739969&c=cJnqmrjBeIWPz49GjpDYX3dW68IkRKqyU-GNVceSGts&mkt=en-us",
    "feature_id": "531871",
    "feature_name": "Washington",
    "state_alpha": "DC",
    "county_name": "District of Columbia",
    "county_numeric": "001",
    "prim_lat_dec": "38.8951118",
    "prim_long_dec": "-77.0363658",
    "elev_in_m": "7",
    "elev_in_ft": "23",
    "lat": 38.8951118,
    "long": -77.0363658
  },
  {
    "globaleventid": 261511746,
    "sqldate": 20130731,
    "monthyear": 201307,
    "year": 2013,
    "fractiondate": "2013.5781",
    "eventcode": 100,
    "quadclass": 3,
    "nummentions": 6,
    "numsources": 2,
    "numarticles": 6,
    "avgtone": "0.615967780146885",
    "sourceurl": "http://www.washingtonpost.com/business/feds-debit-card-swipe-fee-rules-rejected-by-us-judge/2013/07/31/e32ef322-f9ea-11e2-89f7-8599e3f77a67_story.html",
    "feature_id": "531871",
    "feature_name": "Washington",
    "state_alpha": "DC",
    "county_name": "District of Columbia",
    "county_numeric": "001",
    "prim_lat_dec": "38.8951118",
    "prim_long_dec": "-77.0363658",
    "elev_in_m": "7",
    "elev_in_ft": "23",
    "lat": 38.8951118,
    "long": -77.0363658
  },
  {
    "globaleventid": 261510763,
    "sqldate": 20130731,
    "monthyear": 201307,
    "year": 2013,
    "fractiondate": "2013.5781",
    "eventcode": 190,
    "quadclass": 4,
    "nummentions": 3,
    "numsources": 1,
    "numarticles": 3,
    "avgtone": "3.47155255544841",
    "sourceurl": "http://www.tampabay.com/opinion/letters/thursdays-letters-political-will-lacking-on-mass-transit/2134184",
    "feature_id": "531871",
    "feature_name": "Washington",
    "state_alpha": "DC",
    "county_name": "District of Columbia",
    "county_numeric": "001",
    "prim_lat_dec": "38.8951118",
    "prim_long_dec": "-77.0363658",
    "elev_in_m": "7",
    "elev_in_ft": "23",
    "lat": 38.8951118,
    "long": -77.0363658
  },
  {
    "globaleventid": 261510761,
    "sqldate": 20130731,
    "monthyear": 201307,
    "year": 2013,
    "fractiondate": "2013.5781",
    "eventcode": 111,
    "quadclass": 3,
    "nummentions": 8,
    "numsources": 1,
    "numarticles": 8,
    "avgtone": "3.95480225988701",
    "sourceurl": "http://www.thefiscaltimes.com/Articles/2013/07/31/Kerrys-Early-Success-Highlights-Clintons-Failures.aspx",
    "feature_id": "531871",
    "feature_name": "Washington",
    "state_alpha": "DC",
    "county_name": "District of Columbia",
    "county_numeric": "001",
    "prim_lat_dec": "38.8951118",
    "prim_long_dec": "-77.0363658",
    "elev_in_m": "7",
    "elev_in_ft": "23",
    "lat": 38.8951118,
    "long": -77.0363658
  },
  {
    "globaleventid": 261510691,
    "sqldate": 20130731,
    "monthyear": 201307,
    "year": 2013,
    "fractiondate": "2013.5781",
    "eventcode": 190,
    "quadclass": 4,
    "nummentions": 10,
    "numsources": 1,
    "numarticles": 10,
    "avgtone": "4.37158469945355",
    "sourceurl": "http://www.reporterherald.com/opinion/letters/ci_23762987/letter-obama-is-part-washington-he-decries",
    "feature_id": "531871",
    "feature_name": "Washington",
    "state_alpha": "DC",
    "county_name": "District of Columbia",
    "county_numeric": "001",
    "prim_lat_dec": "38.8951118",
    "prim_long_dec": "-77.0363658",
    "elev_in_m": "7",
    "elev_in_ft": "23",
    "lat": 38.8951118,
    "long": -77.0363658
  },
  {
    "globaleventid": 261510389,
    "sqldate": 20130731,
    "monthyear": 201307,
    "year": 2013,
    "fractiondate": "2013.5781",
    "eventcode": 161,
    "quadclass": 4,
    "nummentions": 1,
    "numsources": 1,
    "numarticles": 1,
    "avgtone": "3.27272727272727",
    "sourceurl": "http://www.dailystar.com.lb/News/Lebanon-News/2013/Aug-01/225852-connelly-hopes-new-cabinet-will-be-closer-to-us.ashx",
    "feature_id": "531871",
    "feature_name": "Washington",
    "state_alpha": "DC",
    "county_name": "District of Columbia",
    "county_numeric": "001",
    "prim_lat_dec": "38.8951118",
    "prim_long_dec": "-77.0363658",
    "elev_in_m": "7",
    "elev_in_ft": "23",
    "lat": 38.8951118,
    "long": -77.0363658
  },
  {
    "globaleventid": 261510180,
    "sqldate": 20130731,
    "monthyear": 201307,
    "year": 2013,
    "fractiondate": "2013.5781",
    "eventcode": 173,
    "quadclass": 4,
    "nummentions": 6,
    "numsources": 1,
    "numarticles": 6,
    "avgtone": "2.17391304347826",
    "sourceurl": "http://www.ldnews.com/national/ci_23766274/indonesian-prosecutors-seek-jail-soldiers&c=lMlVjVuv0gCgLLrbKY-t-Ffp8j0sToesIouFeF9Ma_4&mkt=en-us",
    "feature_id": "531871",
    "feature_name": "Washington",
    "state_alpha": "DC",
    "county_name": "District of Columbia",
    "county_numeric": "001",
    "prim_lat_dec": "38.8951118",
    "prim_long_dec": "-77.0363658",
    "elev_in_m": "7",
    "elev_in_ft": "23",
    "lat": 38.8951118,
    "long": -77.0363658
  },
  {
    "globaleventid": 261509961,
    "sqldate": 20130731,
    "monthyear": 201307,
    "year": 2013,
    "fractiondate": "2013.5781",
    "eventcode": 100,
    "quadclass": 3,
    "nummentions": 6,
    "numsources": 1,
    "numarticles": 6,
    "avgtone": "2.99003322259136",
    "sourceurl": "http://www.agweb.com/article/golden_state_sorrows/",
    "feature_id": "531871",
    "feature_name": "Washington",
    "state_alpha": "DC",
    "county_name": "District of Columbia",
    "county_numeric": "001",
    "prim_lat_dec": "38.8951118",
    "prim_long_dec": "-77.0363658",
    "elev_in_m": "7",
    "elev_in_ft": "23",
    "lat": 38.8951118,
    "long": -77.0363658
  },
  {
    "globaleventid": 261509955,
    "sqldate": 20130731,
    "monthyear": 201307,
    "year": 2013,
    "fractiondate": "2013.5781",
    "eventcode": 173,
    "quadclass": 4,
    "nummentions": 3,
    "numsources": 1,
    "numarticles": 3,
    "avgtone": "0.342465753424658",
    "sourceurl": "http://blog.al.com/breaking/2013/07/lowell_barron_scheduled_to_be.html",
    "feature_id": "154493",
    "feature_name": "Scottsboro",
    "state_alpha": "AL",
    "county_name": "Jackson",
    "county_numeric": "071",
    "prim_lat_dec": "34.6723069",
    "prim_long_dec": "-86.0341463",
    "elev_in_m": "196",
    "elev_in_ft": "643",
    "lat": 34.6723069,
    "long": -86.0341463
  },
  {
    "globaleventid": 261509954,
    "sqldate": 20130731,
    "monthyear": 201307,
    "year": 2013,
    "fractiondate": "2013.5781",
    "eventcode": 173,
    "quadclass": 4,
    "nummentions": 1,
    "numsources": 1,
    "numarticles": 1,
    "avgtone": "0.342465753424658",
    "sourceurl": "http://blog.al.com/breaking/2013/07/lowell_barron_scheduled_to_be.html",
    "feature_id": "150235",
    "feature_name": "Fort Payne",
    "state_alpha": "AL",
    "county_name": "DeKalb",
    "county_numeric": "049",
    "prim_lat_dec": "34.4442547",
    "prim_long_dec": "-85.7196893",
    "elev_in_m": "275",
    "elev_in_ft": "902",
    "lat": 34.4442547,
    "long": -85.7196893
  },
  {
    "globaleventid": 261509951,
    "sqldate": 20130731,
    "monthyear": 201307,
    "year": 2013,
    "fractiondate": "2013.5781",
    "eventcode": 140,
    "quadclass": 3,
    "nummentions": 4,
    "numsources": 1,
    "numarticles": 4,
    "avgtone": "3.13199105145414",
    "sourceurl": "http://www.coalguru.com/north_america/united_mine_workers_protest_cuts_to_health_and_retirement_benefits_report/11614",
    "feature_id": "617565",
    "feature_name": "Boston",
    "state_alpha": "MA",
    "county_name": "Suffolk",
    "county_numeric": "025",
    "prim_lat_dec": "42.3584308",
    "prim_long_dec": "-71.0597732",
    "elev_in_m": "14",
    "elev_in_ft": "46",
    "lat": 42.3584308,
    "long": -71.0597732
  },
  {
    "globaleventid": 261509944,
    "sqldate": 20130731,
    "monthyear": 201307,
    "year": 2013,
    "fractiondate": "2013.5781",
    "eventcode": 114,
    "quadclass": 3,
    "nummentions": 6,
    "numsources": 1,
    "numarticles": 6,
    "avgtone": "1.43149284253579",
    "sourceurl": "http://www.dailycal.org/2013/07/30/former-lieutenant-in-uc-davis-pepper-spray-incident-files-workers-compensation-claim/",
    "feature_id": "1659564",
    "feature_name": "Sacramento",
    "state_alpha": "CA",
    "county_name": "Sacramento",
    "county_numeric": "067",
    "prim_lat_dec": "38.5815719",
    "prim_long_dec": "-121.4943996",
    "elev_in_m": "8",
    "elev_in_ft": "26",
    "lat": 38.5815719,
    "long": -121.4943996
  },
  {
    "globaleventid": 261509943,
    "sqldate": 20130731,
    "monthyear": 201307,
    "year": 2013,
    "fractiondate": "2013.5781",
    "eventcode": 112,
    "quadclass": 3,
    "nummentions": 1,
    "numsources": 1,
    "numarticles": 1,
    "avgtone": "2.88461538461538",
    "sourceurl": "http://www.mlive.com/news/detroit/index.ssf/2013/07/live_man_accused_of_killing_tw.html&c=iGqHpvEFRGW57nXSR3AaejPWvUEisrrXYcnuOVltAAc&mkt=en-us",
    "feature_id": "1617959",
    "feature_name": "Detroit",
    "state_alpha": "MI",
    "county_name": "Wayne",
    "county_numeric": "163",
    "prim_lat_dec": "42.331427",
    "prim_long_dec": "-83.0457538",
    "elev_in_m": "182",
    "elev_in_ft": "597",
    "lat": 42.331427,
    "long": -83.0457538
  },
  {
    "globaleventid": 261509939,
    "sqldate": 20130731,
    "monthyear": 201307,
    "year": 2013,
    "fractiondate": "2013.5781",
    "eventcode": 100,
    "quadclass": 3,
    "nummentions": 2,
    "numsources": 1,
    "numarticles": 2,
    "avgtone": "2.99003322259136",
    "sourceurl": "http://www.agweb.com/article/golden_state_sorrows/",
    "feature_id": "531871",
    "feature_name": "Washington",
    "state_alpha": "DC",
    "county_name": "District of Columbia",
    "county_numeric": "001",
    "prim_lat_dec": "38.8951118",
    "prim_long_dec": "-77.0363658",
    "elev_in_m": "7",
    "elev_in_ft": "23",
    "lat": 38.8951118,
    "long": -77.0363658
  },
  {
    "globaleventid": 261509938,
    "sqldate": 20130731,
    "monthyear": 201307,
    "year": 2013,
    "fractiondate": "2013.5781",
    "eventcode": 100,
    "quadclass": 3,
    "nummentions": 2,
    "numsources": 1,
    "numarticles": 2,
    "avgtone": "2.99003322259136",
    "sourceurl": "http://www.agweb.com/article/golden_state_sorrows/",
    "feature_id": "1659564",
    "feature_name": "Sacramento",
    "state_alpha": "CA",
    "county_name": "Sacramento",
    "county_numeric": "067",
    "prim_lat_dec": "38.5815719",
    "prim_long_dec": "-121.4943996",
    "elev_in_m": "8",
    "elev_in_ft": "26",
    "lat": 38.5815719,
    "long": -121.4943996
  },
  {
    "globaleventid": 261509831,
    "sqldate": 20130731,
    "monthyear": 201307,
    "year": 2013,
    "fractiondate": "2013.5781",
    "eventcode": 190,
    "quadclass": 4,
    "nummentions": 10,
    "numsources": 1,
    "numarticles": 10,
    "avgtone": "2.63929618768328",
    "sourceurl": "http://www.washingtonguardian.com/halliburton-plead-guilty-gulf-oil-spill",
    "feature_id": "531871",
    "feature_name": "Washington",
    "state_alpha": "DC",
    "county_name": "District of Columbia",
    "county_numeric": "001",
    "prim_lat_dec": "38.8951118",
    "prim_long_dec": "-77.0363658",
    "elev_in_m": "7",
    "elev_in_ft": "23",
    "lat": 38.8951118,
    "long": -77.0363658
  },
  {
    "globaleventid": 261509829,
    "sqldate": 20130731,
    "monthyear": 201307,
    "year": 2013,
    "fractiondate": "2013.5781",
    "eventcode": 190,
    "quadclass": 4,
    "nummentions": 30,
    "numsources": 3,
    "numarticles": 30,
    "avgtone": "2.20056370361011",
    "sourceurl": "http://www.theadvertiser.com/viewart/20130731/NEWS01/130731009/Halliburton-plead-guilty-Gulf-oil-spill-Sept-19",
    "feature_id": "1629985",
    "feature_name": "New Orleans",
    "state_alpha": "LA",
    "county_name": "Orleans",
    "county_numeric": "071",
    "prim_lat_dec": "29.9546482",
    "prim_long_dec": "-90.075072",
    "elev_in_m": "0",
    "elev_in_ft": "0",
    "lat": 29.9546482,
    "long": -90.075072
  },
  {
    "globaleventid": 261509828,
    "sqldate": 20130731,
    "monthyear": 201307,
    "year": 2013,
    "fractiondate": "2013.5781",
    "eventcode": 190,
    "quadclass": 4,
    "nummentions": 110,
    "numsources": 10,
    "numarticles": 110,
    "avgtone": "2.03797081971723",
    "sourceurl": "http://www.wral.com/halliburton-enters-plea-to-bp-spill-related-charge/12726484/",
    "feature_id": "1380948",
    "feature_name": "Houston",
    "state_alpha": "TX",
    "county_name": "Harris",
    "county_numeric": "201",
    "prim_lat_dec": "29.7632836",
    "prim_long_dec": "-95.3632715",
    "elev_in_m": "11",
    "elev_in_ft": "36",
    "lat": 29.7632836,
    "long": -95.3632715
  },
  {
    "globaleventid": 261509637,
    "sqldate": 20130731,
    "monthyear": 201307,
    "year": 2013,
    "fractiondate": "2013.5781",
    "eventcode": 193,
    "quadclass": 4,
    "nummentions": 2,
    "numsources": 1,
    "numarticles": 2,
    "avgtone": "1.34529147982063",
    "sourceurl": "http://www.sun-sentinel.com/news/broward/coconut-creek/fl-underage-coconut-creek-sexting-20130731,0,4726353.story",
    "feature_id": "300334",
    "feature_name": "Coconut Creek",
    "state_alpha": "FL",
    "county_name": "Broward",
    "county_numeric": "011",
    "prim_lat_dec": "26.2517482",
    "prim_long_dec": "-80.1789351",
    "elev_in_m": "2",
    "elev_in_ft": "7",
    "lat": 26.2517482,
    "long": -80.1789351
  },
  {
    "globaleventid": 261509601,
    "sqldate": 20130731,
    "monthyear": 201307,
    "year": 2013,
    "fractiondate": "2013.5781",
    "eventcode": 1312,
    "quadclass": 3,
    "nummentions": 2,
    "numsources": 1,
    "numarticles": 2,
    "avgtone": "2.30769230769231",
    "sourceurl": "http://host.madison.com/ct/news/local/writers/jack_craver/glenn-grothman-wants-less-disclosure-for-campaign-contributors/article_d6636cc6-f95f-11e2-8a06-001a4bcf887a.html",
    "feature_id": "1576453",
    "feature_name": "West Bend",
    "state_alpha": "WI",
    "county_name": "Washington",
    "county_numeric": "131",
    "prim_lat_dec": "43.4252776",
    "prim_long_dec": "-88.1834277",
    "elev_in_m": "273",
    "elev_in_ft": "896",
    "lat": 43.4252776,
    "long": -88.1834277
  },
  {
    "globaleventid": 261509596,
    "sqldate": 20130731,
    "monthyear": 201307,
    "year": 2013,
    "fractiondate": "2013.5781",
    "eventcode": 111,
    "quadclass": 3,
    "nummentions": 20,
    "numsources": 2,
    "numarticles": 20,
    "avgtone": "2.1473092125266",
    "sourceurl": "http://minnesota.publicradio.org/display/web/2013/07/31/health/delay-of-employer-penalties?refid=0&utm_source=feedburner&utm_medium=feed&utm_campaign=Feed%3A+MPR_NewsFeatures+%28News+%26+Features+from+Minnesota+Public+Radio%29",
    "feature_id": "531871",
    "feature_name": "Washington",
    "state_alpha": "DC",
    "county_name": "District of Columbia",
    "county_numeric": "001",
    "prim_lat_dec": "38.8951118",
    "prim_long_dec": "-77.0363658",
    "elev_in_m": "7",
    "elev_in_ft": "23",
    "lat": 38.8951118,
    "long": -77.0363658
  },
  {
    "globaleventid": 261508358,
    "sqldate": 20130731,
    "monthyear": 201307,
    "year": 2013,
    "fractiondate": "2013.5781",
    "eventcode": 1822,
    "quadclass": 4,
    "nummentions": 1,
    "numsources": 1,
    "numarticles": 1,
    "avgtone": "0.0",
    "sourceurl": "BBC Monitoring",
    "feature_id": "531871",
    "feature_name": "Washington",
    "state_alpha": "DC",
    "county_name": "District of Columbia",
    "county_numeric": "001",
    "prim_lat_dec": "38.8951118",
    "prim_long_dec": "-77.0363658",
    "elev_in_m": "7",
    "elev_in_ft": "23",
    "lat": 38.8951118,
    "long": -77.0363658
  },
  {
    "globaleventid": 261507843,
    "sqldate": 20130731,
    "monthyear": 201307,
    "year": 2013,
    "fractiondate": "2013.5781",
    "eventcode": 173,
    "quadclass": 4,
    "nummentions": 1,
    "numsources": 1,
    "numarticles": 1,
    "avgtone": "1.24740124740125",
    "sourceurl": "http://www.masslive.com/news/index.ssf/2013/07/tammy_walker_pleads_guilty_in.html",
    "feature_id": "617597",
    "feature_name": "Chicopee",
    "state_alpha": "MA",
    "county_name": "Hampden",
    "county_numeric": "013",
    "prim_lat_dec": "42.1487043",
    "prim_long_dec": "-72.6078672",
    "elev_in_m": "26",
    "elev_in_ft": "85",
    "lat": 42.1487043,
    "long": -72.6078672
  },
  {
    "globaleventid": 261507842,
    "sqldate": 20130731,
    "monthyear": 201307,
    "year": 2013,
    "fractiondate": "2013.5781",
    "eventcode": 173,
    "quadclass": 4,
    "nummentions": 1,
    "numsources": 1,
    "numarticles": 1,
    "avgtone": "1.24740124740125",
    "sourceurl": "http://www.masslive.com/news/index.ssf/2013/07/tammy_walker_pleads_guilty_in.html",
    "feature_id": "609283",
    "feature_name": "Hampden",
    "state_alpha": "MA",
    "county_name": "Hampden",
    "county_numeric": "013",
    "prim_lat_dec": "42.0639841",
    "prim_long_dec": "-72.4134168",
    "elev_in_m": "95",
    "elev_in_ft": "312",
    "lat": 42.0639841,
    "long": -72.4134168
  },
  {
    "globaleventid": 261507833,
    "sqldate": 20130731,
    "monthyear": 201307,
    "year": 2013,
    "fractiondate": "2013.5781",
    "eventcode": 173,
    "quadclass": 4,
    "nummentions": 1,
    "numsources": 1,
    "numarticles": 1,
    "avgtone": "3.24594257178527",
    "sourceurl": "http://www.countytimes.com/articles/2013/07/31/news/doc51f98c08c1e27879078188.txt",
    "feature_id": "964489",
    "feature_name": "Saratoga Springs",
    "state_alpha": "NY",
    "county_name": "Saratoga",
    "county_numeric": "091",
    "prim_lat_dec": "43.0831301",
    "prim_long_dec": "-73.7845651",
    "elev_in_m": "93",
    "elev_in_ft": "305",
    "lat": 43.0831301,
    "long": -73.7845651
  },
  {
    "globaleventid": 261507832,
    "sqldate": 20130731,
    "monthyear": 201307,
    "year": 2013,
    "fractiondate": "2013.5781",
    "eventcode": 173,
    "quadclass": 4,
    "nummentions": 7,
    "numsources": 1,
    "numarticles": 4,
    "avgtone": "3.24594257178527",
    "sourceurl": "http://www.countytimes.com/articles/2013/07/31/news/doc51f98c08c1e27879078188.txt",
    "feature_id": "958437",
    "feature_name": "New Milford",
    "state_alpha": "NY",
    "county_name": "Orange",
    "county_numeric": "071",
    "prim_lat_dec": "41.234539",
    "prim_long_dec": "-74.4137664",
    "elev_in_m": "142",
    "elev_in_ft": "466",
    "lat": 41.234539,
    "long": -74.4137664
  },
  {
    "globaleventid": 261507831,
    "sqldate": 20130731,
    "monthyear": 201307,
    "year": 2013,
    "fractiondate": "2013.5781",
    "eventcode": 173,
    "quadclass": 4,
    "nummentions": 2,
    "numsources": 1,
    "numarticles": 2,
    "avgtone": "1.0752688172043",
    "sourceurl": "http://www.nj.com/passaic-county/index.ssf/2013/07/nj_man_charged_with_taking_rhode_island_girl_13_is_ordered_held_without_bail.html",
    "feature_id": "881517",
    "feature_name": "Wanaque",
    "state_alpha": "NJ",
    "county_name": "Passaic",
    "county_numeric": "031",
    "prim_lat_dec": "41.0381526",
    "prim_long_dec": "-74.2940378",
    "elev_in_m": "72",
    "elev_in_ft": "236",
    "lat": 41.0381526,
    "long": -74.2940378
  },
  {
    "globaleventid": 261507830,
    "sqldate": 20130731,
    "monthyear": 201307,
    "year": 2013,
    "fractiondate": "2013.5781",
    "eventcode": 173,
    "quadclass": 4,
    "nummentions": 6,
    "numsources": 1,
    "numarticles": 6,
    "avgtone": "1.0752688172043",
    "sourceurl": "http://www.nj.com/passaic-county/index.ssf/2013/07/nj_man_charged_with_taking_rhode_island_girl_13_is_ordered_held_without_bail.html",
    "feature_id": "881517",
    "feature_name": "Wanaque",
    "state_alpha": "NJ",
    "county_name": "Passaic",
    "county_numeric": "031",
    "prim_lat_dec": "41.0381526",
    "prim_long_dec": "-74.2940378",
    "elev_in_m": "72",
    "elev_in_ft": "236",
    "lat": 41.0381526,
    "long": -74.2940378
  },
  {
    "globaleventid": 261507828,
    "sqldate": 20130731,
    "monthyear": 201307,
    "year": 2013,
    "fractiondate": "2013.5781",
    "eventcode": 173,
    "quadclass": 4,
    "nummentions": 4,
    "numsources": 1,
    "numarticles": 4,
    "avgtone": "0.863930885529158",
    "sourceurl": "http://www.providencejournal.com/breaking-news/content/20130731-rhode-island-judges-sentence-two-drivers-convicted-of-drunken-driving-with-deaths-resulting.ece",
    "feature_id": "1219339",
    "feature_name": "Woonsocket",
    "state_alpha": "RI",
    "county_name": "Providence",
    "county_numeric": "007",
    "prim_lat_dec": "42.0028761",
    "prim_long_dec": "-71.5147839",
    "elev_in_m": "59",
    "elev_in_ft": "194",
    "lat": 42.0028761,
    "long": -71.5147839
  },
  {
    "globaleventid": 261507807,
    "sqldate": 20130731,
    "monthyear": 201307,
    "year": 2013,
    "fractiondate": "2013.5781",
    "eventcode": 100,
    "quadclass": 3,
    "nummentions": 5,
    "numsources": 1,
    "numarticles": 5,
    "avgtone": "0.641025641025641",
    "sourceurl": "http://www.bizjournals.com/triangle/morning_call/2013/07/possum-case-costing-state-75k.html",
    "feature_id": "1019281",
    "feature_name": "Brasstown",
    "state_alpha": "NC",
    "county_name": "Clay",
    "county_numeric": "043",
    "prim_lat_dec": "35.0395298",
    "prim_long_dec": "-83.956849",
    "elev_in_m": "489",
    "elev_in_ft": "1604",
    "lat": 35.0395298,
    "long": -83.956849
  },
  {
    "globaleventid": 261507753,
    "sqldate": 20130731,
    "monthyear": 201307,
    "year": 2013,
    "fractiondate": "2013.5781",
    "eventcode": 120,
    "quadclass": 3,
    "nummentions": 2,
    "numsources": 1,
    "numarticles": 2,
    "avgtone": "1.25348189415042",
    "sourceurl": "http://uk.reuters.com/article/2013/07/31/financial-regulation-swipe-fees-idUKL1N0G11LQ20130731?feedType=RSS&feedName=rbssFinancialServicesAndRealEstateNews&utm_source=feedburner&utm_medium=feed&utm_campaign=Feed%3A+reuters%2FUKBankingFinancial+%28News+%2F",
    "feature_id": "531871",
    "feature_name": "Washington",
    "state_alpha": "DC",
    "county_name": "District of Columbia",
    "county_numeric": "001",
    "prim_lat_dec": "38.8951118",
    "prim_long_dec": "-77.0363658",
    "elev_in_m": "7",
    "elev_in_ft": "23",
    "lat": 38.8951118,
    "long": -77.0363658
  },