[
  {
    "globaleventid": 274293784,
    "sqldate": 20131103,
    "monthyear": 201311,
    "year": 2013,
    "fractiondate": "2013.8301",
    "eventcode": 193,
    "quadclass": 4,
    "nummentions": 14,
    "numsources": 2,
    "numarticles": 14,
    "avgtone": "0.0",
    "sourceurl": "http://www.click2houston.com/news/hpd-fight-with-car-thief-leads-to-officerinvolved-shooting/-/1735978/22781902/-/ux96ph/-/index.html",
    "feature_id": "1380948",
    "feature_name": "Houston",
    "state_alpha": "TX",
    "county_name": "Harris",
    "county_numeric": "201",
    "prim_lat_dec": "29.7632836",
    "prim_long_dec": "-95.3632715",
    "elev_in_m": "11",
    "elev_in_ft": "36",
    "lat": 29.7632836,
    "long": -95.3632715
  },
  {
    "globaleventid": 274293783,
    "sqldate": 20131103,
    "monthyear": 201311,
    "year": 2013,
    "fractiondate": "2013.8301",
    "eventcode": 193,
    "quadclass": 4,
    "nummentions": 8,
    "numsources": 1,
    "numarticles": 8,
    "avgtone": "0.0",
    "sourceurl": "http://www.digtriad.com/news/local/article/304633/57/Slain-Coin-Shop-Owners-Truck-Found-No-Arrest",
    "feature_id": "1017529",
    "feature_name": "Albemarle",
    "state_alpha": "NC",
    "county_name": "Buncombe",
    "county_numeric": "021",
    "prim_lat_dec": "35.6115009",
    "prim_long_dec": "-82.542626",
    "elev_in_m": "680",
    "elev_in_ft": "2231",
    "lat": 35.6115009,
    "long": -82.542626
  },
  {
    "globaleventid": 274293782,
    "sqldate": 20131103,
    "monthyear": 201311,
    "year": 2013,
    "fractiondate": "2013.8301",
    "eventcode": 190,
    "quadclass": 4,
    "nummentions": 2,
    "numsources": 1,
    "numarticles": 2,
    "avgtone": "1.82926829268293",
    "sourceurl": "http://now.msn.com/rachel-poole-pregnant-army-wife-attacked-during-video-call-with-husband-has-healthy-baby-girl",
    "feature_id": "1380946",
    "feature_name": "El Paso",
    "state_alpha": "TX",
    "county_name": "El Paso",
    "county_numeric": "141",
    "prim_lat_dec": "31.7587198",
    "prim_long_dec": "-106.4869314",
    "elev_in_m": "1133",
    "elev_in_ft": "3717",
    "lat": 31.7587198,
    "long": -106.4869314
  },
  {
    "globaleventid": 274293781,
    "sqldate": 20131103,
    "monthyear": 201311,
    "year": 2013,
    "fractiondate": "2013.8301",
    "eventcode": 190,
    "quadclass": 4,
    "nummentions": 4,
    "numsources": 1,
    "numarticles": 4,
    "avgtone": "0.0",
    "sourceurl": "http://www.chron.com/news/houston-texas/houston/article/Houston-police-wound-car-theft-suspect-4951238.php",
    "feature_id": "1380948",
    "feature_name": "Houston",
    "state_alpha": "TX",
    "county_name": "Harris",
    "county_numeric": "201",
    "prim_lat_dec": "29.7632836",
    "prim_long_dec": "-95.3632715",
    "elev_in_m": "11",
    "elev_in_ft": "36",
    "lat": 29.7632836,
    "long": -95.3632715
  },
  {
    "globaleventid": 274293780,
    "sqldate": 20131103,
    "monthyear": 201311,
    "year": 2013,
    "fractiondate": "2013.8301",
    "eventcode": 190,
    "quadclass": 4,
    "nummentions": 4,
    "numsources": 1,
    "numarticles": 4,
    "avgtone": "0.892857142857143",
    "sourceurl": "http://news.ninemsn.com.au/world/2013/11/04/14/12/soldier-sees-wife-attacked-on-facetime",
    "feature_id": "1380946",
    "feature_name": "El Paso",
    "state_alpha": "TX",
    "county_name": "El Paso",
    "county_numeric": "141",
    "prim_lat_dec": "31.7587198",
    "prim_long_dec": "-106.4869314",
    "elev_in_m": "1133",
    "elev_in_ft": "3717",
    "lat": 31.7587198,
    "long": -106.4869314
  },
  {
    "globaleventid": 274293778,
    "sqldate": 20131103,
    "monthyear": 201311,
    "year": 2013,
    "fractiondate": "2013.8301",
    "eventcode": 180,
    "quadclass": 4,
    "nummentions": 2,
    "numsources": 1,
    "numarticles": 2,
    "avgtone": "2.08333333333333",
    "sourceurl": "http://www.kaaltv.com/article/stories/S3207907.shtml?cat=10728",
    "feature_id": "650298",
    "feature_name": "Roseville",
    "state_alpha": "MN",
    "county_name": "Ramsey",
    "county_numeric": "123",
    "prim_lat_dec": "45.0060767",
    "prim_long_dec": "-93.1566107",
    "elev_in_m": "292",
    "elev_in_ft": "958",
    "lat": 45.0060767,
    "long": -93.1566107
  },
  {
    "globaleventid": 274293771,
    "sqldate": 20131103,
    "monthyear": 201311,
    "year": 2013,
    "fractiondate": "2013.8301",
    "eventcode": 173,
    "quadclass": 4,
    "nummentions": 12,
    "numsources": 2,
    "numarticles": 12,
    "avgtone": "1.58227848101266",
    "sourceurl": "http://www.bayoubuzz.com/louisiana-news/baton-rouge-news/item/546661-suspect-arrested-in-robbery-of-91-year-old-man-kalb-tv-news-channel-5-cbs-2",
    "feature_id": "1629914",
    "feature_name": "Baton Rouge",
    "state_alpha": "LA",
    "county_name": "East Baton Rouge",
    "county_numeric": "033",
    "prim_lat_dec": "30.4507462",
    "prim_long_dec": "-91.154551",
    "elev_in_m": "14",
    "elev_in_ft": "46",
    "lat": 30.4507462,
    "long": -91.154551
  },
  {
    "globaleventid": 274293770,
    "sqldate": 20131103,
    "monthyear": 201311,
    "year": 2013,
    "fractiondate": "2013.8301",
    "eventcode": 173,
    "quadclass": 4,
    "nummentions": 6,
    "numsources": 2,
    "numarticles": 6,
    "avgtone": "1.20499419279907",
    "sourceurl": "http://news.ninemsn.com.au/world/2013/11/04/14/12/soldier-sees-wife-attacked-on-facetime",
    "feature_id": "1380946",
    "feature_name": "El Paso",
    "state_alpha": "TX",
    "county_name": "El Paso",
    "county_numeric": "141",
    "prim_lat_dec": "31.7587198",
    "prim_long_dec": "-106.4869314",
    "elev_in_m": "1133",
    "elev_in_ft": "3717",
    "lat": 31.7587198,
    "long": -106.4869314
  },
  {
    "globaleventid": 274293759,
    "sqldate": 20131103,
    "monthyear": 201311,
    "year": 2013,
    "fractiondate": "2013.8301",
    "eventcode": 114,
    "quadclass": 3,
    "nummentions": 3,
    "numsources": 2,
    "numarticles": 3,
    "avgtone": "1.38892050412389",
    "sourceurl": "http://www.nzherald.co.nz/world/news/article.cfm?c_id=2&objectid=11151380",
    "feature_id": "531871",
    "feature_name": "Washington",
    "state_alpha": "DC",
    "county_name": "District of Columbia",
    "county_numeric": "001",
    "prim_lat_dec": "38.8951118",
    "prim_long_dec": "-77.0363658",
    "elev_in_m": "7",
    "elev_in_ft": "23",
    "lat": 38.8951118,
    "long": -77.0363658
  },
  {
    "globaleventid": 274293756,
    "sqldate": 20131103,
    "monthyear": 201311,
    "year": 2013,
    "fractiondate": "2013.8301",
    "eventcode": 112,
    "quadclass": 3,
    "nummentions": 2,
    "numsources": 1,
    "numarticles": 2,
    "avgtone": "3.03664921465969",
    "sourceurl": "http://www.theguardian.com/commentisfree/2013/nov/03/rhode-island-indoor-prostitution-now-illegal",
    "feature_id": "617565",
    "feature_name": "Boston",
    "state_alpha": "MA",
    "county_name": "Suffolk",
    "county_numeric": "025",
    "prim_lat_dec": "42.3584308",
    "prim_long_dec": "-71.0597732",
    "elev_in_m": "14",
    "elev_in_ft": "46",
    "lat": 42.3584308,
    "long": -71.0597732
  },
  {
    "globaleventid": 274293717,
    "sqldate": 20131103,
    "monthyear": 201311,
    "year": 2013,
    "fractiondate": "2013.8301",
    "eventcode": 193,
    "quadclass": 4,
    "nummentions": 2,
    "numsources": 1,
    "numarticles": 2,
    "avgtone": "1.00671140939597",
    "sourceurl": "http://www.mirror.co.uk/news/world-news/police-chief-threatens-man-arrest-2671545",
    "feature_id": "1222419",
    "feature_name": "Five Points",
    "state_alpha": "SC",
    "county_name": "York",
    "county_numeric": "091",
    "prim_lat_dec": "35.0918078",
    "prim_long_dec": "-81.0981313",
    "elev_in_m": "207",
    "elev_in_ft": "679",
    "lat": 35.0918078,
    "long": -81.0981313
  },
  {
    "globaleventid": 274293710,
    "sqldate": 20131103,
    "monthyear": 201311,
    "year": 2013,
    "fractiondate": "2013.8301",
    "eventcode": 193,
    "quadclass": 4,
    "nummentions": 2,
    "numsources": 1,
    "numarticles": 2,
    "avgtone": "0.396825396825397",
    "sourceurl": "http://www.mlive.com/news/muskegon/index.ssf/2013/11/muskegon-area_top_headlines.html?utm_source=feedburner&utm_medium=feed&utm_campaign=Feed%3A+muskegon-chronicle+%28Muskegon+Chronicle+-+MLive.com%29",
    "feature_id": "1620963",
    "feature_name": "Muskegon",
    "state_alpha": "MI",
    "county_name": "Muskegon",
    "county_numeric": "121",
    "prim_lat_dec": "43.2341813",
    "prim_long_dec": "-86.2483921",
    "elev_in_m": "188",
    "elev_in_ft": "617",
    "lat": 43.2341813,
    "long": -86.2483921
  },
  {
    "globaleventid": 274293699,
    "sqldate": 20131103,
    "monthyear": 201311,
    "year": 2013,
    "fractiondate": "2013.8301",
    "eventcode": 193,
    "quadclass": 4,
    "nummentions": 4,
    "numsources": 1,
    "numarticles": 4,
    "avgtone": "0.0",
    "sourceurl": "http://m.arkansasonline.com/news/2013/nov/03/one-man-killed-two-injured-stone-county-car-wreck/",
    "feature_id": "77769",
    "feature_name": "Mountain View",
    "state_alpha": "AR",
    "county_name": "Stone",
    "county_numeric": "137",
    "prim_lat_dec": "35.8684075",
    "prim_long_dec": "-92.1176521",
    "elev_in_m": "232",
    "elev_in_ft": "761",
    "lat": 35.8684075,
    "long": -92.1176521
  },
  {
    "globaleventid": 274293697,
    "sqldate": 20131103,
    "monthyear": 201311,
    "year": 2013,
    "fractiondate": "2013.8301",
    "eventcode": 193,
    "quadclass": 4,
    "nummentions": 2,
    "numsources": 1,
    "numarticles": 2,
    "avgtone": "0.0",
    "sourceurl": "http://www.newyorktelegraph.com/index.php/sid/218146631/scat/5a8b8c26522de7fd",
    "feature_id": "943484",
    "feature_name": "Bedford-Stuyvesant",
    "state_alpha": "NY",
    "county_name": "Kings",
    "county_numeric": "047",
    "prim_lat_dec": "40.6834364",
    "prim_long_dec": "-73.9412488",
    "elev_in_m": "15",
    "elev_in_ft": "49",
    "lat": 40.6834364,
    "long": -73.9412488
  },
  {
    "globaleventid": 274293696,
    "sqldate": 20131103,
    "monthyear": 201311,
    "year": 2013,
    "fractiondate": "2013.8301",
    "eventcode": 193,
    "quadclass": 4,
    "nummentions": 4,
    "numsources": 1,
    "numarticles": 4,
    "avgtone": "1.34228187919463",
    "sourceurl": "http://www.thv11.com/news/story.aspx?storyid=285867",
    "feature_id": "79154",
    "feature_name": "Russellville",
    "state_alpha": "AR",
    "county_name": "Pope",
    "county_numeric": "115",
    "prim_lat_dec": "35.2784173",
    "prim_long_dec": "-93.1337856",
    "elev_in_m": "106",
    "elev_in_ft": "348",
    "lat": 35.2784173,
    "long": -93.1337856
  },
  {
    "globaleventid": 274293695,
    "sqldate": 20131103,
    "monthyear": 201311,
    "year": 2013,
    "fractiondate": "2013.8301",
    "eventcode": 193,
    "quadclass": 4,
    "nummentions": 2,
    "numsources": 1,
    "numarticles": 2,
    "avgtone": "1.12422744909696",
    "sourceurl": "http://theadvocate.com/news/7451699-123/amid-pill-crackdown-pharmacies-see",
    "feature_id": "554225",
    "feature_name": "Denham Springs",
    "state_alpha": "LA",
    "county_name": "Livingston",
    "county_numeric": "063",
    "prim_lat_dec": "30.4868564",
    "prim_long_dec": "-90.9562125",
    "elev_in_m": "13",
    "elev_in_ft": "43",
    "lat": 30.4868564,
    "long": -90.9562125
  },
  {
    "globaleventid": 274293694,
    "sqldate": 20131103,
    "monthyear": 201311,
    "year": 2013,
    "fractiondate": "2013.8301",
    "eventcode": 193,
    "quadclass": 4,
    "nummentions": 4,
    "numsources": 1,
    "numarticles": 4,
    "avgtone": "1.12422744909696",
    "sourceurl": "http://theadvocate.com/news/7451699-123/amid-pill-crackdown-pharmacies-see",
    "feature_id": "554305",
    "feature_name": "Dutch Town",
    "state_alpha": "LA",
    "county_name": "Ascension",
    "county_numeric": "005",
    "prim_lat_dec": "30.2543622",
    "prim_long_dec": "-90.9887119",
    "elev_in_m": "4",
    "elev_in_ft": "13",
    "lat": 30.2543622,
    "long": -90.9887119
  },
  {
    "globaleventid": 274293690,
    "sqldate": 20131103,
    "monthyear": 201311,
    "year": 2013,
    "fractiondate": "2013.8301",
    "eventcode": 193,
    "quadclass": 4,
    "nummentions": 10,
    "numsources": 1,
    "numarticles": 10,
    "avgtone": "0.48780487804878",
    "sourceurl": "http://www.washingtonpost.com/local/fairfax-police-identify-resident-of-homeless-shelter-who-was-fatally-shot-by-officer/2013/11/02/feba575a-43fd-11e3-b028-de922d7a3f47_story.html",
    "feature_id": "531871",
    "feature_name": "Washington",
    "state_alpha": "DC",
    "county_name": "District of Columbia",
    "county_numeric": "001",
    "prim_lat_dec": "38.8951118",
    "prim_long_dec": "-77.0363658",
    "elev_in_m": "7",
    "elev_in_ft": "23",
    "lat": 38.8951118,
    "long": -77.0363658
  },
  {
    "globaleventid": 274293688,
    "sqldate": 20131103,
    "monthyear": 201311,
    "year": 2013,
    "fractiondate": "2013.8301",
    "eventcode": 193,
    "quadclass": 4,
    "nummentions": 7,
    "numsources": 7,
    "numarticles": 7,
    "avgtone": "0.729720848858519",
    "sourceurl": "http://www.theage.com.au/world/lax-shooting-gunman-charged-planned-to-kill-multiple-agents-20131103-2wupw.html",
    "feature_id": "531871",
    "feature_name": "Washington",
    "state_alpha": "DC",
    "county_name": "District of Columbia",
    "county_numeric": "001",
    "prim_lat_dec": "38.8951118",
    "prim_long_dec": "-77.0363658",
    "elev_in_m": "7",
    "elev_in_ft": "23",
    "lat": 38.8951118,
    "long": -77.0363658
  },
  {
    "globaleventid": 274293687,
    "sqldate": 20131103,
    "monthyear": 201311,
    "year": 2013,
    "fractiondate": "2013.8301",
    "eventcode": 193,
    "quadclass": 4,
    "nummentions": 4,
    "numsources": 1,
    "numarticles": 4,
    "avgtone": "1.34228187919463",
    "sourceurl": "http://www.dailymail.co.uk/news/article-2486873/Woman-33-threw-toddler-ground-rage-killed-3-year-old-home-daycare-centre-Iowa.html",
    "feature_id": "459884",
    "feature_name": "Orange City",
    "state_alpha": "IA",
    "county_name": "Sioux",
    "county_numeric": "167",
    "prim_lat_dec": "43.0072087",
    "prim_long_dec": "-96.0583523",
    "elev_in_m": "439",
    "elev_in_ft": "1440",
    "lat": 43.0072087,
    "long": -96.0583523
  },
  {
    "globaleventid": 274293686,
    "sqldate": 20131103,
    "monthyear": 201311,
    "year": 2013,
    "fractiondate": "2013.8301",
    "eventcode": 193,
    "quadclass": 4,
    "nummentions": 10,
    "numsources": 1,
    "numarticles": 10,
    "avgtone": "1.36986301369863",
    "sourceurl": "http://www.thedenverchannel.com/news/local-news/colorado-state-troopers-receive-training-after-fatal-shooting",
    "feature_id": "204662",
    "feature_name": "Grand Junction",
    "state_alpha": "CO",
    "county_name": "Mesa",
    "county_numeric": "077",
    "prim_lat_dec": "39.0638705",
    "prim_long_dec": "-108.5506486",
    "elev_in_m": "1400",
    "elev_in_ft": "4593",
    "lat": 39.0638705,
    "long": -108.5506486
  },
  {
    "globaleventid": 274293684,
    "sqldate": 20131103,
    "monthyear": 201311,
    "year": 2013,
    "fractiondate": "2013.8301",
    "eventcode": 193,
    "quadclass": 4,
    "nummentions": 8,
    "numsources": 1,
    "numarticles": 8,
    "avgtone": "0.626304801670146",
    "sourceurl": "http://www.ksl.com/?sid=27485133&nid=148&title=slain-womans-mother-calling-for-police-officer-terminations-criminal-charges&fm=home_page&s_cid=queue-5&c=LSbCdv6AyoGU94S-h-CCBNGwm-7Y7yf32HVtQg4B7lE&mkt=en-us",
    "feature_id": "1867646",
    "feature_name": "West Valley",
    "state_alpha": "WA",
    "county_name": "Yakima",
    "county_numeric": "077",
    "prim_lat_dec": "46.5920703",
    "prim_long_dec": "-120.6050678",
    "elev_in_m": "364",
    "elev_in_ft": "1194",
    "lat": 46.5920703,
    "long": -120.6050678
  },
  {
    "globaleventid": 274293682,
    "sqldate": 20131103,
    "monthyear": 201311,
    "year": 2013,
    "fractiondate": "2013.8301",
    "eventcode": 193,
    "quadclass": 4,
    "nummentions": 24,
    "numsources": 14,
    "numarticles": 24,
    "avgtone": "0.767307172881177",
    "sourceurl": "http://www.delawareonline.com/viewart/20131104/NEWS/311040048",
    "feature_id": "1662328",
    "feature_name": "Los Angeles",
    "state_alpha": "CA",
    "county_name": "Los Angeles",
    "county_numeric": "037",
    "prim_lat_dec": "34.0522342",
    "prim_long_dec": "-118.2436849",
    "elev_in_m": "89",
    "elev_in_ft": "292",
    "lat": 34.0522342,
    "long": -118.2436849
  },
  {
    "globaleventid": 274293681,
    "sqldate": 20131103,
    "monthyear": 201311,
    "year": 2013,
    "fractiondate": "2013.8301",
    "eventcode": 193,
    "quadclass": 4,
    "nummentions": 8,
    "numsources": 3,
    "numarticles": 8,
    "avgtone": "0.876533388988715",
    "sourceurl": "http://www.dailyjournal.net/view/story/53f93965d3224de48fd549e92a6ec48e/UT--West-Valley-Police-Shooting/",
    "feature_id": "1437843",
    "feature_name": "West Valley City",
    "state_alpha": "UT",
    "county_name": "Salt Lake",
    "county_numeric": "035",
    "prim_lat_dec": "40.6916132",
    "prim_long_dec": "-112.0010501",
    "elev_in_m": "1312",
    "elev_in_ft": "4304",
    "lat": 40.6916132,
    "long": -112.0010501
  },
  {
    "globaleventid": 274293680,
    "sqldate": 20131103,
    "monthyear": 201311,
    "year": 2013,
    "fractiondate": "2013.8301",
    "eventcode": 193,
    "quadclass": 4,
    "nummentions": 34,
    "numsources": 6,
    "numarticles": 34,
    "avgtone": "0.657293722198085",
    "sourceurl": "http://www.irishsun.com/index.php/sid/218156741/scat/b8de8e630faf3631",
    "feature_id": "1166631",
    "feature_name": "Clackamas",
    "state_alpha": "OR",
    "county_name": "Clackamas",
    "county_numeric": "005",
    "prim_lat_dec": "45.4076205",
    "prim_long_dec": "-122.5703692",
    "elev_in_m": "53",
    "elev_in_ft": "174",
    "lat": 45.4076205,
    "long": -122.5703692
  },
  {
    "globaleventid": 274293677,
    "sqldate": 20131103,
    "monthyear": 201311,
    "year": 2013,
    "fractiondate": "2013.8301",
    "eventcode": 193,
    "quadclass": 4,
    "nummentions": 39,
    "numsources": 6,
    "numarticles": 39,
    "avgtone": "0.644382060142345",
    "sourceurl": "http://www.whig.com/story/23864539/sheriff-oregon-officer-shot-responding-to-fire",
    "feature_id": "1136601",
    "feature_name": "Oregon City",
    "state_alpha": "OR",
    "county_name": "Clackamas",
    "county_numeric": "005",
    "prim_lat_dec": "45.3573429",
    "prim_long_dec": "-122.6067583",
    "elev_in_m": "38",
    "elev_in_ft": "125",
    "lat": 45.3573429,
    "long": -122.6067583
  },
  {
    "globaleventid": 274293676,
    "sqldate": 20131103,
    "monthyear": 201311,
    "year": 2013,
    "fractiondate": "2013.8301",
    "eventcode": 193,
    "quadclass": 4,
    "nummentions": 21,
    "numsources": 4,
    "numarticles": 15,
    "avgtone": "0.0641333974667309",
    "sourceurl": "http://www.kgw.com/news/Firefighters-responding-to-Oregon-City-house-fire-with-possible-gunman-230425921.html",
    "feature_id": "1136601",
    "feature_name": "Oregon City",
    "state_alpha": "OR",
    "county_name": "Clackamas",
    "county_numeric": "005",
    "prim_lat_dec": "45.3573429",
    "prim_long_dec": "-122.6067583",
    "elev_in_m": "38",
    "elev_in_ft": "125",
    "lat": 45.3573429,
    "long": -122.6067583
  },
  {
    "globaleventid": 274293674,
    "sqldate": 20131103,
    "monthyear": 201311,
    "year": 2013,
    "fractiondate": "2013.8301",
    "eventcode": 193,
    "quadclass": 4,
    "nummentions": 4,
    "numsources": 1,
    "numarticles": 4,
    "avgtone": "1.13636363636364",
    "sourceurl": "http://www.wsoctv.com/news/news/local/police-4-responsible-shooting-north-carolina-t-uni/nbgnC/",
    "feature_id": "1005554",
    "feature_name": "Carolina",
    "state_alpha": "NC",
    "county_name": "Gaston",
    "county_numeric": "071",
    "prim_lat_dec": "35.3884665",
    "prim_long_dec": "-81.3714737",
    "elev_in_m": "284",
    "elev_in_ft": "932",
    "lat": 35.3884665,
    "long": -81.3714737
  },
  {
    "globaleventid": 274293661,
    "sqldate": 20131103,
    "monthyear": 201311,
    "year": 2013,
    "fractiondate": "2013.8301",
    "eventcode": 190,
    "quadclass": 4,
    "nummentions": 20,
    "numsources": 2,
    "numarticles": 20,
    "avgtone": "0.677190574239305",
    "sourceurl": "http://www.wptv.com/dpp/news/national/one-killed-several-injured-in-indiana-church-van-crash",
    "feature_id": "452890",
    "feature_name": "Indianapolis",
    "state_alpha": "IN",
    "county_name": "Marion",
    "county_numeric": "097",
    "prim_lat_dec": "39.7683765",
    "prim_long_dec": "-86.1580423",
    "elev_in_m": "219",
    "elev_in_ft": "718",
    "lat": 39.7683765,
    "long": -86.1580423
  },
  {
    "globaleventid": 274293660,
    "sqldate": 20131103,
    "monthyear": 201311,
    "year": 2013,
    "fractiondate": "2013.8301",
    "eventcode": 190,
    "quadclass": 4,
    "nummentions": 16,
    "numsources": 3,
    "numarticles": 12,
    "avgtone": "0.84737321226217",
    "sourceurl": "http://www.seattlepi.com/news/crime/article/Arizona-police-investigate-possible-murder-suicide-4951323.php",
    "feature_id": "44784",
    "feature_name": "Phoenix",
    "state_alpha": "AZ",
    "county_name": "Maricopa",
    "county_numeric": "013",
    "prim_lat_dec": "33.4483771",
    "prim_long_dec": "-112.0740373",
    "elev_in_m": "331",
    "elev_in_ft": "1086",
    "lat": 33.4483771,
    "long": -112.0740373
  },
  {
    "globaleventid": 274293659,
    "sqldate": 20131103,
    "monthyear": 201311,
    "year": 2013,
    "fractiondate": "2013.8301",
    "eventcode": 190,
    "quadclass": 4,
    "nummentions": 2,
    "numsources": 1,
    "numarticles": 2,
    "avgtone": "0.854700854700855",
    "sourceurl": "http://www.41nbc.com/news/local-news/29106-man-shot-and-killed-in-fort-valley",
    "feature_id": "355881",
    "feature_name": "Fort Valley",
    "state_alpha": "GA",
    "county_name": "Peach",
    "county_numeric": "225",
    "prim_lat_dec": "32.5537585",
    "prim_long_dec": "-83.8874084",
    "elev_in_m": "159",
    "elev_in_ft": "522",
    "lat": 32.5537585,
    "long": -83.8874084
  },
  {
    "globaleventid": 274293658,
    "sqldate": 20131103,
    "monthyear": 201311,
    "year": 2013,
    "fractiondate": "2013.8301",
    "eventcode": 190,
    "quadclass": 4,
    "nummentions": 8,
    "numsources": 1,
    "numarticles": 8,
    "avgtone": "1.35983263598326",
    "sourceurl": "http://theblacksheartimes.com/articles/2013/11/03/news/doc4f05ba1e6d99f132623840.txt",
    "feature_id": "334378",
    "feature_name": "Cedar Hill",
    "state_alpha": "GA",
    "county_name": "Dade",
    "county_numeric": "083",
    "prim_lat_dec": "34.8125788",
    "prim_long_dec": "-85.5407983",
    "elev_in_m": "251",
    "elev_in_ft": "823",
    "lat": 34.8125788,
    "long": -85.5407983
  },
  {
    "globaleventid": 274293657,
    "sqldate": 20131103,
    "monthyear": 201311,
    "year": 2013,
    "fractiondate": "2013.8301",
    "eventcode": 190,
    "quadclass": 4,
    "nummentions": 6,
    "numsources": 1,
    "numarticles": 6,
    "avgtone": "0.0",
    "sourceurl": "http://abclocal.go.com/kfsn/story?section=news/local&id=9310770",
    "feature_id": "277606",
    "feature_name": "Fresno",
    "state_alpha": "CA",
    "county_name": "Fresno",
    "county_numeric": "019",
    "prim_lat_dec": "36.7477272",
    "prim_long_dec": "-119.7723661",
    "elev_in_m": "94",
    "elev_in_ft": "308",
    "lat": 36.7477272,
    "long": -119.7723661
  },
  {
    "globaleventid": 274293653,
    "sqldate": 20131103,
    "monthyear": 201311,
    "year": 2013,
    "fractiondate": "2013.8301",
    "eventcode": 190,
    "quadclass": 4,
    "nummentions": 10,
    "numsources": 1,
    "numarticles": 10,
    "avgtone": "0.0",
    "sourceurl": "http://www.nbcphiladelphia.com/news/local/Man-Shot-Killed-After-Arguing-With-Patrolman-Over-Double-Parking-Police--230402261.html",
    "feature_id": "1209052",
    "feature_name": "Philadelphia",
    "state_alpha": "PA",
    "county_name": "Philadelphia",
    "county_numeric": "101",
    "prim_lat_dec": "39.952335",
    "prim_long_dec": "-75.163789",
    "elev_in_m": "14",
    "elev_in_ft": "46",
    "lat": 39.952335,
    "long": -75.163789
  },
  {
    "globaleventid": 274293651,
    "sqldate": 20131103,
    "monthyear": 201311,
    "year": 2013,
    "fractiondate": "2013.8301",
    "eventcode": 190,
    "quadclass": 4,
    "nummentions": 6,
    "numsources": 1,
    "numarticles": 6,
    "avgtone": "1.13636363636364",
    "sourceurl": "http://www.wsoctv.com/news/news/local/police-4-responsible-shooting-north-carolina-t-uni/nbgnC/",
    "feature_id": "1005554",
    "feature_name": "Carolina",
    "state_alpha": "NC",
    "county_name": "Gaston",
    "county_numeric": "071",
    "prim_lat_dec": "35.3884665",
    "prim_long_dec": "-81.3714737",
    "elev_in_m": "284",
    "elev_in_ft": "932",
    "lat": 35.3884665,
    "long": -81.3714737
  },
  {
    "globaleventid": 274293649,
    "sqldate": 20131103,
    "monthyear": 201311,
    "year": 2013,
    "fractiondate": "2013.8301",
    "eventcode": 1823,
    "quadclass": 4,
    "nummentions": 2,
    "numsources": 1,
    "numarticles": 2,
    "avgtone": "2.24215246636771",
    "sourceurl": "http://www.njherald.com/story/23863845/police-ny-man-kills-girlfriend-commits-suicide",
    "feature_id": "944840",
    "feature_name": "Brooklyn",
    "state_alpha": "NY",
    "county_name": "Delaware",
    "county_numeric": "025",
    "prim_lat_dec": "42.3442482",
    "prim_long_dec": "-75.1704468",
    "elev_in_m": "366",
    "elev_in_ft": "1201",
    "lat": 42.3442482,
    "long": -75.1704468
  },
  {
    "globaleventid": 274293648,
    "sqldate": 20131103,
    "monthyear": 201311,
    "year": 2013,
    "fractiondate": "2013.8301",
    "eventcode": 182,
    "quadclass": 4,
    "nummentions": 8,
    "numsources": 1,
    "numarticles": 8,
    "avgtone": "0.25062656641604",
    "sourceurl": "http://articles.baltimoresun.com/2013-11-02/news/ph-ag-troopers-injured-1106-20131102_1_patrol-car-robbery-investigation-two-troopers",
    "feature_id": "588659",
    "feature_name": "Franklinville",
    "state_alpha": "MD",
    "county_name": "Carroll",
    "county_numeric": "013",
    "prim_lat_dec": "39.458991",
    "prim_long_dec": "-77.0991482",
    "elev_in_m": "218",
    "elev_in_ft": "715",
    "lat": 39.458991,
    "long": -77.0991482
  },
  {
    "globaleventid": 274293647,
    "sqldate": 20131103,
    "monthyear": 201311,
    "year": 2013,
    "fractiondate": "2013.8301",
    "eventcode": 182,
    "quadclass": 4,
    "nummentions": 4,
    "numsources": 1,
    "numarticles": 4,
    "avgtone": "1.69491525423729",
    "sourceurl": "http://www.newschannel5.com/story/14877337/tennessee-news-minute?t=2013-11-02T23:35:02Z",
    "feature_id": "1652484",
    "feature_name": "Nashville",
    "state_alpha": "TN",
    "county_name": "Davidson",
    "county_numeric": "037",
    "prim_lat_dec": "36.1658899",
    "prim_long_dec": "-86.7844432",
    "elev_in_m": "173",
    "elev_in_ft": "568",
    "lat": 36.1658899,
    "long": -86.7844432
  },
  {
    "globaleventid": 274293646,
    "sqldate": 20131103,
    "monthyear": 201311,
    "year": 2013,
    "fractiondate": "2013.8301",
    "eventcode": 182,
    "quadclass": 4,
    "nummentions": 4,
    "numsources": 1,
    "numarticles": 4,
    "avgtone": "0.463821892393321",
    "sourceurl": "http://www.newpittsburghcourieronline.com/index.php/featured-news/metro/19255-metro-beat-police-seek-2-who-wounded-man-in-wilkinsburg-barbershop",
    "feature_id": "1213955",
    "feature_name": "Coraopolis",
    "state_alpha": "PA",
    "county_name": "Allegheny",
    "county_numeric": "003",
    "prim_lat_dec": "40.5184013",
    "prim_long_dec": "-80.1667247",
    "elev_in_m": "220",
    "elev_in_ft": "722",
    "lat": 40.5184013,
    "long": -80.1667247
  },
  {
    "globaleventid": 274293644,
    "sqldate": 20131103,
    "monthyear": 201311,
    "year": 2013,
    "fractiondate": "2013.8301",
    "eventcode": 180,
    "quadclass": 4,
    "nummentions": 2,
    "numsources": 1,
    "numarticles": 2,
    "avgtone": "0.396825396825397",
    "sourceurl": "http://www.mlive.com/news/muskegon/index.ssf/2013/11/muskegon-area_top_headlines.html?utm_source=feedburner&utm_medium=feed&utm_campaign=Feed%3A+muskegon-chronicle+%28Muskegon+Chronicle+-+MLive.com%29",
    "feature_id": "1620963",
    "feature_name": "Muskegon",
    "state_alpha": "MI",
    "county_name": "Muskegon",
    "county_numeric": "121",
    "prim_lat_dec": "43.2341813",
    "prim_long_dec": "-86.2483921",
    "elev_in_m": "188",
    "elev_in_ft": "617",
    "lat": 43.2341813,
    "long": -86.2483921
  },
  {
    "globaleventid": 274293641,
    "sqldate": 20131103,
    "monthyear": 201311,
    "year": 2013,
    "fractiondate": "2013.8301",
    "eventcode": 180,
    "quadclass": 4,
    "nummentions": 4,
    "numsources": 1,
    "numarticles": 4,
    "avgtone": "0.452488687782805",
    "sourceurl": "http://www.lehighvalleylive.com/breaking-news/index.ssf/2013/11/allentown_man_charged_after_al.html",
    "feature_id": "1179161",
    "feature_name": "Lehighton",
    "state_alpha": "PA",
    "county_name": "Carbon",
    "county_numeric": "025",
    "prim_lat_dec": "40.8337029",
    "prim_long_dec": "-75.7138008",
    "elev_in_m": "176",
    "elev_in_ft": "577",
    "lat": 40.8337029,
    "long": -75.7138008
  },
  {
    "globaleventid": 274293626,
    "sqldate": 20131103,
    "monthyear": 201311,
    "year": 2013,
    "fractiondate": "2013.8301",
    "eventcode": 173,
    "quadclass": 4,
    "nummentions": 2,
    "numsources": 1,
    "numarticles": 2,
    "avgtone": "1.05263157894737",
    "sourceurl": "http://www.kait8.com/story/23861043/caruthersville-man-accused-of-keeping-more-than-420k",
    "feature_id": "715460",
    "feature_name": "Caruthersville",
    "state_alpha": "MO",
    "county_name": "Pemiscot",
    "county_numeric": "155",
    "prim_lat_dec": "36.1931245",
    "prim_long_dec": "-89.6556353",
    "elev_in_m": "84",
    "elev_in_ft": "276",
    "lat": 36.1931245,
    "long": -89.6556353
  },
  {
    "globaleventid": 274293620,
    "sqldate": 20131103,
    "monthyear": 201311,
    "year": 2013,
    "fractiondate": "2013.8301",
    "eventcode": 173,
    "quadclass": 4,
    "nummentions": 6,
    "numsources": 1,
    "numarticles": 6,
    "avgtone": "0.0",
    "sourceurl": "http://whotv.com/2013/11/03/convict-escape-rodriguez-missing-from-work-release/",
    "feature_id": "465961",
    "feature_name": "Des Moines",
    "state_alpha": "IA",
    "county_name": "Polk",
    "county_numeric": "153",
    "prim_lat_dec": "41.6005448",
    "prim_long_dec": "-93.6091064",
    "elev_in_m": "266",
    "elev_in_ft": "873",
    "lat": 41.6005448,
    "long": -93.6091064
  },
  {
    "globaleventid": 274293612,
    "sqldate": 20131103,
    "monthyear": 201311,
    "year": 2013,
    "fractiondate": "2013.8301",
    "eventcode": 173,
    "quadclass": 4,
    "nummentions": 3,
    "numsources": 2,
    "numarticles": 3,
    "avgtone": "0.800870331956788",
    "sourceurl": "http://www.tri-cityherald.com/2013/11/02/2654180/nyc-subway-vigilante-goetz-arrested.html",
    "feature_id": "971945",
    "feature_name": "Manhattan",
    "state_alpha": "NY",
    "county_name": "New York",
    "county_numeric": "061",
    "prim_lat_dec": "40.7834345",
    "prim_long_dec": "-73.9662495",
    "elev_in_m": "35",
    "elev_in_ft": "115",
    "lat": 40.7834345,
    "long": -73.9662495
  },
  {
    "globaleventid": 274293609,
    "sqldate": 20131103,
    "monthyear": 201311,
    "year": 2013,
    "fractiondate": "2013.8301",
    "eventcode": 173,
    "quadclass": 4,
    "nummentions": 2,
    "numsources": 1,
    "numarticles": 2,
    "avgtone": "1.80806675938804",
    "sourceurl": "http://www.newsworks.org/index.php/politics/item/61337-immigrants-often-forced-to-fight-deportation-despite-wrongful-arrests?linktype=hp_impact",
    "feature_id": "617565",
    "feature_name": "Boston",
    "state_alpha": "MA",
    "county_name": "Suffolk",
    "county_numeric": "025",
    "prim_lat_dec": "42.3584308",
    "prim_long_dec": "-71.0597732",
    "elev_in_m": "14",
    "elev_in_ft": "46",
    "lat": 42.3584308,
    "long": -71.0597732
  },
  {
    "globaleventid": 274293607,
    "sqldate": 20131103,
    "monthyear": 201311,
    "year": 2013,
    "fractiondate": "2013.8301",
    "eventcode": 173,
    "quadclass": 4,
    "nummentions": 2,
    "numsources": 1,
    "numarticles": 2,
    "avgtone": "1.12781954887218",
    "sourceurl": "http://marblehead.patch.com/groups/police-and-fire/p/teacher-charged-with-possessing-child-pornography-receives-no-trespass-letter",
    "feature_id": "614728",
    "feature_name": "Marblehead",
    "state_alpha": "MA",
    "county_name": "Essex",
    "county_numeric": "009",
    "prim_lat_dec": "42.500096",
    "prim_long_dec": "-70.8578253",
    "elev_in_m": "18",
    "elev_in_ft": "59",
    "lat": 42.500096,
    "long": -70.8578253
  },
  {
    "globaleventid": 274293606,
    "sqldate": 20131103,
    "monthyear": 201311,
    "year": 2013,
    "fractiondate": "2013.8301",
    "eventcode": 173,
    "quadclass": 4,
    "nummentions": 8,
    "numsources": 2,
    "numarticles": 8,
    "avgtone": "1.69856641756901",
    "sourceurl": "http://www.wbur.org/2013/11/03/dna-test-robert-wade",
    "feature_id": "613537",
    "feature_name": "Lakeville",
    "state_alpha": "MA",
    "county_name": "Plymouth",
    "county_numeric": "023",
    "prim_lat_dec": "41.8459353",
    "prim_long_dec": "-70.9494854",
    "elev_in_m": "26",
    "elev_in_ft": "85",
    "lat": 41.8459353,
    "long": -70.9494854
  },
  {
    "globaleventid": 274293604,
    "sqldate": 20131103,
    "monthyear": 201311,
    "year": 2013,
    "fractiondate": "2013.8301",
    "eventcode": 173,
    "quadclass": 4,
    "nummentions": 2,
    "numsources": 1,
    "numarticles": 2,
    "avgtone": "0.910273081924577",
    "sourceurl": "http://westhawaiitoday.com/sections/news/nation-world-news/brief-nation-world-11-03-13.html",
    "feature_id": "531871",
    "feature_name": "Washington",
    "state_alpha": "DC",
    "county_name": "District of Columbia",
    "county_numeric": "001",
    "prim_lat_dec": "38.8951118",
    "prim_long_dec": "-77.0363658",
    "elev_in_m": "7",
    "elev_in_ft": "23",
    "lat": 38.8951118,
    "long": -77.0363658
  },
  {
    "globaleventid": 274293602,
    "sqldate": 20131103,
    "monthyear": 201311,
    "year": 2013,
    "fractiondate": "2013.8301",
    "eventcode": 173,
    "quadclass": 4,
    "nummentions": 4,
    "numsources": 1,
    "numarticles": 4,
    "avgtone": "2.18340611353712",
    "sourceurl": "http://kokomotribune.com/local/x934971676/Reward-upped-in-Armstrong-case",
    "feature_id": "437425",
    "feature_name": "Kokomo",
    "state_alpha": "IN",
    "county_name": "Howard",
    "county_numeric": "067",
    "prim_lat_dec": "40.486427",
    "prim_long_dec": "-86.1336033",
    "elev_in_m": "247",
    "elev_in_ft": "810",
    "lat": 40.486427,
    "long": -86.1336033
  },
  {
    "globaleventid": 274293601,
    "sqldate": 20131103,
    "monthyear": 201311,
    "year": 2013,
    "fractiondate": "2013.8301",
    "eventcode": 173,
    "quadclass": 4,
    "nummentions": 1,
    "numsources": 1,
    "numarticles": 1,
    "avgtone": "1.43626570915619",
    "sourceurl": "http://www.enewspf.com/latest-news/law-and-order/police-reports/47594-park-forest-police-blotter-reports-for-november-4-2013.html",
    "feature_id": "413720",
    "feature_name": "Monee",
    "state_alpha": "IL",
    "county_name": "Will",
    "county_numeric": "197",
    "prim_lat_dec": "41.420034",
    "prim_long_dec": "-87.7417115",
    "elev_in_m": "243",
    "elev_in_ft": "797",
    "lat": 41.420034,
    "long": -87.7417115
  },
  {
    "globaleventid": 274293600,
    "sqldate": 20131103,
    "monthyear": 201311,
    "year": 2013,
    "fractiondate": "2013.8301",
    "eventcode": 173,
    "quadclass": 4,
    "nummentions": 5,
    "numsources": 1,
    "numarticles": 5,
    "avgtone": "1.43626570915619",
    "sourceurl": "http://www.enewspf.com/latest-news/law-and-order/police-reports/47594-park-forest-police-blotter-reports-for-november-4-2013.html",
    "feature_id": "415383",
    "feature_name": "Park Forest",
    "state_alpha": "IL",
    "county_name": "Cook",
    "county_numeric": "031",
    "prim_lat_dec": "41.4914236",
    "prim_long_dec": "-87.6744891",
    "elev_in_m": "217",
    "elev_in_ft": "712",
    "lat": 41.4914236,
    "long": -87.6744891
  },
  {
    "globaleventid": 274293599,
    "sqldate": 20131103,
    "monthyear": 201311,
    "year": 2013,
    "fractiondate": "2013.8301",
    "eventcode": 173,
    "quadclass": 4,
    "nummentions": 30,
    "numsources": 3,
    "numarticles": 30,
    "avgtone": "1.59532541334504",
    "sourceurl": "http://www.therepublic.com/view/story/ea60f4b60f98448ca47529374188331a/HI--Kidnapping-Sentence-Kauai",
    "feature_id": "360457",
    "feature_name": "Kapa?a",
    "state_alpha": "HI",
    "county_name": "Kauai",
    "county_numeric": "007",
    "prim_lat_dec": "22.08834",
    "prim_long_dec": "-159.31515",
    "elev_in_m": "37",
    "elev_in_ft": "121",
    "lat": 22.08834,
    "long": -159.31515
  },
  {
    "globaleventid": 274293596,
    "sqldate": 20131103,
    "monthyear": 201311,
    "year": 2013,
    "fractiondate": "2013.8301",
    "eventcode": 173,
    "quadclass": 4,
    "nummentions": 4,
    "numsources": 1,
    "numarticles": 4,
    "avgtone": "0.626304801670146",
    "sourceurl": "http://www.ksl.com/?sid=27485133&nid=148&title=slain-womans-mother-calling-for-police-officer-terminations-criminal-charges&fm=home_page&s_cid=queue-5&c=LSbCdv6AyoGU94S-h-CCBNGwm-7Y7yf32HVtQg4B7lE&mkt=en-us",
    "feature_id": "1867646",
    "feature_name": "West Valley",
    "state_alpha": "WA",
    "county_name": "Yakima",
    "county_numeric": "077",
    "prim_lat_dec": "46.5920703",
    "prim_long_dec": "-120.6050678",
    "elev_in_m": "364",
    "elev_in_ft": "1194",
    "lat": 46.5920703,
    "long": -120.6050678
  },
  {
    "globaleventid": 274293595,
    "sqldate": 20131103,
    "monthyear": 201311,
    "year": 2013,
    "fractiondate": "2013.8301",
    "eventcode": 173,
    "quadclass": 4,
    "nummentions": 16,
    "numsources": 2,
    "numarticles": 16,
    "avgtone": "0.540935672514619",
    "sourceurl": "http://www.ibtimes.co.in/articles/519190/20131104/los-angeles-lax-shooting-auckland-new-zealand.htm",
    "feature_id": "1662328",
    "feature_name": "Los Angeles",
    "state_alpha": "CA",
    "county_name": "Los Angeles",
    "county_numeric": "037",
    "prim_lat_dec": "34.0522342",
    "prim_long_dec": "-118.2436849",
    "elev_in_m": "89",
    "elev_in_ft": "292",
    "lat": 34.0522342,
    "long": -118.2436849
  },
  {
    "globaleventid": 274293594,
    "sqldate": 20131103,
    "monthyear": 201311,
    "year": 2013,
    "fractiondate": "2013.8301",
    "eventcode": 173,
    "quadclass": 4,
    "nummentions": 3,
    "numsources": 1,
    "numarticles": 3,
    "avgtone": "0.396825396825397",
    "sourceurl": "http://www.mlive.com/news/muskegon/index.ssf/2013/11/muskegon-area_top_headlines.html?utm_source=feedburner&utm_medium=feed&utm_campaign=Feed%3A+muskegon-chronicle+%28Muskegon+Chronicle+-+MLive.com%29",
    "feature_id": "1620963",
    "feature_name": "Muskegon",
    "state_alpha": "MI",
    "county_name": "Muskegon",
    "county_numeric": "121",
    "prim_lat_dec": "43.2341813",
    "prim_long_dec": "-86.2483921",
    "elev_in_m": "188",
    "elev_in_ft": "617",
    "lat": 43.2341813,
    "long": -86.2483921
  },
  {
    "globaleventid": 274293591,
    "sqldate": 20131103,
    "monthyear": 201311,
    "year": 2013,
    "fractiondate": "2013.8301",
    "eventcode": 173,
    "quadclass": 4,
    "nummentions": 2,
    "numsources": 1,
    "numarticles": 2,
    "avgtone": "2.80898876404494",
    "sourceurl": "http://juneauempire.com/local/2013-11-03/courts-round-man-pleads-not-guilty-felony-assault",
    "feature_id": "1414754",
    "feature_name": "Skagway",
    "state_alpha": "AK",
    "county_name": "Skagway",
    "county_numeric": "230",
    "prim_lat_dec": "59.4583333",
    "prim_long_dec": "-135.3138889",
    "elev_in_m": "9",
    "elev_in_ft": "30",
    "lat": 59.4583333,
    "long": -135.3138889
  },
  {
    "globaleventid": 274293590,
    "sqldate": 20131103,
    "monthyear": 201311,
    "year": 2013,
    "fractiondate": "2013.8301",
    "eventcode": 173,
    "quadclass": 4,
    "nummentions": 2,
    "numsources": 1,
    "numarticles": 2,
    "avgtone": "0.4739336492891",
    "sourceurl": "http://www.chron.com/news/crime/article/NYC-subway-vigilante-Goetz-charged-in-drug-case-4949138.php",
    "feature_id": "1380948",
    "feature_name": "Houston",
    "state_alpha": "TX",
    "county_name": "Harris",
    "county_numeric": "201",
    "prim_lat_dec": "29.7632836",
    "prim_long_dec": "-95.3632715",
    "elev_in_m": "11",
    "elev_in_ft": "36",
    "lat": 29.7632836,
    "long": -95.3632715
  },
  {
    "globaleventid": 274293584,
    "sqldate": 20131103,
    "monthyear": 201311,
    "year": 2013,
    "fractiondate": "2013.8301",
    "eventcode": 1723,
    "quadclass": 4,
    "nummentions": 6,
    "numsources": 1,
    "numarticles": 6,
    "avgtone": "0.0",
    "sourceurl": "http://www.nj.com/morris/index.ssf/2013/11/driver_killed_in_route_46_crash_rockaway_cops_say.html",
    "feature_id": "879752",
    "feature_name": "Rockaway",
    "state_alpha": "NJ",
    "county_name": "Morris",
    "county_numeric": "027",
    "prim_lat_dec": "40.9012101",
    "prim_long_dec": "-74.5143232",
    "elev_in_m": "171",
    "elev_in_ft": "561",
    "lat": 40.9012101,
    "long": -74.5143232
  },
  {
    "globaleventid": 274293583,
    "sqldate": 20131103,
    "monthyear": 201311,
    "year": 2013,
    "fractiondate": "2013.8301",
    "eventcode": 172,
    "quadclass": 4,
    "nummentions": 3,
    "numsources": 1,
    "numarticles": 3,
    "avgtone": "1.05392933269746",
    "sourceurl": "http://www.washingtonpost.com/world/middle_east/in-tehran-death-to-america-still-rings-34-years-later/2013/11/02/414fe262-423f-11e3-b028-de922d7a3f47_story.html",
    "feature_id": "531871",
    "feature_name": "Washington",
    "state_alpha": "DC",
    "county_name": "District of Columbia",
    "county_numeric": "001",
    "prim_lat_dec": "38.8951118",
    "prim_long_dec": "-77.0363658",
    "elev_in_m": "7",
    "elev_in_ft": "23",
    "lat": 38.8951118,
    "long": -77.0363658
  },
  {
    "globaleventid": 274293581,
    "sqldate": 20131103,
    "monthyear": 201311,
    "year": 2013,
    "fractiondate": "2013.8301",
    "eventcode": 1712,
    "quadclass": 4,
    "nummentions": 2,
    "numsources": 1,
    "numarticles": 2,
    "avgtone": "0.336700336700337",
    "sourceurl": "http://thecelebritycafe.com/feature/2013/11/unidentified-body-found-arizona-desert-amid-search-missing-woman",
    "feature_id": "5012",
    "feature_name": "Gila Bend",
    "state_alpha": "AZ",
    "county_name": "Maricopa",
    "county_numeric": "013",
    "prim_lat_dec": "32.9478236",
    "prim_long_dec": "-112.7168305",
    "elev_in_m": "224",
    "elev_in_ft": "735",
    "lat": 32.9478236,
    "long": -112.7168305
  },
  {
    "globaleventid": 274293580,
    "sqldate": 20131103,
    "monthyear": 201311,
    "year": 2013,
    "fractiondate": "2013.8301",
    "eventcode": 1712,
    "quadclass": 4,
    "nummentions": 1,
    "numsources": 1,
    "numarticles": 1,
    "avgtone": "0.336700336700337",
    "sourceurl": "http://thecelebritycafe.com/feature/2013/11/unidentified-body-found-arizona-desert-amid-search-missing-woman",
    "feature_id": "5012",
    "feature_name": "Gila Bend",
    "state_alpha": "AZ",
    "county_name": "Maricopa",
    "county_numeric": "013",
    "prim_lat_dec": "32.9478236",
    "prim_long_dec": "-112.7168305",
    "elev_in_m": "224",
    "elev_in_ft": "735",
    "lat": 32.9478236,
    "long": -112.7168305
  },
  {
    "globaleventid": 274293578,
    "sqldate": 20131103,
    "monthyear": 201311,
    "year": 2013,
    "fractiondate": "2013.8301",
    "eventcode": 153,
    "quadclass": 4,
    "nummentions": 10,
    "numsources": 1,
    "numarticles": 10,
    "avgtone": "1.94630872483221",
    "sourceurl": "http://www.denverpost.com/nationworld/ci_24445893/security-analysts-nearly-impossible-harden-soft-belly-airports",
    "feature_id": "201738",
    "feature_name": "Denver",
    "state_alpha": "CO",
    "county_name": "Denver",
    "county_numeric": "031",
    "prim_lat_dec": "39.7391536",
    "prim_long_dec": "-104.9847034",
    "elev_in_m": "1609",
    "elev_in_ft": "5279",
    "lat": 39.7391536,
    "long": -104.9847034
  },
  {
    "globaleventid": 274293577,
    "sqldate": 20131103,
    "monthyear": 201311,
    "year": 2013,
    "fractiondate": "2013.8301",
    "eventcode": 153,
    "quadclass": 4,
    "nummentions": 3,
    "numsources": 1,
    "numarticles": 3,
    "avgtone": "1.38888888888889",
    "sourceurl": "http://www.fox51.com/news/man-sees-pregnant-wife-stabbed-videochat",
    "feature_id": "1380946",
    "feature_name": "El Paso",
    "state_alpha": "TX",
    "county_name": "El Paso",
    "county_numeric": "141",
    "prim_lat_dec": "31.7587198",
    "prim_long_dec": "-106.4869314",
    "elev_in_m": "1133",
    "elev_in_ft": "3717",
    "lat": 31.7587198,
    "long": -106.4869314
  },
  {
    "globaleventid": 274293574,
    "sqldate": 20131103,
    "monthyear": 201311,
    "year": 2013,
    "fractiondate": "2013.8301",
    "eventcode": 130,
    "quadclass": 3,
    "nummentions": 4,
    "numsources": 1,
    "numarticles": 4,
    "avgtone": "0.493827160493827",
    "sourceurl": "http://www.independent.co.uk/news/world/americas/los-angeles-airport-gunman-charged-with-murder-8919428.html",
    "feature_id": "1662328",
    "feature_name": "Los Angeles",
    "state_alpha": "CA",
    "county_name": "Los Angeles",
    "county_numeric": "037",
    "prim_lat_dec": "34.0522342",
    "prim_long_dec": "-118.2436849",
    "elev_in_m": "89",
    "elev_in_ft": "292",
    "lat": 34.0522342,
    "long": -118.2436849
  },
  {
    "globaleventid": 274293571,
    "sqldate": 20131103,
    "monthyear": 201311,
    "year": 2013,
    "fractiondate": "2013.8301",
    "eventcode": 115,
    "quadclass": 3,
    "nummentions": 4,
    "numsources": 1,
    "numarticles": 4,
    "avgtone": "0.397614314115308",
    "sourceurl": "http://www.duluthnewstribune.com/event/article/id/282494/group/Business/",
    "feature_id": "1032733",
    "feature_name": "West Fargo",
    "state_alpha": "ND",
    "county_name": "Cass",
    "county_numeric": "017",
    "prim_lat_dec": "46.8749671",
    "prim_long_dec": "-96.900362",
    "elev_in_m": "274",
    "elev_in_ft": "899",
    "lat": 46.8749671,
    "long": -96.900362
  },
  {
    "globaleventid": 274293570,
    "sqldate": 20131103,
    "monthyear": 201311,
    "year": 2013,
    "fractiondate": "2013.8301",
    "eventcode": 115,
    "quadclass": 3,
    "nummentions": 4,
    "numsources": 1,
    "numarticles": 4,
    "avgtone": "0.397614314115308",
    "sourceurl": "http://www.duluthnewstribune.com/event/article/id/282494/group/Business/",
    "feature_id": "1032733",
    "feature_name": "West Fargo",
    "state_alpha": "ND",
    "county_name": "Cass",
    "county_numeric": "017",
    "prim_lat_dec": "46.8749671",
    "prim_long_dec": "-96.900362",
    "elev_in_m": "274",
    "elev_in_ft": "899",
    "lat": 46.8749671,
    "long": -96.900362
  },
  {
    "globaleventid": 274293569,
    "sqldate": 20131103,
    "monthyear": 201311,
    "year": 2013,
    "fractiondate": "2013.8301",
    "eventcode": 1124,
    "quadclass": 3,
    "nummentions": 2,
    "numsources": 1,
    "numarticles": 2,
    "avgtone": "0.544959128065395",
    "sourceurl": "http://www.prescottenews.com/index.php/news/kqna-news/item/22503-week-in-review",
    "feature_id": "44784",
    "feature_name": "Phoenix",
    "state_alpha": "AZ",
    "county_name": "Maricopa",
    "county_numeric": "013",
    "prim_lat_dec": "33.4483771",
    "prim_long_dec": "-112.0740373",
    "elev_in_m": "331",
    "elev_in_ft": "1086",
    "lat": 33.4483771,
    "long": -112.0740373
  },
  {
    "globaleventid": 274293568,
    "sqldate": 20131103,
    "monthyear": 201311,
    "year": 2013,
    "fractiondate": "2013.8301",
    "eventcode": 1124,
    "quadclass": 3,
    "nummentions": 2,
    "numsources": 1,
    "numarticles": 2,
    "avgtone": "0.544959128065395",
    "sourceurl": "http://www.prescottenews.com/index.php/news/kqna-news/item/22503-week-in-review",
    "feature_id": "33193",
    "feature_name": "Prescott Valley",
    "state_alpha": "AZ",
    "county_name": "Yavapai",
    "county_numeric": "025",
    "prim_lat_dec": "34.6100243",
    "prim_long_dec": "-112.315721",
    "elev_in_m": "1532",
    "elev_in_ft": "5026",
    "lat": 34.6100243,
    "long": -112.315721
  },
  {
    "globaleventid": 274293567,
    "sqldate": 20131103,
    "monthyear": 201311,
    "year": 2013,
    "fractiondate": "2013.8301",
    "eventcode": 1121,
    "quadclass": 3,
    "nummentions": 4,
    "numsources": 1,
    "numarticles": 4,
    "avgtone": "0.626304801670146",
    "sourceurl": "http://www.ksl.com/?sid=27485133&nid=148&title=slain-womans-mother-calling-for-police-officer-terminations-criminal-charges&fm=home_page&s_cid=queue-5&c=LSbCdv6AyoGU94S-h-CCBNGwm-7Y7yf32HVtQg4B7lE&mkt=en-us",
    "feature_id": "1867646",
    "feature_name": "West Valley",
    "state_alpha": "WA",
    "county_name": "Yakima",
    "county_numeric": "077",
    "prim_lat_dec": "46.5920703",
    "prim_long_dec": "-120.6050678",
    "elev_in_m": "364",
    "elev_in_ft": "1194",
    "lat": 46.5920703,
    "long": -120.6050678
  },
  {
    "globaleventid": 274293560,
    "sqldate": 20131103,
    "monthyear": 201311,
    "year": 2013,
    "fractiondate": "2013.8301",
    "eventcode": 112,
    "quadclass": 3,
    "nummentions": 2,
    "numsources": 1,
    "numarticles": 2,
    "avgtone": "1.05263157894737",
    "sourceurl": "http://www.kait8.com/story/23861043/caruthersville-man-accused-of-keeping-more-than-420k",
    "feature_id": "715460",
    "feature_name": "Caruthersville",
    "state_alpha": "MO",
    "county_name": "Pemiscot",
    "county_numeric": "155",
    "prim_lat_dec": "36.1931245",
    "prim_long_dec": "-89.6556353",
    "elev_in_m": "84",
    "elev_in_ft": "276",
    "lat": 36.1931245,
    "long": -89.6556353
  },
  {
    "globaleventid": 274293554,
    "sqldate": 20131103,
    "monthyear": 201311,
    "year": 2013,
    "fractiondate": "2013.8301",
    "eventcode": 111,
    "quadclass": 3,
    "nummentions": 10,
    "numsources": 1,
    "numarticles": 10,
    "avgtone": "2.30263157894737",
    "sourceurl": "http://www.israelnationalnews.com/News/News.aspx/173557",
    "feature_id": "971314",
    "feature_name": "Williamsburg",
    "state_alpha": "NY",
    "county_name": "Kings",
    "county_numeric": "047",
    "prim_lat_dec": "40.7142692",
    "prim_long_dec": "-73.9534714",
    "elev_in_m": "4",
    "elev_in_ft": "13",
    "lat": 40.7142692,
    "long": -73.9534714
  },
  {
    "globaleventid": 274293553,
    "sqldate": 20131103,
    "monthyear": 201311,
    "year": 2013,
    "fractiondate": "2013.8301",
    "eventcode": 111,
    "quadclass": 3,
    "nummentions": 8,
    "numsources": 1,
    "numarticles": 8,
    "avgtone": "2.53658536585366",
    "sourceurl": "http://www.miamiherald.com/2013/11/03/3729459/vt-women-inmates-find-outlet-in.html",
    "feature_id": "295004",
    "feature_name": "Miami",
    "state_alpha": "FL",
    "county_name": "Miami-Dade",
    "county_numeric": "086",
    "prim_lat_dec": "25.7742658",
    "prim_long_dec": "-80.1936589",
    "elev_in_m": "2",
    "elev_in_ft": "7",
    "lat": 25.7742658,
    "long": -80.1936589
  },
  {
    "globaleventid": 274293552,
    "sqldate": 20131103,
    "monthyear": 201311,
    "year": 2013,
    "fractiondate": "2013.8301",
    "eventcode": 111,
    "quadclass": 3,
    "nummentions": 42,
    "numsources": 5,
    "numarticles": 42,
    "avgtone": "2.52612851262144",
    "sourceurl": "http://www.mercurynews.com/nation-world/ci_24446112/vt-women-inmates-find-outlet-writing",
    "feature_id": "1456556",
    "feature_name": "Brattleboro",
    "state_alpha": "VT",
    "county_name": "Windham",
    "county_numeric": "025",
    "prim_lat_dec": "42.8509152",
    "prim_long_dec": "-72.5578678",
    "elev_in_m": "73",
    "elev_in_ft": "239",
    "lat": 42.8509152,
    "long": -72.5578678
  },
  {
    "globaleventid": 274293551,
    "sqldate": 20131103,
    "monthyear": 201311,
    "year": 2013,
    "fractiondate": "2013.8301",
    "eventcode": 111,
    "quadclass": 3,
    "nummentions": 2,
    "numsources": 1,
    "numarticles": 2,
    "avgtone": "0.757575757575758",
    "sourceurl": "http://www.postandcourier.com/article/20131103/PC16/131109761/1009/ex-folly-mayor-remains-riled-over-council-confrontation",
    "feature_id": "1231287",
    "feature_name": "Folly Beach",
    "state_alpha": "SC",
    "county_name": "Charleston",
    "county_numeric": "019",
    "prim_lat_dec": "32.6551798",
    "prim_long_dec": "-79.9403673",
    "elev_in_m": "3",
    "elev_in_ft": "10",
    "lat": 32.6551798,
    "long": -79.9403673
  },
  {
    "globaleventid": 274293549,
    "sqldate": 20131103,
    "monthyear": 201311,
    "year": 2013,
    "fractiondate": "2013.8301",
    "eventcode": 100,
    "quadclass": 3,
    "nummentions": 4,
    "numsources": 1,
    "numarticles": 4,
    "avgtone": "1.0228166797797",
    "sourceurl": "http://www.abqjournal.com/293589/north/sfpd-no-resources-for-a-dedicated-narcotics-unit.html",
    "feature_id": "936823",
    "feature_name": "Santa Fe",
    "state_alpha": "NM",
    "county_name": "Santa Fe",
    "county_numeric": "049",
    "prim_lat_dec": "35.6869752",
    "prim_long_dec": "-105.937799",
    "elev_in_m": "2132",
    "elev_in_ft": "6995",
    "lat": 35.6869752,
    "long": -105.937799
  },
  {
    "globaleventid": 274293548,
    "sqldate": 20131103,
    "monthyear": 201311,
    "year": 2013,
    "fractiondate": "2013.8301",
    "eventcode": 100,
    "quadclass": 3,
    "nummentions": 2,
    "numsources": 2,
    "numarticles": 2,
    "avgtone": "0.598976921246729",
    "sourceurl": "http://www.katu.com/news/local/Oregon-City-house-fire-police-activity-armed-suspect-230425001.html",
    "feature_id": "1166631",
    "feature_name": "Clackamas",
    "state_alpha": "OR",
    "county_name": "Clackamas",
    "county_numeric": "005",
    "prim_lat_dec": "45.4076205",
    "prim_long_dec": "-122.5703692",
    "elev_in_m": "53",
    "elev_in_ft": "174",
    "lat": 45.4076205,
    "long": -122.5703692
  },
  {
    "globaleventid": 274293288,
    "sqldate": 20131103,
    "monthyear": 201311,
    "year": 2013,
    "fractiondate": "2013.8301",
    "eventcode": 114,
    "quadclass": 3,
    "nummentions": 1,
    "numsources": 1,
    "numarticles": 1,
    "avgtone": "4.29082240762813",
    "sourceurl": "http://www.chicagotribune.com/news/nationworld/sns-lat-supreme-court-separating-church-and-state-20131102,0,7641886.story?track=rss",
    "feature_id": "531871",
    "feature_name": "Washington",
    "state_alpha": "DC",
    "county_name": "District of Columbia",
    "county_numeric": "001",
    "prim_lat_dec": "38.8951118",
    "prim_long_dec": "-77.0363658",
    "elev_in_m": "7",
    "elev_in_ft": "23",
    "lat": 38.8951118,
    "long": -77.0363658
  },
  {
    "globaleventid": 274293262,
    "sqldate": 20131103,
    "monthyear": 201311,
    "year": 2013,
    "fractiondate": "2013.8301",
    "eventcode": 190,
    "quadclass": 4,
    "nummentions": 4,
    "numsources": 1,
    "numarticles": 4,
    "avgtone": "1.19047619047619",
    "sourceurl": "http://www.mlive.com/news/bay-city/index.ssf/2013/11/firefighters_extinguish_a_stru.html",
    "feature_id": "620777",
    "feature_name": "Bay City",
    "state_alpha": "MI",
    "county_name": "Bay",
    "county_numeric": "017",
    "prim_lat_dec": "43.5944677",
    "prim_long_dec": "-83.8888648",
    "elev_in_m": "181",
    "elev_in_ft": "594",
    "lat": 43.5944677,
    "long": -83.8888648
  },
  {
    "globaleventid": 274293169,
    "sqldate": 20131103,
    "monthyear": 201311,
    "year": 2013,
    "fractiondate": "2013.8301",
    "eventcode": 173,
    "quadclass": 4,
    "nummentions": 12,
    "numsources": 3,
    "numarticles": 12,
    "avgtone": "1.58730158730159",
    "sourceurl": "http://www.torontosun.com/2013/11/03/georgia-couple-charged-with-murder-after-girls-body-found-in-trash",
    "feature_id": "316699",
    "feature_name": "Lawrenceville",
    "state_alpha": "GA",
    "county_name": "Gwinnett",
    "county_numeric": "135",
    "prim_lat_dec": "33.9562149",
    "prim_long_dec": "-83.9879625",
    "elev_in_m": "325",
    "elev_in_ft": "1066",
    "lat": 33.9562149,
    "long": -83.9879625
  },
  {
    "globaleventid": 274293121,
    "sqldate": 20131103,
    "monthyear": 201311,
    "year": 2013,
    "fractiondate": "2013.8301",
    "eventcode": 193,
    "quadclass": 4,
    "nummentions": 8,
    "numsources": 1,
    "numarticles": 8,
    "avgtone": "3.07576894223556",
    "sourceurl": "http://www.freep.com/article/20131103/ENT01/311030057/1035/RSS04&c=LoYHmun1x769IoyecIWVwSRRx6S4B6ZNHZZB6k2nDUs&mkt=en-us",
    "feature_id": "1617959",
    "feature_name": "Detroit",
    "state_alpha": "MI",
    "county_name": "Wayne",
    "county_numeric": "163",
    "prim_lat_dec": "42.331427",
    "prim_long_dec": "-83.0457538",
    "elev_in_m": "182",
    "elev_in_ft": "597",
    "lat": 42.331427,
    "long": -83.0457538
  },
  {
    "globaleventid": 274293115,
    "sqldate": 20131103,
    "monthyear": 201311,
    "year": 2013,
    "fractiondate": "2013.8301",
    "eventcode": 190,
    "quadclass": 4,
    "nummentions": 2,
    "numsources": 1,
    "numarticles": 2,
    "avgtone": "1.6359918200409",
    "sourceurl": "http://www.miamiherald.com/2013/11/03/3729533/businessman-wants-to-buy-philadelphia.html",
    "feature_id": "295004",
    "feature_name": "Miami",
    "state_alpha": "FL",
    "county_name": "Miami-Dade",
    "county_numeric": "086",
    "prim_lat_dec": "25.7742658",
    "prim_long_dec": "-80.1936589",
    "elev_in_m": "2",
    "elev_in_ft": "7",
    "lat": 25.7742658,
    "long": -80.1936589
  },
  {
    "globaleventid": 274293114,
    "sqldate": 20131103,
    "monthyear": 201311,
    "year": 2013,
    "fractiondate": "2013.8301",
    "eventcode": 190,
    "quadclass": 4,
    "nummentions": 54,
    "numsources": 12,
    "numarticles": 54,
    "avgtone": "0.741090765840033",
    "sourceurl": "http://www.delawareonline.com/viewart/20131104/NEWS/311040048",
    "feature_id": "1662328",
    "feature_name": "Los Angeles",
    "state_alpha": "CA",
    "county_name": "Los Angeles",
    "county_numeric": "037",
    "prim_lat_dec": "34.0522342",
    "prim_long_dec": "-118.2436849",
    "elev_in_m": "89",
    "elev_in_ft": "292",
    "lat": 34.0522342,
    "long": -118.2436849
  },
  {
    "globaleventid": 274293113,
    "sqldate": 20131103,
    "monthyear": 201311,
    "year": 2013,
    "fractiondate": "2013.8301",
    "eventcode": 190,
    "quadclass": 4,
    "nummentions": 34,
    "numsources": 16,
    "numarticles": 34,
    "avgtone": "1.23226186802436",
    "sourceurl": "http://www.pressherald.com/news/Businessman_wants_to_buy_Philadelphia_Inquirer_.html",
    "feature_id": "1209052",
    "feature_name": "Philadelphia",
    "state_alpha": "PA",
    "county_name": "Philadelphia",
    "county_numeric": "101",
    "prim_lat_dec": "39.952335",
    "prim_long_dec": "-75.163789",
    "elev_in_m": "14",
    "elev_in_ft": "46",
    "lat": 39.952335,
    "long": -75.163789
  },
  {
    "globaleventid": 274293111,
    "sqldate": 20131103,
    "monthyear": 201311,
    "year": 2013,
    "fractiondate": "2013.8301",
    "eventcode": 173,
    "quadclass": 4,
    "nummentions": 8,
    "numsources": 1,
    "numarticles": 8,
    "avgtone": "5.28735632183908",
    "sourceurl": "http://tristatesradio.com/post/push-same-sex-marriage-illinois",
    "feature_id": "412809",
    "feature_name": "Macomb",
    "state_alpha": "IL",
    "county_name": "McDonough",
    "county_numeric": "109",
    "prim_lat_dec": "40.4592076",
    "prim_long_dec": "-90.6717971",
    "elev_in_m": "216",
    "elev_in_ft": "709",
    "lat": 40.4592076,
    "long": -90.6717971
  },
  {
    "globaleventid": 274293110,
    "sqldate": 20131103,
    "monthyear": 201311,
    "year": 2013,
    "fractiondate": "2013.8301",
    "eventcode": 173,
    "quadclass": 4,
    "nummentions": 4,
    "numsources": 1,
    "numarticles": 4,
    "avgtone": "2.03045685279188",
    "sourceurl": "http://www.newsroomamerica.com/story/393511/sec_freezes_assets_in_california-based_real_estate_investment_scheme.html",
    "feature_id": "1662328",
    "feature_name": "Los Angeles",
    "state_alpha": "CA",
    "county_name": "Los Angeles",
    "county_numeric": "037",
    "prim_lat_dec": "34.0522342",
    "prim_long_dec": "-118.2436849",
    "elev_in_m": "89",
    "elev_in_ft": "292",
    "lat": 34.0522342,
    "long": -118.2436849
  },
  {
    "globaleventid": 274293107,
    "sqldate": 20131103,
    "monthyear": 201311,
    "year": 2013,
    "fractiondate": "2013.8301",
    "eventcode": 172,
    "quadclass": 4,
    "nummentions": 40,
    "numsources": 6,
    "numarticles": 40,
    "avgtone": "1.18210768936198",
    "sourceurl": "http://www.brecorder.com/top-news/108-pakistan-top-news/142937-chinas-byd-says-will-hire-more-us-employees-for-california-plant.html",
    "feature_id": "1662328",
    "feature_name": "Los Angeles",
    "state_alpha": "CA",
    "county_name": "Los Angeles",
    "county_numeric": "037",
    "prim_lat_dec": "34.0522342",
    "prim_long_dec": "-118.2436849",
    "elev_in_m": "89",
    "elev_in_ft": "292",
    "lat": 34.0522342,
    "long": -118.2436849
  },
  {
    "globaleventid": 274293100,
    "sqldate": 20131103,
    "monthyear": 201311,
    "year": 2013,
    "fractiondate": "2013.8301",
    "eventcode": 120,
    "quadclass": 3,
    "nummentions": 1,
    "numsources": 1,
    "numarticles": 1,
    "avgtone": "1.3172338090011",
    "sourceurl": "http://www.miamiherald.com/2013/11/03/3729915/miami-dade-police-give-back-several.html",
    "feature_id": "2485004",
    "feature_name": "Southland",
    "state_alpha": "FL",
    "county_name": "Hillsborough",
    "county_numeric": "057",
    "prim_lat_dec": "27.9314",
    "prim_long_dec": "-82.5092",
    "elev_in_m": "5",
    "elev_in_ft": "16",
    "lat": 27.9314,
    "long": -82.5092
  },
  {
    "globaleventid": 274293099,
    "sqldate": 20131103,
    "monthyear": 201311,
    "year": 2013,
    "fractiondate": "2013.8301",
    "eventcode": 120,
    "quadclass": 3,
    "nummentions": 1,
    "numsources": 1,
    "numarticles": 1,
    "avgtone": "1.3172338090011",
    "sourceurl": "http://www.miamiherald.com/2013/11/03/3729915/miami-dade-police-give-back-several.html",
    "feature_id": "291938",
    "feature_name": "Sweetwater",
    "state_alpha": "FL",
    "county_name": "Duval",
    "county_numeric": "031",
    "prim_lat_dec": "30.2696837",
    "prim_long_dec": "-81.7642658",
    "elev_in_m": "19",
    "elev_in_ft": "62",
    "lat": 30.2696837,
    "long": -81.7642658
  },
  {
    "globaleventid": 274293098,
    "sqldate": 20131103,
    "monthyear": 201311,
    "year": 2013,
    "fractiondate": "2013.8301",
    "eventcode": 120,
    "quadclass": 3,
    "nummentions": 4,
    "numsources": 1,
    "numarticles": 4,
    "avgtone": "2.36842105263158",
    "sourceurl": "http://www.newstimes.com/local/article/Towns-consider-their-own-medical-marijuana-laws-4950440.php",
    "feature_id": "212042",
    "feature_name": "Wethersfield",
    "state_alpha": "CT",
    "county_name": "Hartford",
    "county_numeric": "003",
    "prim_lat_dec": "41.7142665",
    "prim_long_dec": "-72.6525922",
    "elev_in_m": "13",
    "elev_in_ft": "43",
    "lat": 41.7142665,
    "long": -72.6525922
  },
  {
    "globaleventid": 274293097,
    "sqldate": 20131103,
    "monthyear": 201311,
    "year": 2013,
    "fractiondate": "2013.8301",
    "eventcode": 120,
    "quadclass": 3,
    "nummentions": 4,
    "numsources": 1,
    "numarticles": 4,
    "avgtone": "1.8348623853211",
    "sourceurl": "http://www.sfgate.com/news/article/2nd-panda-name-eatery-causes-flap-in-Vermont-town-4951062.php",
    "feature_id": "1456556",
    "feature_name": "Brattleboro",
    "state_alpha": "VT",
    "county_name": "Windham",
    "county_numeric": "025",
    "prim_lat_dec": "42.8509152",
    "prim_long_dec": "-72.5578678",
    "elev_in_m": "73",
    "elev_in_ft": "239",
    "lat": 42.8509152,
    "long": -72.5578678
  },
  {
    "globaleventid": 274293092,
    "sqldate": 20131103,
    "monthyear": 201311,
    "year": 2013,
    "fractiondate": "2013.8301",
    "eventcode": 112,
    "quadclass": 3,
    "nummentions": 5,
    "numsources": 1,
    "numarticles": 5,
    "avgtone": "3.92156862745098",
    "sourceurl": "http://newsok.com/oklahoma-inc.-no.-7-alliance-holdings-capitalizes-on-coal/article/3898739",
    "feature_id": "531871",
    "feature_name": "Washington",
    "state_alpha": "DC",
    "county_name": "District of Columbia",
    "county_numeric": "001",
    "prim_lat_dec": "38.8951118",
    "prim_long_dec": "-77.0363658",
    "elev_in_m": "7",
    "elev_in_ft": "23",
    "lat": 38.8951118,
    "long": -77.0363658
  },
  {
    "globaleventid": 274293091,
    "sqldate": 20131103,
    "monthyear": 201311,
    "year": 2013,
    "fractiondate": "2013.8301",
    "eventcode": 112,
    "quadclass": 3,
    "nummentions": 4,
    "numsources": 1,
    "numarticles": 4,
    "avgtone": "1.84162062615101",
    "sourceurl": "http://www.tennessean.com/article/20131103/NEWS01/311030063/1969/NEWS",
    "feature_id": "1656185",
    "feature_name": "Nashville",
    "state_alpha": "CA",
    "county_name": "El Dorado",
    "county_numeric": "017",
    "prim_lat_dec": "38.5787952",
    "prim_long_dec": "-120.8452145",
    "elev_in_m": "263",
    "elev_in_ft": "863",
    "lat": 38.5787952,
    "long": -120.8452145
  },
  {
    "globaleventid": 274293084,
    "sqldate": 20131103,
    "monthyear": 201311,
    "year": 2013,
    "fractiondate": "2013.8301",
    "eventcode": 111,
    "quadclass": 3,
    "nummentions": 40,
    "numsources": 1,
    "numarticles": 40,
    "avgtone": "0.0",
    "sourceurl": "http://www.upi.com/Business_News/2013/11/03/Israeli-officials-call-NSA-eavesdropping-business-as-usual/UPI-58411383509072/?spt=rln&or=2",
    "feature_id": "1662328",
    "feature_name": "Los Angeles",
    "state_alpha": "CA",
    "county_name": "Los Angeles",
    "county_numeric": "037",
    "prim_lat_dec": "34.0522342",
    "prim_long_dec": "-118.2436849",
    "elev_in_m": "89",
    "elev_in_ft": "292",
    "lat": 34.0522342,
    "long": -118.2436849
  },
  {
    "globaleventid": 274293083,
    "sqldate": 20131103,
    "monthyear": 201311,
    "year": 2013,
    "fractiondate": "2013.8301",
    "eventcode": 111,
    "quadclass": 3,
    "nummentions": 12,
    "numsources": 1,
    "numarticles": 6,
    "avgtone": "5.37704918032787",
    "sourceurl": "http://montgomerynews.com/articles/2013/11/03/glenside_news_globe_times_chronicle/news/doc526ea8b7b1008679642786.txt",
    "feature_id": "1214029",
    "feature_name": "Jenkintown",
    "state_alpha": "PA",
    "county_name": "Montgomery",
    "county_numeric": "091",
    "prim_lat_dec": "40.0959438",
    "prim_long_dec": "-75.1251743",
    "elev_in_m": "100",
    "elev_in_ft": "328",
    "lat": 40.0959438,
    "long": -75.1251743
  },
  {
    "globaleventid": 274293078,
    "sqldate": 20131103,
    "monthyear": 201311,
    "year": 2013,
    "fractiondate": "2013.8301",
    "eventcode": 110,
    "quadclass": 3,
    "nummentions": 5,
    "numsources": 1,
    "numarticles": 5,
    "avgtone": "4.19790104947526",
    "sourceurl": "http://main.omanobserver.om/?p=26998",
    "feature_id": "531871",
    "feature_name": "Washington",
    "state_alpha": "DC",
    "county_name": "District of Columbia",
    "county_numeric": "001",
    "prim_lat_dec": "38.8951118",
    "prim_long_dec": "-77.0363658",
    "elev_in_m": "7",
    "elev_in_ft": "23",
    "lat": 38.8951118,
    "long": -77.0363658
  },
  {
    "globaleventid": 274293077,
    "sqldate": 20131103,
    "monthyear": 201311,
    "year": 2013,
    "fractiondate": "2013.8301",
    "eventcode": 110,
    "quadclass": 3,
    "nummentions": 10,
    "numsources": 1,
    "numarticles": 10,
    "avgtone": "2.46575342465753",
    "sourceurl": "http://www.miamiherald.com/2013/11/03/3729536/insurance-premiums-differ-across.html",
    "feature_id": "295004",
    "feature_name": "Miami",
    "state_alpha": "FL",
    "county_name": "Miami-Dade",
    "county_numeric": "086",
    "prim_lat_dec": "25.7742658",
    "prim_long_dec": "-80.1936589",
    "elev_in_m": "2",
    "elev_in_ft": "7",
    "lat": 25.7742658,
    "long": -80.1936589
  },
  {
    "globaleventid": 274293075,
    "sqldate": 20131103,
    "monthyear": 201311,
    "year": 2013,
    "fractiondate": "2013.8301",
    "eventcode": 100,
    "quadclass": 3,
    "nummentions": 4,
    "numsources": 1,
    "numarticles": 4,
    "avgtone": "3.36842105263158",
    "sourceurl": "http://money.msn.com/mutual-fund/with-a-401-k-it-pays-to-stay-the-course-in-crises",
    "feature_id": "531871",
    "feature_name": "Washington",
    "state_alpha": "DC",
    "county_name": "District of Columbia",
    "county_numeric": "001",
    "prim_lat_dec": "38.8951118",
    "prim_long_dec": "-77.0363658",
    "elev_in_m": "7",
    "elev_in_ft": "23",
    "lat": 38.8951118,
    "long": -77.0363658
  },
  {
    "globaleventid": 274292738,
    "sqldate": 20131103,
    "monthyear": 201311,
    "year": 2013,
    "fractiondate": "2013.8301",
    "eventcode": 114,
    "quadclass": 3,
    "nummentions": 2,
    "numsources": 1,
    "numarticles": 2,
    "avgtone": "2.10169491525424",
    "sourceurl": "http://www.desmogblog.com/2013/11/03/coal-baron-major-ken-cuccinelli-campaign-donor-sues-blogger-defamation-invasion-privacy",
    "feature_id": "1354322",
    "feature_name": "Charleston",
    "state_alpha": "TX",
    "county_name": "Delta",
    "county_numeric": "119",
    "prim_lat_dec": "33.3864987",
    "prim_long_dec": "-95.5338435",
    "elev_in_m": "134",
    "elev_in_ft": "440",
    "lat": 33.3864987,
    "long": -95.5338435
  },
  {
    "globaleventid": 274292682,
    "sqldate": 20131103,
    "monthyear": 201311,
    "year": 2013,
    "fractiondate": "2013.8301",
    "eventcode": 190,
    "quadclass": 4,
    "nummentions": 8,
    "numsources": 1,
    "numarticles": 8,
    "avgtone": "1.35983263598326",
    "sourceurl": "http://theblacksheartimes.com/articles/2013/11/03/news/doc4f05ba1e6d99f132623840.txt",
    "feature_id": "354859",
    "feature_name": "Bristol",
    "state_alpha": "GA",
    "county_name": "Pierce",
    "county_numeric": "229",
    "prim_lat_dec": "31.4485465",
    "prim_long_dec": "-82.2145665",
    "elev_in_m": "43",
    "elev_in_ft": "141",
    "lat": 31.4485465,
    "long": -82.2145665
  },
  {
    "globaleventid": 274292629,
    "sqldate": 20131103,
    "monthyear": 201311,
    "year": 2013,
    "fractiondate": "2013.8301",
    "eventcode": 190,
    "quadclass": 4,
    "nummentions": 5,
    "numsources": 1,
    "numarticles": 5,
    "avgtone": "3.93700787401575",
    "sourceurl": "http://www.huffingtonpost.com/2013/11/03/mike-rogers-drone_n_4208699.html",
    "feature_id": "531871",
    "feature_name": "Washington",
    "state_alpha": "DC",
    "county_name": "District of Columbia",
    "county_numeric": "001",
    "prim_lat_dec": "38.8951118",
    "prim_long_dec": "-77.0363658",
    "elev_in_m": "7",
    "elev_in_ft": "23",
    "lat": 38.8951118,
    "long": -77.0363658
  },
  {
    "globaleventid": 274292552,
    "sqldate": 20131103,
    "monthyear": 201311,
    "year": 2013,
    "fractiondate": "2013.8301",
    "eventcode": 190,
    "quadclass": 4,
    "nummentions": 4,
    "numsources": 2,
    "numarticles": 2,
    "avgtone": "2.35653316161384",
    "sourceurl": "http://www.beloitdailynews.com/news/national/filner-casts-short-shadow-in-san-diego-mayor-race/article_c18a74cb-1004-54a7-9965-b3bd9e65428a.html",
    "feature_id": "1661377",
    "feature_name": "San Diego",
    "state_alpha": "CA",
    "county_name": "San Diego",
    "county_numeric": "073",
    "prim_lat_dec": "32.7153292",
    "prim_long_dec": "-117.1572551",
    "elev_in_m": "19",
    "elev_in_ft": "62",
    "lat": 32.7153292,
    "long": -117.1572551
  },
  {
    "globaleventid": 274292537,
    "sqldate": 20131103,
    "monthyear": 201311,
    "year": 2013,
    "fractiondate": "2013.8301",
    "eventcode": 100,
    "quadclass": 3,
    "nummentions": 2,
    "numsources": 1,
    "numarticles": 2,
    "avgtone": "3.00429184549356",
    "sourceurl": "http://www.presstv.ir/detail/2013/11/03/332776/us-repeatedly-ignored-afghan-sovereignty/",
    "feature_id": "531871",
    "feature_name": "Washington",
    "state_alpha": "DC",
    "county_name": "District of Columbia",
    "county_numeric": "001",
    "prim_lat_dec": "38.8951118",
    "prim_long_dec": "-77.0363658",
    "elev_in_m": "7",
    "elev_in_ft": "23",
    "lat": 38.8951118,
    "long": -77.0363658
  },
  {
    "globaleventid": 274287575,
    "sqldate": 20131103,
    "monthyear": 201311,
    "year": 2013,
    "fractiondate": "2013.8301",
    "eventcode": 190,
    "quadclass": 4,
    "nummentions": 4,
    "numsources": 1,
    "numarticles": 4,
    "avgtone": "0.94909404659189",
    "sourceurl": "http://www.kcra.com/news/national/lax-slaying-suspect-remains-hospitalized/-/11797450/22780856/-/kjypys/-/index.html?absolute=true",
    "feature_id": "531871",
    "feature_name": "Washington",
    "state_alpha": "DC",
    "county_name": "District of Columbia",
    "county_numeric": "001",
    "prim_lat_dec": "38.8951118",
    "prim_long_dec": "-77.0363658",
    "elev_in_m": "7",
    "elev_in_ft": "23",
    "lat": 38.8951118,
    "long": -77.0363658
  },
  {
    "globaleventid": 274287574,
    "sqldate": 20131103,
    "monthyear": 201311,
    "year": 2013,
    "fractiondate": "2013.8301",
    "eventcode": 190,
    "quadclass": 4,
    "nummentions": 20,
    "numsources": 3,
    "numarticles": 20,
    "avgtone": "0.627204889557371",
    "sourceurl": "http://www.click2houston.com/news/lax-slaying-suspect-remains-hospitalized/-/1735978/22780856/-/lrg83e/-/index.html",
    "feature_id": "1662328",
    "feature_name": "Los Angeles",
    "state_alpha": "CA",
    "county_name": "Los Angeles",
    "county_numeric": "037",
    "prim_lat_dec": "34.0522342",
    "prim_long_dec": "-118.2436849",
    "elev_in_m": "89",
    "elev_in_ft": "292",
    "lat": 34.0522342,
    "long": -118.2436849
  },
  {
    "globaleventid": 274287572,
    "sqldate": 20131103,
    "monthyear": 201311,
    "year": 2013,
    "fractiondate": "2013.8301",
    "eventcode": 195,
    "quadclass": 4,
    "nummentions": 10,
    "numsources": 2,
    "numarticles": 10,
    "avgtone": "0.0",
    "sourceurl": "http://pakistan.onepakistan.com.pk/news/world/usa/258556-suspected-lax-shooter-charged.html",
    "feature_id": "1662328",
    "feature_name": "Los Angeles",
    "state_alpha": "CA",
    "county_name": "Los Angeles",
    "county_numeric": "037",
    "prim_lat_dec": "34.0522342",
    "prim_long_dec": "-118.2436849",
    "elev_in_m": "89",
    "elev_in_ft": "292",
    "lat": 34.0522342,
    "long": -118.2436849
  },
  {
    "globaleventid": 274287570,
    "sqldate": 20131103,
    "monthyear": 201311,
    "year": 2013,
    "fractiondate": "2013.8301",
    "eventcode": 194,
    "quadclass": 4,
    "nummentions": 4,
    "numsources": 1,
    "numarticles": 4,
    "avgtone": "1.31313131313131",
    "sourceurl": "http://wireupdate.com/pakistani-taliban-rule-out-peace-talks-after-u-s-drone-killing-of-its-leader.html",
    "feature_id": "531871",
    "feature_name": "Washington",
    "state_alpha": "DC",
    "county_name": "District of Columbia",
    "county_numeric": "001",
    "prim_lat_dec": "38.8951118",
    "prim_long_dec": "-77.0363658",
    "elev_in_m": "7",
    "elev_in_ft": "23",
    "lat": 38.8951118,
    "long": -77.0363658
  },
  {
    "globaleventid": 274287559,
    "sqldate": 20131103,
    "monthyear": 201311,
    "year": 2013,
    "fractiondate": "2013.8301",
    "eventcode": 193,
    "quadclass": 4,
    "nummentions": 9,
    "numsources": 1,
    "numarticles": 9,
    "avgtone": "1.25260960334029",
    "sourceurl": "http://www.wowktv.com/story/23862267/police-seek-motive-in-deadly-la-airport-shooting",
    "feature_id": "882301",
    "feature_name": "Charleston",
    "state_alpha": "NJ",
    "county_name": "Burlington",
    "county_numeric": "005",
    "prim_lat_dec": "40.0390003",
    "prim_long_dec": "-74.8912772",
    "elev_in_m": "9",
    "elev_in_ft": "30",
    "lat": 40.0390003,
    "long": -74.8912772
  },
  {
    "globaleventid": 274287558,
    "sqldate": 20131103,
    "monthyear": 201311,
    "year": 2013,
    "fractiondate": "2013.8301",
    "eventcode": 193,
    "quadclass": 4,
    "nummentions": 40,
    "numsources": 2,
    "numarticles": 40,
    "avgtone": "1.26026115436407",
    "sourceurl": "http://bostonherald.com/news_opinion/national/west/2013/11/gunman_told_police_he_acted_alone_in_lax_shooting?utm_source=feedburner&utm_medium=feed&utm_campaign=Feed%3A%20bostonherald/news/national/west%20%28U.S./%20West%20Region%20-%20News%20%26%20Opinion",
    "feature_id": "617565",
    "feature_name": "Boston",
    "state_alpha": "MA",
    "county_name": "Suffolk",
    "county_numeric": "025",
    "prim_lat_dec": "42.3584308",
    "prim_long_dec": "-71.0597732",
    "elev_in_m": "14",
    "elev_in_ft": "46",
    "lat": 42.3584308,
    "long": -71.0597732
  },
  {
    "globaleventid": 274287556,
    "sqldate": 20131103,
    "monthyear": 201311,
    "year": 2013,
    "fractiondate": "2013.8301",
    "eventcode": 193,
    "quadclass": 4,
    "nummentions": 2,
    "numsources": 1,
    "numarticles": 2,
    "avgtone": "0.993788819875776",
    "sourceurl": "http://www.theledger.com/article/20131103/news/131109789",
    "feature_id": "288030",
    "feature_name": "Ocala",
    "state_alpha": "FL",
    "county_name": "Marion",
    "county_numeric": "083",
    "prim_lat_dec": "29.1871986",
    "prim_long_dec": "-82.1400923",
    "elev_in_m": "21",
    "elev_in_ft": "69",
    "lat": 29.1871986,
    "long": -82.1400923
  },
  {
    "globaleventid": 274287554,
    "sqldate": 20131103,
    "monthyear": 201311,
    "year": 2013,
    "fractiondate": "2013.8301",
    "eventcode": 193,
    "quadclass": 4,
    "nummentions": 128,
    "numsources": 10,
    "numarticles": 128,
    "avgtone": "1.15365222805648",
    "sourceurl": "http://voiceofrussia.com/news/2013_11_04/LA-airport-gunman-planned-suicide-mission-4143/",
    "feature_id": "1662328",
    "feature_name": "Los Angeles",
    "state_alpha": "CA",
    "county_name": "Los Angeles",
    "county_numeric": "037",
    "prim_lat_dec": "34.0522342",
    "prim_long_dec": "-118.2436849",
    "elev_in_m": "89",
    "elev_in_ft": "292",
    "lat": 34.0522342,
    "long": -118.2436849
  },
  {
    "globaleventid": 274287553,
    "sqldate": 20131103,
    "monthyear": 201311,
    "year": 2013,
    "fractiondate": "2013.8301",
    "eventcode": 193,
    "quadclass": 4,
    "nummentions": 20,
    "numsources": 1,
    "numarticles": 20,
    "avgtone": "1.17896198576636",
    "sourceurl": "http://www.cbs8.com/story/23864008/gunman-told-police-he-acted-alone-in-lax-shooting",
    "feature_id": "1661377",
    "feature_name": "San Diego",
    "state_alpha": "CA",
    "county_name": "San Diego",
    "county_numeric": "073",
    "prim_lat_dec": "32.7153292",
    "prim_long_dec": "-117.1572551",
    "elev_in_m": "19",
    "elev_in_ft": "62",
    "lat": 32.7153292,
    "long": -117.1572551
  },
  {
    "globaleventid": 274287550,
    "sqldate": 20131103,
    "monthyear": 201311,
    "year": 2013,
    "fractiondate": "2013.8301",
    "eventcode": 193,
    "quadclass": 4,
    "nummentions": 10,
    "numsources": 1,
    "numarticles": 10,
    "avgtone": "1.23318385650224",
    "sourceurl": "http://www.wfaa.com/news/Suspect-in-LAX-shooting-spree-targeted-TSA-230413472.html",
    "feature_id": "1380944",
    "feature_name": "Dallas",
    "state_alpha": "TX",
    "county_name": "Dallas",
    "county_numeric": "113",
    "prim_lat_dec": "32.7830556",
    "prim_long_dec": "-96.8066667",
    "elev_in_m": "128",
    "elev_in_ft": "420",
    "lat": 32.7830556,
    "long": -96.8066667
  },
  {
    "globaleventid": 274287549,
    "sqldate": 20131103,
    "monthyear": 201311,
    "year": 2013,
    "fractiondate": "2013.8301",
    "eventcode": 193,
    "quadclass": 4,
    "nummentions": 4,
    "numsources": 1,
    "numarticles": 4,
    "avgtone": "1.26315789473684",
    "sourceurl": "http://www.kswo.com/story/23862267/police-seek-motive-in-deadly-la-airport-shooting",
    "feature_id": "1376776",
    "feature_name": "Wichita Falls",
    "state_alpha": "TX",
    "county_name": "Wichita",
    "county_numeric": "485",
    "prim_lat_dec": "33.9137085",
    "prim_long_dec": "-98.4933873",
    "elev_in_m": "289",
    "elev_in_ft": "948",
    "lat": 33.9137085,
    "long": -98.4933873
  },
  {
    "globaleventid": 274287548,
    "sqldate": 20131103,
    "monthyear": 201311,
    "year": 2013,
    "fractiondate": "2013.8301",
    "eventcode": 193,
    "quadclass": 4,
    "nummentions": 6,
    "numsources": 1,
    "numarticles": 6,
    "avgtone": "1.26315789473684",
    "sourceurl": "http://www.kswo.com/story/23862267/police-seek-motive-in-deadly-la-airport-shooting",
    "feature_id": "1376776",
    "feature_name": "Wichita Falls",
    "state_alpha": "TX",
    "county_name": "Wichita",
    "county_numeric": "485",
    "prim_lat_dec": "33.9137085",
    "prim_long_dec": "-98.4933873",
    "elev_in_m": "289",
    "elev_in_ft": "948",
    "lat": 33.9137085,
    "long": -98.4933873
  },
  {
    "globaleventid": 274287547,
    "sqldate": 20131103,
    "monthyear": 201311,
    "year": 2013,
    "fractiondate": "2013.8301",
    "eventcode": 193,
    "quadclass": 4,
    "nummentions": 3,
    "numsources": 1,
    "numarticles": 3,
    "avgtone": "1.26186394634933",
    "sourceurl": "http://www.kltv.com/story/23862267/police-seek-motive-in-deadly-la-airport-shooting?t=2013-11-03T12:40:38Z",
    "feature_id": "1374716",
    "feature_name": "Longview",
    "state_alpha": "TX",
    "county_name": "Gregg",
    "county_numeric": "183",
    "prim_lat_dec": "32.5007038",
    "prim_long_dec": "-94.7404891",
    "elev_in_m": "113",
    "elev_in_ft": "371",
    "lat": 32.5007038,
    "long": -94.7404891
  },
  {
    "globaleventid": 274287546,
    "sqldate": 20131103,
    "monthyear": 201311,
    "year": 2013,
    "fractiondate": "2013.8301",
    "eventcode": 193,
    "quadclass": 4,
    "nummentions": 27,
    "numsources": 1,
    "numarticles": 27,
    "avgtone": "1.26186394634933",
    "sourceurl": "http://www.kltv.com/story/23862267/police-seek-motive-in-deadly-la-airport-shooting?t=2013-11-03T12:40:38Z",
    "feature_id": "1374716",
    "feature_name": "Longview",
    "state_alpha": "TX",
    "county_name": "Gregg",
    "county_numeric": "183",
    "prim_lat_dec": "32.5007038",
    "prim_long_dec": "-94.7404891",
    "elev_in_m": "113",
    "elev_in_ft": "371",
    "lat": 32.5007038,
    "long": -94.7404891
  },
  {
    "globaleventid": 274287545,
    "sqldate": 20131103,
    "monthyear": 201311,
    "year": 2013,
    "fractiondate": "2013.8301",
    "eventcode": 193,
    "quadclass": 4,
    "nummentions": 3,
    "numsources": 1,
    "numarticles": 3,
    "avgtone": "1.26404494382022",
    "sourceurl": "http://www.newswest9.com/story/23862267/police-seek-motive-in-deadly-la-airport-shooting",
    "feature_id": "1343067",
    "feature_name": "Odessa",
    "state_alpha": "TX",
    "county_name": "Ector",
    "county_numeric": "135",
    "prim_lat_dec": "31.8456816",
    "prim_long_dec": "-102.3676431",
    "elev_in_m": "884",
    "elev_in_ft": "2900",
    "lat": 31.8456816,
    "long": -102.3676431
  },
  {
    "globaleventid": 274287544,
    "sqldate": 20131103,
    "monthyear": 201311,
    "year": 2013,
    "fractiondate": "2013.8301",
    "eventcode": 193,
    "quadclass": 4,
    "nummentions": 1,
    "numsources": 1,
    "numarticles": 1,
    "avgtone": "1.26404494382022",
    "sourceurl": "http://www.newswest9.com/story/23862267/police-seek-motive-in-deadly-la-airport-shooting",
    "feature_id": "1343067",
    "feature_name": "Odessa",
    "state_alpha": "TX",
    "county_name": "Ector",
    "county_numeric": "135",
    "prim_lat_dec": "31.8456816",
    "prim_long_dec": "-102.3676431",
    "elev_in_m": "884",
    "elev_in_ft": "2900",
    "lat": 31.8456816,
    "long": -102.3676431
  },
  {
    "globaleventid": 274287543,
    "sqldate": 20131103,
    "monthyear": 201311,
    "year": 2013,
    "fractiondate": "2013.8301",
    "eventcode": 193,
    "quadclass": 4,
    "nummentions": 2,
    "numsources": 1,
    "numarticles": 2,
    "avgtone": "1.26582278481013",
    "sourceurl": "http://www.wbtv.com/story/23862268/police-seek-motive-in-deadly-la-airport-shooting",
    "feature_id": "1019610",
    "feature_name": "Charlotte",
    "state_alpha": "NC",
    "county_name": "Mecklenburg",
    "county_numeric": "119",
    "prim_lat_dec": "35.2270869",
    "prim_long_dec": "-80.8431268",
    "elev_in_m": "232",
    "elev_in_ft": "761",
    "lat": 35.2270869,
    "long": -80.8431268
  },
  {
    "globaleventid": 274287538,
    "sqldate": 20131103,
    "monthyear": 201311,
    "year": 2013,
    "fractiondate": "2013.8301",
    "eventcode": 190,
    "quadclass": 4,
    "nummentions": 6,
    "numsources": 3,
    "numarticles": 6,
    "avgtone": "0.699818748748128",
    "sourceurl": "http://newsweekpakistan.com/ttp-appoints-interim-chief/",
    "feature_id": "531871",
    "feature_name": "Washington",
    "state_alpha": "DC",
    "county_name": "District of Columbia",
    "county_numeric": "001",
    "prim_lat_dec": "38.8951118",
    "prim_long_dec": "-77.0363658",
    "elev_in_m": "7",
    "elev_in_ft": "23",
    "lat": 38.8951118,
    "long": -77.0363658
  },
  {
    "globaleventid": 274287535,
    "sqldate": 20131103,
    "monthyear": 201311,
    "year": 2013,
    "fractiondate": "2013.8301",
    "eventcode": 190,
    "quadclass": 4,
    "nummentions": 19,
    "numsources": 5,
    "numarticles": 19,
    "avgtone": "0.826576005140875",
    "sourceurl": "http://www.wqow.com/story/23852115/2013/11/01/breaking-several-shot-at-los-angeles-intl-airport",
    "feature_id": "1662328",
    "feature_name": "Los Angeles",
    "state_alpha": "CA",
    "county_name": "Los Angeles",
    "county_numeric": "037",
    "prim_lat_dec": "34.0522342",
    "prim_long_dec": "-118.2436849",
    "elev_in_m": "89",
    "elev_in_ft": "292",
    "lat": 34.0522342,
    "long": -118.2436849
  },
  {
    "globaleventid": 274287526,
    "sqldate": 20131103,
    "monthyear": 201311,
    "year": 2013,
    "fractiondate": "2013.8301",
    "eventcode": 173,
    "quadclass": 4,
    "nummentions": 10,
    "numsources": 1,
    "numarticles": 10,
    "avgtone": "0.0",
    "sourceurl": "http://www.maltatoday.com.mt/en/newsdetails/news/world/LAX-gunmen-arraigned-20131103",
    "feature_id": "1662328",
    "feature_name": "Los Angeles",
    "state_alpha": "CA",
    "county_name": "Los Angeles",
    "county_numeric": "037",
    "prim_lat_dec": "34.0522342",
    "prim_long_dec": "-118.2436849",
    "elev_in_m": "89",
    "elev_in_ft": "292",
    "lat": 34.0522342,
    "long": -118.2436849
  },
  {
    "globaleventid": 274287510,
    "sqldate": 20131103,
    "monthyear": 201311,
    "year": 2013,
    "fractiondate": "2013.8301",
    "eventcode": 193,
    "quadclass": 4,
    "nummentions": 6,
    "numsources": 1,
    "numarticles": 6,
    "avgtone": "1.26404494382022",
    "sourceurl": "http://www.newswest9.com/story/23862267/police-seek-motive-in-deadly-la-airport-shooting",
    "feature_id": "1343067",
    "feature_name": "Odessa",
    "state_alpha": "TX",
    "county_name": "Ector",
    "county_numeric": "135",
    "prim_lat_dec": "31.8456816",
    "prim_long_dec": "-102.3676431",
    "elev_in_m": "884",
    "elev_in_ft": "2900",
    "lat": 31.8456816,
    "long": -102.3676431
  },
  {
    "globaleventid": 274287319,
    "sqldate": 20131103,
    "monthyear": 201311,
    "year": 2013,
    "fractiondate": "2013.8301",
    "eventcode": 193,
    "quadclass": 4,
    "nummentions": 10,
    "numsources": 1,
    "numarticles": 10,
    "avgtone": "1.22116689280868",
    "sourceurl": "http://www.rgj.com/viewart/20131103/NEWS13/311030056/Gunman-told-police-he-acted-alone-LAX-shooting",
    "feature_id": "1662328",
    "feature_name": "Los Angeles",
    "state_alpha": "CA",
    "county_name": "Los Angeles",
    "county_numeric": "037",
    "prim_lat_dec": "34.0522342",
    "prim_long_dec": "-118.2436849",
    "elev_in_m": "89",
    "elev_in_ft": "292",
    "lat": 34.0522342,
    "long": -118.2436849
  },
  {
    "globaleventid": 274287291,
    "sqldate": 20131103,
    "monthyear": 201311,
    "year": 2013,
    "fractiondate": "2013.8301",
    "eventcode": 111,
    "quadclass": 3,
    "nummentions": 2,
    "numsources": 1,
    "numarticles": 2,
    "avgtone": "1.86092066601371",
    "sourceurl": "http://axisoflogic.com/artman/publish/Article_66141.shtml",
    "feature_id": "531871",
    "feature_name": "Washington",
    "state_alpha": "DC",
    "county_name": "District of Columbia",
    "county_numeric": "001",
    "prim_lat_dec": "38.8951118",
    "prim_long_dec": "-77.0363658",
    "elev_in_m": "7",
    "elev_in_ft": "23",
    "lat": 38.8951118,
    "long": -77.0363658
  },
  {
    "globaleventid": 274287287,
    "sqldate": 20131103,
    "monthyear": 201311,
    "year": 2013,
    "fractiondate": "2013.8301",
    "eventcode": 193,
    "quadclass": 4,
    "nummentions": 10,
    "numsources": 1,
    "numarticles": 10,
    "avgtone": "1.05820105820106",
    "sourceurl": "http://www.phoenixherald.com/index.php/sid/218153613/scat/caf48823f1822eb3",
    "feature_id": "44784",
    "feature_name": "Phoenix",
    "state_alpha": "AZ",
    "county_name": "Maricopa",
    "county_numeric": "013",
    "prim_lat_dec": "33.4483771",
    "prim_long_dec": "-112.0740373",
    "elev_in_m": "331",
    "elev_in_ft": "1086",
    "lat": 33.4483771,
    "long": -112.0740373
  },
  {
    "globaleventid": 274287230,
    "sqldate": 20131103,
    "monthyear": 201311,
    "year": 2013,
    "fractiondate": "2013.8301",
    "eventcode": 193,
    "quadclass": 4,
    "nummentions": 10,
    "numsources": 1,
    "numarticles": 10,
    "avgtone": "0.88809946714032",
    "sourceurl": "http://www.latimes.com/local/lanow/la-me-ln-lax-shooting-teacher-wounded-by-gunman-needs-surgery-20131103,0,1244451.story",
    "feature_id": "1662328",
    "feature_name": "Los Angeles",
    "state_alpha": "CA",
    "county_name": "Los Angeles",
    "county_numeric": "037",
    "prim_lat_dec": "34.0522342",
    "prim_long_dec": "-118.2436849",
    "elev_in_m": "89",
    "elev_in_ft": "292",
    "lat": 34.0522342,
    "long": -118.2436849
  },
  {
    "globaleventid": 274287227,
    "sqldate": 20131103,
    "monthyear": 201311,
    "year": 2013,
    "fractiondate": "2013.8301",
    "eventcode": 193,
    "quadclass": 4,
    "nummentions": 5,
    "numsources": 1,
    "numarticles": 5,
    "avgtone": "0.865800865800866",
    "sourceurl": "http://pakistan.onepakistan.com.pk/news/world/usa/258315-lax-terminals-open-as-investigation-continues.html",
    "feature_id": "1662328",
    "feature_name": "Los Angeles",
    "state_alpha": "CA",
    "county_name": "Los Angeles",
    "county_numeric": "037",
    "prim_lat_dec": "34.0522342",
    "prim_long_dec": "-118.2436849",
    "elev_in_m": "89",
    "elev_in_ft": "292",
    "lat": 34.0522342,
    "long": -118.2436849
  },
  {
    "globaleventid": 274287225,
    "sqldate": 20131103,
    "monthyear": 201311,
    "year": 2013,
    "fractiondate": "2013.8301",
    "eventcode": 193,
    "quadclass": 4,
    "nummentions": 6,
    "numsources": 1,
    "numarticles": 6,
    "avgtone": "1.00783874580067",
    "sourceurl": "http://mg.co.za/article/2013-11-03-accused-la-airport-shooter-could-face-death-penalty",
    "feature_id": "879219",
    "feature_name": "Pennsville",
    "state_alpha": "NJ",
    "county_name": "Salem",
    "county_numeric": "033",
    "prim_lat_dec": "39.6534464",
    "prim_long_dec": "-75.5165881",
    "elev_in_m": "2",
    "elev_in_ft": "7",
    "lat": 39.6534464,
    "long": -75.5165881
  },
  {
    "globaleventid": 274287224,
    "sqldate": 20131103,
    "monthyear": 201311,
    "year": 2013,
    "fractiondate": "2013.8301",
    "eventcode": 193,
    "quadclass": 4,
    "nummentions": 4,
    "numsources": 1,
    "numarticles": 4,
    "avgtone": "1.09990834097159",
    "sourceurl": "http://www.reuters.com/article/2013/11/03/us-usa-california-airport-idUSBRE9A00RS20131103?feedType=RSS&feedName=wtMostRead",
    "feature_id": "531871",
    "feature_name": "Washington",
    "state_alpha": "DC",
    "county_name": "District of Columbia",
    "county_numeric": "001",
    "prim_lat_dec": "38.8951118",
    "prim_long_dec": "-77.0363658",
    "elev_in_m": "7",
    "elev_in_ft": "23",
    "lat": 38.8951118,
    "long": -77.0363658
  },
  {
    "globaleventid": 274287223,
    "sqldate": 20131103,
    "monthyear": 201311,
    "year": 2013,
    "fractiondate": "2013.8301",
    "eventcode": 193,
    "quadclass": 4,
    "nummentions": 44,
    "numsources": 3,
    "numarticles": 24,
    "avgtone": "1.25154630906438",
    "sourceurl": "http://www.edmontonsun.com/2013/11/03/suspected-lax-gunman-planned-suicide-mission-congressman",
    "feature_id": "1662328",
    "feature_name": "Los Angeles",
    "state_alpha": "CA",
    "county_name": "Los Angeles",
    "county_numeric": "037",
    "prim_lat_dec": "34.0522342",
    "prim_long_dec": "-118.2436849",
    "elev_in_m": "89",
    "elev_in_ft": "292",
    "lat": 34.0522342,
    "long": -118.2436849
  },
  {
    "globaleventid": 274287217,
    "sqldate": 20131103,
    "monthyear": 201311,
    "year": 2013,
    "fractiondate": "2013.8301",
    "eventcode": 190,
    "quadclass": 4,
    "nummentions": 10,
    "numsources": 1,
    "numarticles": 10,
    "avgtone": "1.01351351351351",
    "sourceurl": "http://www.cnn.com/2013/11/01/travel/guns-in-airports/",
    "feature_id": "1662328",
    "feature_name": "Los Angeles",
    "state_alpha": "CA",
    "county_name": "Los Angeles",
    "county_numeric": "037",
    "prim_lat_dec": "34.0522342",
    "prim_long_dec": "-118.2436849",
    "elev_in_m": "89",
    "elev_in_ft": "292",
    "lat": 34.0522342,
    "long": -118.2436849
  },
  {
    "globaleventid": 274287135,
    "sqldate": 20131103,
    "monthyear": 201311,
    "year": 2013,
    "fractiondate": "2013.8301",
    "eventcode": 193,
    "quadclass": 4,
    "nummentions": 10,
    "numsources": 1,
    "numarticles": 10,
    "avgtone": "1.49700598802395",
    "sourceurl": "http://www.miamiherald.com/2013/11/03/3729042/nato-soldier-2-afghan-police-officers.html",
    "feature_id": "295004",
    "feature_name": "Miami",
    "state_alpha": "FL",
    "county_name": "Miami-Dade",
    "county_numeric": "086",
    "prim_lat_dec": "25.7742658",
    "prim_long_dec": "-80.1936589",
    "elev_in_m": "2",
    "elev_in_ft": "7",
    "lat": 25.7742658,
    "long": -80.1936589
  },
  {
    "globaleventid": 274287134,
    "sqldate": 20131103,
    "monthyear": 201311,
    "year": 2013,
    "fractiondate": "2013.8301",
    "eventcode": 193,
    "quadclass": 4,
    "nummentions": 8,
    "numsources": 1,
    "numarticles": 8,
    "avgtone": "1.19904076738609",
    "sourceurl": "http://www.cnn.com/2013/11/03/us/lax-shooting/index.html?utm_source=feedburner&utm_medium=feed&utm_campaign=Feed%3A+rss%2Fcnn_us+%28RSS%3A+U.S.%29",
    "feature_id": "1662328",
    "feature_name": "Los Angeles",
    "state_alpha": "CA",
    "county_name": "Los Angeles",
    "county_numeric": "037",
    "prim_lat_dec": "34.0522342",
    "prim_long_dec": "-118.2436849",
    "elev_in_m": "89",
    "elev_in_ft": "292",
    "lat": 34.0522342,
    "long": -118.2436849
  },
  {
    "globaleventid": 274287132,
    "sqldate": 20131103,
    "monthyear": 201311,
    "year": 2013,
    "fractiondate": "2013.8301",
    "eventcode": 193,
    "quadclass": 4,
    "nummentions": 49,
    "numsources": 7,
    "numarticles": 49,
    "avgtone": "1.04098153543296",
    "sourceurl": "http://www.click2houston.com/news/lax-slaying-suspect-remains-hospitalized/-/1735978/22780856/-/lrg83e/-/index.html",
    "feature_id": "1662328",
    "feature_name": "Los Angeles",
    "state_alpha": "CA",
    "county_name": "Los Angeles",
    "county_numeric": "037",
    "prim_lat_dec": "34.0522342",
    "prim_long_dec": "-118.2436849",
    "elev_in_m": "89",
    "elev_in_ft": "292",
    "lat": 34.0522342,
    "long": -118.2436849
  },
  {
    "globaleventid": 274287131,
    "sqldate": 20131103,
    "monthyear": 201311,
    "year": 2013,
    "fractiondate": "2013.8301",
    "eventcode": 193,
    "quadclass": 4,
    "nummentions": 20,
    "numsources": 2,
    "numarticles": 20,
    "avgtone": "0.520833333333333",
    "sourceurl": "http://news.yahoo.com/gunman-shoots-police-officer-burning-oregon-home-043933951.html",
    "feature_id": "1136601",
    "feature_name": "Oregon City",
    "state_alpha": "OR",
    "county_name": "Clackamas",
    "county_numeric": "005",
    "prim_lat_dec": "45.3573429",
    "prim_long_dec": "-122.6067583",
    "elev_in_m": "38",
    "elev_in_ft": "125",
    "lat": 45.3573429,
    "long": -122.6067583
  },
  {
    "globaleventid": 274287122,
    "sqldate": 20131103,
    "monthyear": 201311,
    "year": 2013,
    "fractiondate": "2013.8301",
    "eventcode": 190,
    "quadclass": 4,
    "nummentions": 10,
    "numsources": 1,
    "numarticles": 10,
    "avgtone": "1.49700598802395",
    "sourceurl": "http://www.miamiherald.com/2013/11/03/3729042/nato-soldier-2-afghan-police-officers.html",
    "feature_id": "295004",
    "feature_name": "Miami",
    "state_alpha": "FL",
    "county_name": "Miami-Dade",
    "county_numeric": "086",
    "prim_lat_dec": "25.7742658",
    "prim_long_dec": "-80.1936589",
    "elev_in_m": "2",
    "elev_in_ft": "7",
    "lat": 25.7742658,
    "long": -80.1936589
  },
  {
    "globaleventid": 274287121,
    "sqldate": 20131103,
    "monthyear": 201311,
    "year": 2013,
    "fractiondate": "2013.8301",
    "eventcode": 190,
    "quadclass": 4,
    "nummentions": 6,
    "numsources": 1,
    "numarticles": 6,
    "avgtone": "0.463821892393321",
    "sourceurl": "http://www.newpittsburghcourieronline.com/index.php/featured-news/metro/19255-metro-beat-police-seek-2-who-wounded-man-in-wilkinsburg-barbershop",
    "feature_id": "1213644",
    "feature_name": "Pittsburgh",
    "state_alpha": "PA",
    "county_name": "Allegheny",
    "county_numeric": "003",
    "prim_lat_dec": "40.4406248",
    "prim_long_dec": "-79.9958864",
    "elev_in_m": "233",
    "elev_in_ft": "764",
    "lat": 40.4406248,
    "long": -79.9958864
  },