[
  {
    "globaleventid": 267498076,
    "sqldate": 20130913,
    "monthyear": 201309,
    "year": 2013,
    "fractiondate": "2013.6932",
    "eventcode": 193,
    "quadclass": 4,
    "nummentions": 2,
    "numsources": 1,
    "numarticles": 2,
    "avgtone": "0.62111801242236",
    "sourceurl": "http://www.mlive.com/news/muskegon/index.ssf/2013/09/eric_knysz_arraigned_for_murde.html",
    "feature_id": "1615042",
    "feature_name": "Traverse City",
    "state_alpha": "MI",
    "county_name": "Grand Traverse",
    "county_numeric": "055",
    "prim_lat_dec": "44.7630567",
    "prim_long_dec": "-85.6206317",
    "elev_in_m": "182",
    "elev_in_ft": "597",
    "lat": 44.7630567,
    "long": -85.6206317
  },
  {
    "globaleventid": 267498075,
    "sqldate": 20130913,
    "monthyear": 201309,
    "year": 2013,
    "fractiondate": "2013.6932",
    "eventcode": 193,
    "quadclass": 4,
    "nummentions": 4,
    "numsources": 1,
    "numarticles": 4,
    "avgtone": "3.91389432485323",
    "sourceurl": "http://wajr.com/common/more.php?m=15&r=1&item_id=13081",
    "feature_id": "1555908",
    "feature_name": "Wallback",
    "state_alpha": "WV",
    "county_name": "Roane",
    "county_numeric": "087",
    "prim_lat_dec": "38.565653",
    "prim_long_dec": "-81.1303897",
    "elev_in_m": "233",
    "elev_in_ft": "764",
    "lat": 38.565653,
    "long": -81.1303897
  },
  {
    "globaleventid": 267498074,
    "sqldate": 20130913,
    "monthyear": 201309,
    "year": 2013,
    "fractiondate": "2013.6932",
    "eventcode": 193,
    "quadclass": 4,
    "nummentions": 10,
    "numsources": 1,
    "numarticles": 10,
    "avgtone": "0.0",
    "sourceurl": "http://www.mysanantonio.com/news/crime/article/Deputies-Cows-horses-shot-on-NM-ranch-4811719.php&c=dvycQiumMlBocDPP60VZ_Gm6-tOEIXvMkSZIPxxMcrA&mkt=en-us",
    "feature_id": "1380951",
    "feature_name": "San Antonio",
    "state_alpha": "TX",
    "county_name": "Bexar",
    "county_numeric": "029",
    "prim_lat_dec": "29.4241219",
    "prim_long_dec": "-98.4936282",
    "elev_in_m": "198",
    "elev_in_ft": "650",
    "lat": 29.4241219,
    "long": -98.4936282
  },
  {
    "globaleventid": 267498072,
    "sqldate": 20130913,
    "monthyear": 201309,
    "year": 2013,
    "fractiondate": "2013.6932",
    "eventcode": 193,
    "quadclass": 4,
    "nummentions": 10,
    "numsources": 1,
    "numarticles": 10,
    "avgtone": "0.5420054200542",
    "sourceurl": "http://www.click2houston.com/news/hpd-officers-shoot-suspect-after-chase-in-east-houston/-/1735978/21924132/-/cxeiwr/-/index.html",
    "feature_id": "1370541",
    "feature_name": "Uvalde",
    "state_alpha": "TX",
    "county_name": "Uvalde",
    "county_numeric": "463",
    "prim_lat_dec": "29.2096836",
    "prim_long_dec": "-99.7861679",
    "elev_in_m": "277",
    "elev_in_ft": "909",
    "lat": 29.2096836,
    "long": -99.7861679
  },
  {
    "globaleventid": 267498071,
    "sqldate": 20130913,
    "monthyear": 201309,
    "year": 2013,
    "fractiondate": "2013.6932",
    "eventcode": 193,
    "quadclass": 4,
    "nummentions": 7,
    "numsources": 1,
    "numarticles": 7,
    "avgtone": "0.0",
    "sourceurl": "http://www.chron.com/news/houston-texas/houston/article/Galveston-deputies-shoot-pitbull-arrest-3-on-4812326.php",
    "feature_id": "1329909",
    "feature_name": "Bacliff",
    "state_alpha": "TX",
    "county_name": "Galveston",
    "county_numeric": "167",
    "prim_lat_dec": "29.5068965",
    "prim_long_dec": "-94.992427",
    "elev_in_m": "5",
    "elev_in_ft": "16",
    "lat": 29.5068965,
    "long": -94.992427
  },
  {
    "globaleventid": 267498070,
    "sqldate": 20130913,
    "monthyear": 201309,
    "year": 2013,
    "fractiondate": "2013.6932",
    "eventcode": 193,
    "quadclass": 4,
    "nummentions": 5,
    "numsources": 1,
    "numarticles": 5,
    "avgtone": "1.83150183150183",
    "sourceurl": "http://www.wmbfnews.com/story/23428261/deputies-spartanburg-officer-charged-after-shots-fired",
    "feature_id": "1250982",
    "feature_name": "Spartanburg",
    "state_alpha": "SC",
    "county_name": "Spartanburg",
    "county_numeric": "083",
    "prim_lat_dec": "34.9495672",
    "prim_long_dec": "-81.9320482",
    "elev_in_m": "243",
    "elev_in_ft": "797",
    "lat": 34.9495672,
    "long": -81.9320482
  },
  {
    "globaleventid": 267498069,
    "sqldate": 20130913,
    "monthyear": 201309,
    "year": 2013,
    "fractiondate": "2013.6932",
    "eventcode": 193,
    "quadclass": 4,
    "nummentions": 2,
    "numsources": 1,
    "numarticles": 2,
    "avgtone": "1.83150183150183",
    "sourceurl": "http://www.wmbfnews.com/story/23428261/deputies-spartanburg-officer-charged-after-shots-fired",
    "feature_id": "1250982",
    "feature_name": "Spartanburg",
    "state_alpha": "SC",
    "county_name": "Spartanburg",
    "county_numeric": "083",
    "prim_lat_dec": "34.9495672",
    "prim_long_dec": "-81.9320482",
    "elev_in_m": "243",
    "elev_in_ft": "797",
    "lat": 34.9495672,
    "long": -81.9320482
  },
  {
    "globaleventid": 267498067,
    "sqldate": 20130913,
    "monthyear": 201309,
    "year": 2013,
    "fractiondate": "2013.6932",
    "eventcode": 193,
    "quadclass": 4,
    "nummentions": 5,
    "numsources": 1,
    "numarticles": 5,
    "avgtone": "0.966183574879227",
    "sourceurl": "http://www.shipnc.com/articles/2013/09/13/news/doc52331a7268fae114837304.txt",
    "feature_id": "1213613",
    "feature_name": "Chambersburg",
    "state_alpha": "PA",
    "county_name": "Franklin",
    "county_numeric": "055",
    "prim_lat_dec": "39.9375911",
    "prim_long_dec": "-77.6611022",
    "elev_in_m": "187",
    "elev_in_ft": "614",
    "lat": 39.9375911,
    "long": -77.6611022
  },
  {
    "globaleventid": 267498065,
    "sqldate": 20130913,
    "monthyear": 201309,
    "year": 2013,
    "fractiondate": "2013.6932",
    "eventcode": 193,
    "quadclass": 4,
    "nummentions": 2,
    "numsources": 1,
    "numarticles": 2,
    "avgtone": "5.0561797752809",
    "sourceurl": "http://www.nbcphiladelphia.com/news/local/Slain-Officer-Honored-a-Year-After-His-Death-223676451.html",
    "feature_id": "1172367",
    "feature_name": "Conshohocken",
    "state_alpha": "PA",
    "county_name": "Montgomery",
    "county_numeric": "091",
    "prim_lat_dec": "40.0792766",
    "prim_long_dec": "-75.3015714",
    "elev_in_m": "63",
    "elev_in_ft": "207",
    "lat": 40.0792766,
    "long": -75.3015714
  },
  {
    "globaleventid": 267498064,
    "sqldate": 20130913,
    "monthyear": 201309,
    "year": 2013,
    "fractiondate": "2013.6932",
    "eventcode": 193,
    "quadclass": 4,
    "nummentions": 38,
    "numsources": 1,
    "numarticles": 38,
    "avgtone": "0.920317683270588",
    "sourceurl": "http://www.tulsaworld.com/article.aspx/Troopers_fire_shots_during_Creek_County_pursuit/20130913_11_0_Twosta803047",
    "feature_id": "1100962",
    "feature_name": "Tulsa",
    "state_alpha": "OK",
    "county_name": "Tulsa",
    "county_numeric": "143",
    "prim_lat_dec": "36.1539816",
    "prim_long_dec": "-95.992775",
    "elev_in_m": "220",
    "elev_in_ft": "722",
    "lat": 36.1539816,
    "long": -95.992775
  },
  {
    "globaleventid": 267498063,
    "sqldate": 20130913,
    "monthyear": 201309,
    "year": 2013,
    "fractiondate": "2013.6932",
    "eventcode": 193,
    "quadclass": 4,
    "nummentions": 4,
    "numsources": 1,
    "numarticles": 4,
    "avgtone": "1.18110236220472",
    "sourceurl": "http://www.tulsaworld.com/article.aspx/Tulsa_quadruple_murder_Evidence_motions_Friday_to_extend/20130913_11_A1_CUTLIN865980?rss_lnk=11",
    "feature_id": "1092702",
    "feature_name": "Fairmont",
    "state_alpha": "OK",
    "county_name": "Garfield",
    "county_numeric": "047",
    "prim_lat_dec": "36.35559",
    "prim_long_dec": "-97.7056082",
    "elev_in_m": "367",
    "elev_in_ft": "1204",
    "lat": 36.35559,
    "long": -97.7056082
  },
  {
    "globaleventid": 267498062,
    "sqldate": 20130913,
    "monthyear": 201309,
    "year": 2013,
    "fractiondate": "2013.6932",
    "eventcode": 193,
    "quadclass": 4,
    "nummentions": 5,
    "numsources": 1,
    "numarticles": 5,
    "avgtone": "0.0",
    "sourceurl": "http://www.ohiostandard.com/index.php/sid/217057982/scat/d3350bca3cdaf0d1",
    "feature_id": "1066654",
    "feature_name": "Cleveland",
    "state_alpha": "OH",
    "county_name": "Cuyahoga",
    "county_numeric": "035",
    "prim_lat_dec": "41.4994954",
    "prim_long_dec": "-81.6954088",
    "elev_in_m": "199",
    "elev_in_ft": "653",
    "lat": 41.4994954,
    "long": -81.6954088
  },
  {
    "globaleventid": 267498061,
    "sqldate": 20130913,
    "monthyear": 201309,
    "year": 2013,
    "fractiondate": "2013.6932",
    "eventcode": 193,
    "quadclass": 4,
    "nummentions": 1,
    "numsources": 1,
    "numarticles": 1,
    "avgtone": "0.647249190938511",
    "sourceurl": "http://5newsonline.com/2013/09/13/murder-trial-delayed-in-execution-style-killing/",
    "feature_id": "1080996",
    "feature_name": "Columbus",
    "state_alpha": "OH",
    "county_name": "Franklin",
    "county_numeric": "049",
    "prim_lat_dec": "39.9611755",
    "prim_long_dec": "-82.9987942",
    "elev_in_m": "238",
    "elev_in_ft": "781",
    "lat": 39.9611755,
    "long": -82.9987942
  },
  {
    "globaleventid": 267498060,
    "sqldate": 20130913,
    "monthyear": 201309,
    "year": 2013,
    "fractiondate": "2013.6932",
    "eventcode": 193,
    "quadclass": 4,
    "nummentions": 2,
    "numsources": 1,
    "numarticles": 2,
    "avgtone": "1.23076923076923",
    "sourceurl": "http://www.wbtv.com/story/23423625/man-dies-in-rock-hill-shooting-police-still-looking-for-shooter",
    "feature_id": "1019610",
    "feature_name": "Charlotte",
    "state_alpha": "NC",
    "county_name": "Mecklenburg",
    "county_numeric": "119",
    "prim_lat_dec": "35.2270869",
    "prim_long_dec": "-80.8431268",
    "elev_in_m": "232",
    "elev_in_ft": "761",
    "lat": 35.2270869,
    "long": -80.8431268
  },
  {
    "globaleventid": 267498045,
    "sqldate": 20130913,
    "monthyear": 201309,
    "year": 2013,
    "fractiondate": "2013.6932",
    "eventcode": 190,
    "quadclass": 4,
    "nummentions": 4,
    "numsources": 1,
    "numarticles": 4,
    "avgtone": "0.79155672823219",
    "sourceurl": "http://abclocal.go.com/wabc/story?section=news/local/new_york&id=9246980",
    "feature_id": "959897",
    "feature_name": "Parkchester",
    "state_alpha": "NY",
    "county_name": "Bronx",
    "county_numeric": "005",
    "prim_lat_dec": "40.8389893",
    "prim_long_dec": "-73.8604128",
    "elev_in_m": "16",
    "elev_in_ft": "52",
    "lat": 40.8389893,
    "long": -73.8604128
  },
  {
    "globaleventid": 267498027,
    "sqldate": 20130913,
    "monthyear": 201309,
    "year": 2013,
    "fractiondate": "2013.6932",
    "eventcode": 190,
    "quadclass": 4,
    "nummentions": 4,
    "numsources": 1,
    "numarticles": 4,
    "avgtone": "2.04081632653061",
    "sourceurl": "http://www.thv11.com/news/story.aspx?storyid=279624",
    "feature_id": "78006",
    "feature_name": "Pine Bluff",
    "state_alpha": "AR",
    "county_name": "Jefferson",
    "county_numeric": "069",
    "prim_lat_dec": "34.2284312",
    "prim_long_dec": "-92.0031955",
    "elev_in_m": "67",
    "elev_in_ft": "220",
    "lat": 34.2284312,
    "long": -92.0031955
  },
  {
    "globaleventid": 267498026,
    "sqldate": 20130913,
    "monthyear": 201309,
    "year": 2013,
    "fractiondate": "2013.6932",
    "eventcode": 190,
    "quadclass": 4,
    "nummentions": 12,
    "numsources": 1,
    "numarticles": 12,
    "avgtone": "0.589947939771261",
    "sourceurl": "http://www.duluthnewstribune.com/event/article/id/277798/",
    "feature_id": "661145",
    "feature_name": "Duluth",
    "state_alpha": "MN",
    "county_name": "St. Louis",
    "county_numeric": "137",
    "prim_lat_dec": "46.7832731",
    "prim_long_dec": "-92.1065787",
    "elev_in_m": "214",
    "elev_in_ft": "702",
    "lat": 46.7832731,
    "long": -92.1065787
  },
  {
    "globaleventid": 267498025,
    "sqldate": 20130913,
    "monthyear": 201309,
    "year": 2013,
    "fractiondate": "2013.6932",
    "eventcode": 190,
    "quadclass": 4,
    "nummentions": 6,
    "numsources": 1,
    "numarticles": 6,
    "avgtone": "0.0",
    "sourceurl": "http://www.thebaynet.com/news/index.cfm/fa/viewstory/story_ID/33647",
    "feature_id": "585340",
    "feature_name": "La Plata",
    "state_alpha": "MD",
    "county_name": "Charles",
    "county_numeric": "017",
    "prim_lat_dec": "38.5292877",
    "prim_long_dec": "-76.9752514",
    "elev_in_m": "57",
    "elev_in_ft": "187",
    "lat": 38.5292877,
    "long": -76.9752514
  },
  {
    "globaleventid": 267498024,
    "sqldate": 20130913,
    "monthyear": 201309,
    "year": 2013,
    "fractiondate": "2013.6932",
    "eventcode": 190,
    "quadclass": 4,
    "nummentions": 10,
    "numsources": 1,
    "numarticles": 10,
    "avgtone": "0.668896321070234",
    "sourceurl": "http://www.merredinmercury.com.au/story/1775003/police-seize-assault-weapons-after-customs-probe/?cs=12",
    "feature_id": "531871",
    "feature_name": "Washington",
    "state_alpha": "DC",
    "county_name": "District of Columbia",
    "county_numeric": "001",
    "prim_lat_dec": "38.8951118",
    "prim_long_dec": "-77.0363658",
    "elev_in_m": "7",
    "elev_in_ft": "23",
    "lat": 38.8951118,
    "long": -77.0363658
  },
  {
    "globaleventid": 267498023,
    "sqldate": 20130913,
    "monthyear": 201309,
    "year": 2013,
    "fractiondate": "2013.6932",
    "eventcode": 190,
    "quadclass": 4,
    "nummentions": 14,
    "numsources": 2,
    "numarticles": 14,
    "avgtone": "0.281214848143982",
    "sourceurl": "http://www.kpho.com/story/23425222/police-raid-phoenix-store-in-gang-case-3-arrested",
    "feature_id": "44784",
    "feature_name": "Phoenix",
    "state_alpha": "AZ",
    "county_name": "Maricopa",
    "county_numeric": "013",
    "prim_lat_dec": "33.4483771",
    "prim_long_dec": "-112.0740373",
    "elev_in_m": "331",
    "elev_in_ft": "1086",
    "lat": 33.4483771,
    "long": -112.0740373
  },
  {
    "globaleventid": 267498021,
    "sqldate": 20130913,
    "monthyear": 201309,
    "year": 2013,
    "fractiondate": "2013.6932",
    "eventcode": 190,
    "quadclass": 4,
    "nummentions": 2,
    "numsources": 1,
    "numarticles": 2,
    "avgtone": "0.0",
    "sourceurl": "http://cartersville.patch.com/groups/police-and-fire/p/bartow-mother-arrested-in-childs-death",
    "feature_id": "331382",
    "feature_name": "Cherokee",
    "state_alpha": "GA",
    "county_name": "Cherokee",
    "county_numeric": "057",
    "prim_lat_dec": "34.1681526",
    "prim_long_dec": "-84.570765",
    "elev_in_m": "268",
    "elev_in_ft": "879",
    "lat": 34.1681526,
    "long": -84.570765
  },
  {
    "globaleventid": 267498020,
    "sqldate": 20130913,
    "monthyear": 201309,
    "year": 2013,
    "fractiondate": "2013.6932",
    "eventcode": 190,
    "quadclass": 4,
    "nummentions": 2,
    "numsources": 1,
    "numarticles": 2,
    "avgtone": "0.0",
    "sourceurl": "http://cartersville.patch.com/groups/police-and-fire/p/bartow-mother-arrested-in-childs-death",
    "feature_id": "331382",
    "feature_name": "Cherokee",
    "state_alpha": "GA",
    "county_name": "Cherokee",
    "county_numeric": "057",
    "prim_lat_dec": "34.1681526",
    "prim_long_dec": "-84.570765",
    "elev_in_m": "268",
    "elev_in_ft": "879",
    "lat": 34.1681526,
    "long": -84.570765
  },
  {
    "globaleventid": 267498017,
    "sqldate": 20130913,
    "monthyear": 201309,
    "year": 2013,
    "fractiondate": "2013.6932",
    "eventcode": 190,
    "quadclass": 4,
    "nummentions": 3,
    "numsources": 1,
    "numarticles": 3,
    "avgtone": "1.66666666666667",
    "sourceurl": "http://www.presstv.ir/detail/2013/09/13/323732/argentineans-demand-release-of-cubans/",
    "feature_id": "295004",
    "feature_name": "Miami",
    "state_alpha": "FL",
    "county_name": "Miami-Dade",
    "county_numeric": "086",
    "prim_lat_dec": "25.7742658",
    "prim_long_dec": "-80.1936589",
    "elev_in_m": "2",
    "elev_in_ft": "7",
    "lat": 25.7742658,
    "long": -80.1936589
  },
  {
    "globaleventid": 267498015,
    "sqldate": 20130913,
    "monthyear": 201309,
    "year": 2013,
    "fractiondate": "2013.6932",
    "eventcode": 190,
    "quadclass": 4,
    "nummentions": 18,
    "numsources": 5,
    "numarticles": 18,
    "avgtone": "0.912705591010525",
    "sourceurl": "http://www.app.com/viewart/20130912/NJNEWS18/309120158/Bullied-12-year-old-Florida-girl-commits-suicide",
    "feature_id": "294459",
    "feature_name": "Lakeland",
    "state_alpha": "FL",
    "county_name": "Polk",
    "county_numeric": "105",
    "prim_lat_dec": "28.0394654",
    "prim_long_dec": "-81.9498042",
    "elev_in_m": "59",
    "elev_in_ft": "194",
    "lat": 28.0394654,
    "long": -81.9498042
  },
  {
    "globaleventid": 267498012,
    "sqldate": 20130913,
    "monthyear": 201309,
    "year": 2013,
    "fractiondate": "2013.6932",
    "eventcode": 190,
    "quadclass": 4,
    "nummentions": 10,
    "numsources": 1,
    "numarticles": 10,
    "avgtone": "0.884955752212389",
    "sourceurl": "http://www.nbcsandiego.com/news/local/Cold-Case-Arrest-2000-Murder-of-Teenager-Nghia-Tan-Pham-223684101.html",
    "feature_id": "1661377",
    "feature_name": "San Diego",
    "state_alpha": "CA",
    "county_name": "San Diego",
    "county_numeric": "073",
    "prim_lat_dec": "32.7153292",
    "prim_long_dec": "-117.1572551",
    "elev_in_m": "19",
    "elev_in_ft": "62",
    "lat": 32.7153292,
    "long": -117.1572551
  },
  {
    "globaleventid": 267498011,
    "sqldate": 20130913,
    "monthyear": 201309,
    "year": 2013,
    "fractiondate": "2013.6932",
    "eventcode": 190,
    "quadclass": 4,
    "nummentions": 2,
    "numsources": 1,
    "numarticles": 2,
    "avgtone": "0.415800415800416",
    "sourceurl": "http://www.sandiegoreader.com/weblogs/news-ticker/2013/sep/13/hotel-owners-behind-police-clashes-with-union-give/",
    "feature_id": "1661104",
    "feature_name": "Newport Beach",
    "state_alpha": "CA",
    "county_name": "Orange",
    "county_numeric": "059",
    "prim_lat_dec": "33.6189101",
    "prim_long_dec": "-117.9289469",
    "elev_in_m": "3",
    "elev_in_ft": "10",
    "lat": 33.6189101,
    "long": -117.9289469
  },
  {
    "globaleventid": 267498010,
    "sqldate": 20130913,
    "monthyear": 201309,
    "year": 2013,
    "fractiondate": "2013.6932",
    "eventcode": 190,
    "quadclass": 4,
    "nummentions": 2,
    "numsources": 1,
    "numarticles": 2,
    "avgtone": "0.415800415800416",
    "sourceurl": "http://www.sandiegoreader.com/weblogs/news-ticker/2013/sep/13/hotel-owners-behind-police-clashes-with-union-give/",
    "feature_id": "1661104",
    "feature_name": "Newport Beach",
    "state_alpha": "CA",
    "county_name": "Orange",
    "county_numeric": "059",
    "prim_lat_dec": "33.6189101",
    "prim_long_dec": "-117.9289469",
    "elev_in_m": "3",
    "elev_in_ft": "10",
    "lat": 33.6189101,
    "long": -117.9289469
  },
  {
    "globaleventid": 267498009,
    "sqldate": 20130913,
    "monthyear": 201309,
    "year": 2013,
    "fractiondate": "2013.6932",
    "eventcode": 190,
    "quadclass": 4,
    "nummentions": 4,
    "numsources": 1,
    "numarticles": 4,
    "avgtone": "0.0",
    "sourceurl": "http://www.contracostatimes.com/rss/ci_24092593",
    "feature_id": "1658037",
    "feature_name": "Berkeley",
    "state_alpha": "CA",
    "county_name": "Alameda",
    "county_numeric": "001",
    "prim_lat_dec": "37.8715926",
    "prim_long_dec": "-122.272747",
    "elev_in_m": "52",
    "elev_in_ft": "171",
    "lat": 37.8715926,
    "long": -122.272747
  },
  {
    "globaleventid": 267498008,
    "sqldate": 20130913,
    "monthyear": 201309,
    "year": 2013,
    "fractiondate": "2013.6932",
    "eventcode": 190,
    "quadclass": 4,
    "nummentions": 8,
    "numsources": 1,
    "numarticles": 8,
    "avgtone": "0.0",
    "sourceurl": "http://www.contracostatimes.com/rss/ci_24092593",
    "feature_id": "1658037",
    "feature_name": "Berkeley",
    "state_alpha": "CA",
    "county_name": "Alameda",
    "county_numeric": "001",
    "prim_lat_dec": "37.8715926",
    "prim_long_dec": "-122.272747",
    "elev_in_m": "52",
    "elev_in_ft": "171",
    "lat": 37.8715926,
    "long": -122.272747
  },
  {
    "globaleventid": 267498002,
    "sqldate": 20130913,
    "monthyear": 201309,
    "year": 2013,
    "fractiondate": "2013.6932",
    "eventcode": 190,
    "quadclass": 4,
    "nummentions": 20,
    "numsources": 2,
    "numarticles": 20,
    "avgtone": "1.20146992149283",
    "sourceurl": "http://www.sanantoniopost.com/index.php/sid/217058129/scat/f18f75b7970654da",
    "feature_id": "1380951",
    "feature_name": "San Antonio",
    "state_alpha": "TX",
    "county_name": "Bexar",
    "county_numeric": "029",
    "prim_lat_dec": "29.4241219",
    "prim_long_dec": "-98.4936282",
    "elev_in_m": "198",
    "elev_in_ft": "650",
    "lat": 29.4241219,
    "long": -98.4936282
  },
  {
    "globaleventid": 267498000,
    "sqldate": 20130913,
    "monthyear": 201309,
    "year": 2013,
    "fractiondate": "2013.6932",
    "eventcode": 190,
    "quadclass": 4,
    "nummentions": 4,
    "numsources": 1,
    "numarticles": 4,
    "avgtone": "1.55440414507772",
    "sourceurl": "http://www.kbtx.com/news/local/headlines/Bars-Beer-Distributors-Gear-Up-For-Record-Crowds-223684691.html",
    "feature_id": "1354786",
    "feature_name": "College Station",
    "state_alpha": "TX",
    "county_name": "Brazos",
    "county_numeric": "041",
    "prim_lat_dec": "30.627977",
    "prim_long_dec": "-96.3344068",
    "elev_in_m": "103",
    "elev_in_ft": "338",
    "lat": 30.627977,
    "long": -96.3344068
  },
  {
    "globaleventid": 267497999,
    "sqldate": 20130913,
    "monthyear": 201309,
    "year": 2013,
    "fractiondate": "2013.6932",
    "eventcode": 190,
    "quadclass": 4,
    "nummentions": 8,
    "numsources": 1,
    "numarticles": 8,
    "avgtone": "0.78740157480315",
    "sourceurl": "http://www.upi.com/Top_News/US/2013/09/13/Stray-bullet-hits-Head-Start-bus-in-Camden-NJ/UPI-70431379095977/?spt=hs&or=tn",
    "feature_id": "1209052",
    "feature_name": "Philadelphia",
    "state_alpha": "PA",
    "county_name": "Philadelphia",
    "county_numeric": "101",
    "prim_lat_dec": "39.952335",
    "prim_long_dec": "-75.163789",
    "elev_in_m": "14",
    "elev_in_ft": "46",
    "lat": 39.952335,
    "long": -75.163789
  },
  {
    "globaleventid": 267497998,
    "sqldate": 20130913,
    "monthyear": 201309,
    "year": 2013,
    "fractiondate": "2013.6932",
    "eventcode": 190,
    "quadclass": 4,
    "nummentions": 2,
    "numsources": 1,
    "numarticles": 2,
    "avgtone": "0.78740157480315",
    "sourceurl": "http://www.upi.com/Top_News/US/2013/09/13/Stray-bullet-hits-Head-Start-bus-in-Camden-NJ/UPI-70431379095977/?spt=hs&or=tn",
    "feature_id": "1209052",
    "feature_name": "Philadelphia",
    "state_alpha": "PA",
    "county_name": "Philadelphia",
    "county_numeric": "101",
    "prim_lat_dec": "39.952335",
    "prim_long_dec": "-75.163789",
    "elev_in_m": "14",
    "elev_in_ft": "46",
    "lat": 39.952335,
    "long": -75.163789
  },
  {
    "globaleventid": 267497997,
    "sqldate": 20130913,
    "monthyear": 201309,
    "year": 2013,
    "fractiondate": "2013.6932",
    "eventcode": 190,
    "quadclass": 4,
    "nummentions": 6,
    "numsources": 1,
    "numarticles": 4,
    "avgtone": "5.0561797752809",
    "sourceurl": "http://www.nbcphiladelphia.com/news/local/Slain-Officer-Honored-a-Year-After-His-Death-223676451.html",
    "feature_id": "1172367",
    "feature_name": "Conshohocken",
    "state_alpha": "PA",
    "county_name": "Montgomery",
    "county_numeric": "091",
    "prim_lat_dec": "40.0792766",
    "prim_long_dec": "-75.3015714",
    "elev_in_m": "63",
    "elev_in_ft": "207",
    "lat": 40.0792766,
    "long": -75.3015714
  },
  {
    "globaleventid": 267497992,
    "sqldate": 20130913,
    "monthyear": 201309,
    "year": 2013,
    "fractiondate": "2013.6932",
    "eventcode": 186,
    "quadclass": 4,
    "nummentions": 2,
    "numsources": 1,
    "numarticles": 2,
    "avgtone": "1.85676392572944",
    "sourceurl": "http://rockrivertimes.com/2013/09/13/seven-arrested-following-raid-of-fifth-avenue-apartment/",
    "feature_id": "655030",
    "feature_name": "Minneapolis",
    "state_alpha": "MN",
    "county_name": "Hennepin",
    "county_numeric": "053",
    "prim_lat_dec": "44.9799654",
    "prim_long_dec": "-93.2638361",
    "elev_in_m": "253",
    "elev_in_ft": "830",
    "lat": 44.9799654,
    "long": -93.2638361
  },
  {
    "globaleventid": 267497991,
    "sqldate": 20130913,
    "monthyear": 201309,
    "year": 2013,
    "fractiondate": "2013.6932",
    "eventcode": 186,
    "quadclass": 4,
    "nummentions": 1,
    "numsources": 1,
    "numarticles": 1,
    "avgtone": "0.647249190938511",
    "sourceurl": "http://5newsonline.com/2013/09/13/murder-trial-delayed-in-execution-style-killing/",
    "feature_id": "1040400",
    "feature_name": "Fayetteville",
    "state_alpha": "OH",
    "county_name": "Brown",
    "county_numeric": "015",
    "prim_lat_dec": "39.1867298",
    "prim_long_dec": "-83.9321521",
    "elev_in_m": "289",
    "elev_in_ft": "948",
    "lat": 39.1867298,
    "long": -83.9321521
  },
  {
    "globaleventid": 267497990,
    "sqldate": 20130913,
    "monthyear": 201309,
    "year": 2013,
    "fractiondate": "2013.6932",
    "eventcode": 186,
    "quadclass": 4,
    "nummentions": 1,
    "numsources": 1,
    "numarticles": 1,
    "avgtone": "0.647249190938511",
    "sourceurl": "http://5newsonline.com/2013/09/13/murder-trial-delayed-in-execution-style-killing/",
    "feature_id": "1080996",
    "feature_name": "Columbus",
    "state_alpha": "OH",
    "county_name": "Franklin",
    "county_numeric": "049",
    "prim_lat_dec": "39.9611755",
    "prim_long_dec": "-82.9987942",
    "elev_in_m": "238",
    "elev_in_ft": "781",
    "lat": 39.9611755,
    "long": -82.9987942
  },
  {
    "globaleventid": 267497989,
    "sqldate": 20130913,
    "monthyear": 201309,
    "year": 2013,
    "fractiondate": "2013.6932",
    "eventcode": 1822,
    "quadclass": 4,
    "nummentions": 2,
    "numsources": 1,
    "numarticles": 2,
    "avgtone": "0.952380952380952",
    "sourceurl": "http://www.chicagotribune.com/news/local/ct-met-toni-preckwinkle-cigarette-taxes-0913-20130913,0,3615753.story?track=rss",
    "feature_id": "423587",
    "feature_name": "Chicago",
    "state_alpha": "IL",
    "county_name": "Cook",
    "county_numeric": "031",
    "prim_lat_dec": "41.850033",
    "prim_long_dec": "-87.6500523",
    "elev_in_m": "179",
    "elev_in_ft": "587",
    "lat": 41.850033,
    "long": -87.6500523
  },
  {
    "globaleventid": 267497988,
    "sqldate": 20130913,
    "monthyear": 201309,
    "year": 2013,
    "fractiondate": "2013.6932",
    "eventcode": 1821,
    "quadclass": 4,
    "nummentions": 8,
    "numsources": 1,
    "numarticles": 8,
    "avgtone": "2.1505376344086",
    "sourceurl": "http://www.ny1.com/content/news/188729/reward-offered-as-police-search-for-brooklyn-rape-suspect",
    "feature_id": "944840",
    "feature_name": "Brooklyn",
    "state_alpha": "NY",
    "county_name": "Delaware",
    "county_numeric": "025",
    "prim_lat_dec": "42.3442482",
    "prim_long_dec": "-75.1704468",
    "elev_in_m": "366",
    "elev_in_ft": "1201",
    "lat": 42.3442482,
    "long": -75.1704468
  },
  {
    "globaleventid": 267497987,
    "sqldate": 20130913,
    "monthyear": 201309,
    "year": 2013,
    "fractiondate": "2013.6932",
    "eventcode": 1821,
    "quadclass": 4,
    "nummentions": 4,
    "numsources": 1,
    "numarticles": 4,
    "avgtone": "0.506585612968592",
    "sourceurl": "http://www.observer-reporter.com/article/20130913/NEWS03/130919728/-1/NEWS",
    "feature_id": "1629914",
    "feature_name": "Baton Rouge",
    "state_alpha": "LA",
    "county_name": "East Baton Rouge",
    "county_numeric": "033",
    "prim_lat_dec": "30.4507462",
    "prim_long_dec": "-91.154551",
    "elev_in_m": "14",
    "elev_in_ft": "46",
    "lat": 30.4507462,
    "long": -91.154551
  },
  {
    "globaleventid": 267497986,
    "sqldate": 20130913,
    "monthyear": 201309,
    "year": 2013,
    "fractiondate": "2013.6932",
    "eventcode": 1821,
    "quadclass": 4,
    "nummentions": 4,
    "numsources": 1,
    "numarticles": 4,
    "avgtone": "0.603318250377074",
    "sourceurl": "http://www.nbcdfw.com/news/local/Dallas-Police-Questioned-on-Serial-Rape-Investigation-223614781.html",
    "feature_id": "1380944",
    "feature_name": "Dallas",
    "state_alpha": "TX",
    "county_name": "Dallas",
    "county_numeric": "113",
    "prim_lat_dec": "32.7830556",
    "prim_long_dec": "-96.8066667",
    "elev_in_m": "128",
    "elev_in_ft": "420",
    "lat": 32.7830556,
    "long": -96.8066667
  },
  {
    "globaleventid": 267497982,
    "sqldate": 20130913,
    "monthyear": 201309,
    "year": 2013,
    "fractiondate": "2013.6932",
    "eventcode": 182,
    "quadclass": 4,
    "nummentions": 4,
    "numsources": 1,
    "numarticles": 4,
    "avgtone": "0.0",
    "sourceurl": "http://www.contracostatimes.com/rss/ci_24092593",
    "feature_id": "1659598",
    "feature_name": "Santa Rita",
    "state_alpha": "CA",
    "county_name": "Monterey",
    "county_numeric": "053",
    "prim_lat_dec": "36.7238477",
    "prim_long_dec": "-121.6560572",
    "elev_in_m": "24",
    "elev_in_ft": "79",
    "lat": 36.7238477,
    "long": -121.6560572
  },
  {
    "globaleventid": 267497981,
    "sqldate": 20130913,
    "monthyear": 201309,
    "year": 2013,
    "fractiondate": "2013.6932",
    "eventcode": 182,
    "quadclass": 4,
    "nummentions": 2,
    "numsources": 1,
    "numarticles": 2,
    "avgtone": "0.0",
    "sourceurl": "http://www.contracostatimes.com/rss/ci_24092593",
    "feature_id": "1658037",
    "feature_name": "Berkeley",
    "state_alpha": "CA",
    "county_name": "Alameda",
    "county_numeric": "001",
    "prim_lat_dec": "37.8715926",
    "prim_long_dec": "-122.272747",
    "elev_in_m": "52",
    "elev_in_ft": "171",
    "lat": 37.8715926,
    "long": -122.272747
  },
  {
    "globaleventid": 267497980,
    "sqldate": 20130913,
    "monthyear": 201309,
    "year": 2013,
    "fractiondate": "2013.6932",
    "eventcode": 182,
    "quadclass": 4,
    "nummentions": 6,
    "numsources": 1,
    "numarticles": 6,
    "avgtone": "0.0",
    "sourceurl": "http://www.contracostatimes.com/rss/ci_24092593",
    "feature_id": "1658037",
    "feature_name": "Berkeley",
    "state_alpha": "CA",
    "county_name": "Alameda",
    "county_numeric": "001",
    "prim_lat_dec": "37.8715926",
    "prim_long_dec": "-122.272747",
    "elev_in_m": "52",
    "elev_in_ft": "171",
    "lat": 37.8715926,
    "long": -122.272747
  },
  {
    "globaleventid": 267497976,
    "sqldate": 20130913,
    "monthyear": 201309,
    "year": 2013,
    "fractiondate": "2013.6932",
    "eventcode": 181,
    "quadclass": 4,
    "nummentions": 4,
    "numsources": 1,
    "numarticles": 2,
    "avgtone": "0.0",
    "sourceurl": "http://www.mysanantonio.com/news/crime/article/Wanted-Guatemalan-fugitive-found-living-in-NC-city-4809046.php",
    "feature_id": "1354329",
    "feature_name": "Charlotte",
    "state_alpha": "TX",
    "county_name": "Atascosa",
    "county_numeric": "013",
    "prim_lat_dec": "28.8619201",
    "prim_long_dec": "-98.7064121",
    "elev_in_m": "165",
    "elev_in_ft": "541",
    "lat": 28.8619201,
    "long": -98.7064121
  },
  {
    "globaleventid": 267497974,
    "sqldate": 20130913,
    "monthyear": 201309,
    "year": 2013,
    "fractiondate": "2013.6932",
    "eventcode": 181,
    "quadclass": 4,
    "nummentions": 8,
    "numsources": 3,
    "numarticles": 6,
    "avgtone": "0.0",
    "sourceurl": "http://www.ctpost.com/news/crime/article/Wanted-Guatemalan-fugitive-found-living-in-NC-city-4809046.php",
    "feature_id": "1019610",
    "feature_name": "Charlotte",
    "state_alpha": "NC",
    "county_name": "Mecklenburg",
    "county_numeric": "119",
    "prim_lat_dec": "35.2270869",
    "prim_long_dec": "-80.8431268",
    "elev_in_m": "232",
    "elev_in_ft": "761",
    "lat": 35.2270869,
    "long": -80.8431268
  },
  {
    "globaleventid": 267497971,
    "sqldate": 20130913,
    "monthyear": 201309,
    "year": 2013,
    "fractiondate": "2013.6932",
    "eventcode": 180,
    "quadclass": 4,
    "nummentions": 3,
    "numsources": 1,
    "numarticles": 3,
    "avgtone": "2.21238938053097",
    "sourceurl": "http://www.myfoxdc.com/story/23429840/suspects-believed-to-be-linked-to-dozens-of-armed-robberies-in-northern-virginia",
    "feature_id": "1477980",
    "feature_name": "Springfield",
    "state_alpha": "VA",
    "county_name": "York",
    "county_numeric": "199",
    "prim_lat_dec": "37.2707012",
    "prim_long_dec": "-76.634677",
    "elev_in_m": "14",
    "elev_in_ft": "46",
    "lat": 37.2707012,
    "long": -76.634677
  },
  {
    "globaleventid": 267497968,
    "sqldate": 20130913,
    "monthyear": 201309,
    "year": 2013,
    "fractiondate": "2013.6932",
    "eventcode": 180,
    "quadclass": 4,
    "nummentions": 1,
    "numsources": 1,
    "numarticles": 1,
    "avgtone": "0.0",
    "sourceurl": "http://www.stltoday.com/news/local/crime-and-courts/man-gets-probation-for-threatening-witness-in-warren-county-domestic/article_7e9779bc-c273-5862-9178-27595e80ff1c.html",
    "feature_id": "728363",
    "feature_name": "Warrenton",
    "state_alpha": "MO",
    "county_name": "Warren",
    "county_numeric": "219",
    "prim_lat_dec": "38.811436",
    "prim_long_dec": "-91.1415375",
    "elev_in_m": "270",
    "elev_in_ft": "886",
    "lat": 38.811436,
    "long": -91.1415375
  },
  {
    "globaleventid": 267497967,
    "sqldate": 20130913,
    "monthyear": 201309,
    "year": 2013,
    "fractiondate": "2013.6932",
    "eventcode": 180,
    "quadclass": 4,
    "nummentions": 2,
    "numsources": 1,
    "numarticles": 2,
    "avgtone": "0.0",
    "sourceurl": "http://www.stltoday.com/news/local/crime-and-courts/man-gets-probation-for-threatening-witness-in-warren-county-domestic/article_7e9779bc-c273-5862-9178-27595e80ff1c.html",
    "feature_id": "728363",
    "feature_name": "Warrenton",
    "state_alpha": "MO",
    "county_name": "Warren",
    "county_numeric": "219",
    "prim_lat_dec": "38.811436",
    "prim_long_dec": "-91.1415375",
    "elev_in_m": "270",
    "elev_in_ft": "886",
    "lat": 38.811436,
    "long": -91.1415375
  },
  {
    "globaleventid": 267497965,
    "sqldate": 20130913,
    "monthyear": 201309,
    "year": 2013,
    "fractiondate": "2013.6932",
    "eventcode": 180,
    "quadclass": 4,
    "nummentions": 4,
    "numsources": 1,
    "numarticles": 4,
    "avgtone": "0.0",
    "sourceurl": "http://www.stltoday.com/news/local/crime-and-courts/man-gets-probation-for-threatening-witness-in-warren-county-domestic/article_7e9779bc-c273-5862-9178-27595e80ff1c.html",
    "feature_id": "728363",
    "feature_name": "Warrenton",
    "state_alpha": "MO",
    "county_name": "Warren",
    "county_numeric": "219",
    "prim_lat_dec": "38.811436",
    "prim_long_dec": "-91.1415375",
    "elev_in_m": "270",
    "elev_in_ft": "886",
    "lat": 38.811436,
    "long": -91.1415375
  },
  {
    "globaleventid": 267497964,
    "sqldate": 20130913,
    "monthyear": 201309,
    "year": 2013,
    "fractiondate": "2013.6932",
    "eventcode": 180,
    "quadclass": 4,
    "nummentions": 8,
    "numsources": 1,
    "numarticles": 4,
    "avgtone": "0.0",
    "sourceurl": "http://www.metrowestdailynews.com/top_stories/x1803290736/Man-charged-in-Framingham-with-attacking-ex-wife-her-brother",
    "feature_id": "611641",
    "feature_name": "Framingham",
    "state_alpha": "MA",
    "county_name": "Middlesex",
    "county_numeric": "017",
    "prim_lat_dec": "42.2792625",
    "prim_long_dec": "-71.416172",
    "elev_in_m": "50",
    "elev_in_ft": "164",
    "lat": 42.2792625,
    "long": -71.416172
  },
  {
    "globaleventid": 267497960,
    "sqldate": 20130913,
    "monthyear": 201309,
    "year": 2013,
    "fractiondate": "2013.6932",
    "eventcode": 180,
    "quadclass": 4,
    "nummentions": 4,
    "numsources": 1,
    "numarticles": 4,
    "avgtone": "0.0",
    "sourceurl": "http://www.woi-tv.com/story/23424095/shooting-arrest-reported-in-north-iowa-standoff",
    "feature_id": "460754",
    "feature_name": "Rockwell City",
    "state_alpha": "IA",
    "county_name": "Calhoun",
    "county_numeric": "025",
    "prim_lat_dec": "42.3952576",
    "prim_long_dec": "-94.6338671",
    "elev_in_m": "376",
    "elev_in_ft": "1234",
    "lat": 42.3952576,
    "long": -94.6338671
  },
  {
    "globaleventid": 267497958,
    "sqldate": 20130913,
    "monthyear": 201309,
    "year": 2013,
    "fractiondate": "2013.6932",
    "eventcode": 180,
    "quadclass": 4,
    "nummentions": 3,
    "numsources": 1,
    "numarticles": 3,
    "avgtone": "0.649350649350649",
    "sourceurl": "http://m.centraljersey.com/articles/2013/09/13/south_brunswick_post/news/doc523241766a66f889621849.txt",
    "feature_id": "1989109",
    "feature_name": "Wildwood",
    "state_alpha": "TX",
    "county_name": "Hardin",
    "county_numeric": "199",
    "prim_lat_dec": "30.524095",
    "prim_long_dec": "-94.4415843",
    "elev_in_m": "36",
    "elev_in_ft": "118",
    "lat": 30.524095,
    "long": -94.4415843
  },
  {
    "globaleventid": 267497957,
    "sqldate": 20130913,
    "monthyear": 201309,
    "year": 2013,
    "fractiondate": "2013.6932",
    "eventcode": 180,
    "quadclass": 4,
    "nummentions": 6,
    "numsources": 1,
    "numarticles": 6,
    "avgtone": "0.50761421319797",
    "sourceurl": "http://www.koin.com/2013/09/13/police-woman-lied-about-beaverton-park-assault/",
    "feature_id": "1128254",
    "feature_name": "Tualatin",
    "state_alpha": "OR",
    "county_name": "Washington",
    "county_numeric": "067",
    "prim_lat_dec": "45.3840077",
    "prim_long_dec": "-122.7639851",
    "elev_in_m": "38",
    "elev_in_ft": "125",
    "lat": 45.3840077,
    "long": -122.7639851
  },
  {
    "globaleventid": 267497955,
    "sqldate": 20130913,
    "monthyear": 201309,
    "year": 2013,
    "fractiondate": "2013.6932",
    "eventcode": 180,
    "quadclass": 4,
    "nummentions": 3,
    "numsources": 1,
    "numarticles": 3,
    "avgtone": "0.649350649350649",
    "sourceurl": "http://m.centraljersey.com/articles/2013/09/13/south_brunswick_post/news/doc523241766a66f889621849.txt",
    "feature_id": "1989109",
    "feature_name": "Wildwood",
    "state_alpha": "TX",
    "county_name": "Hardin",
    "county_numeric": "199",
    "prim_lat_dec": "30.524095",
    "prim_long_dec": "-94.4415843",
    "elev_in_m": "36",
    "elev_in_ft": "118",
    "lat": 30.524095,
    "long": -94.4415843
  },
  {
    "globaleventid": 267497954,
    "sqldate": 20130913,
    "monthyear": 201309,
    "year": 2013,
    "fractiondate": "2013.6932",
    "eventcode": 180,
    "quadclass": 4,
    "nummentions": 2,
    "numsources": 1,
    "numarticles": 2,
    "avgtone": "0.649350649350649",
    "sourceurl": "http://m.centraljersey.com/articles/2013/09/13/south_brunswick_post/news/doc523241766a66f889621849.txt",
    "feature_id": "1989109",
    "feature_name": "Wildwood",
    "state_alpha": "TX",
    "county_name": "Hardin",
    "county_numeric": "199",
    "prim_lat_dec": "30.524095",
    "prim_long_dec": "-94.4415843",
    "elev_in_m": "36",
    "elev_in_ft": "118",
    "lat": 30.524095,
    "long": -94.4415843
  },
  {
    "globaleventid": 267497953,
    "sqldate": 20130913,
    "monthyear": 201309,
    "year": 2013,
    "fractiondate": "2013.6932",
    "eventcode": 180,
    "quadclass": 4,
    "nummentions": 4,
    "numsources": 1,
    "numarticles": 4,
    "avgtone": "0.649350649350649",
    "sourceurl": "http://m.centraljersey.com/articles/2013/09/13/south_brunswick_post/news/doc523241766a66f889621849.txt",
    "feature_id": "1381527",
    "feature_name": "Brunswick",
    "state_alpha": "TX",
    "county_name": "Cherokee",
    "county_numeric": "073",
    "prim_lat_dec": "31.5818446",
    "prim_long_dec": "-95.0618828",
    "elev_in_m": "104",
    "elev_in_ft": "341",
    "lat": 31.5818446,
    "long": -95.0618828
  },
  {
    "globaleventid": 267497952,
    "sqldate": 20130913,
    "monthyear": 201309,
    "year": 2013,
    "fractiondate": "2013.6932",
    "eventcode": 180,
    "quadclass": 4,
    "nummentions": 2,
    "numsources": 1,
    "numarticles": 2,
    "avgtone": "0.5",
    "sourceurl": "http://www.oklahomastar.com/index.php/sid/217052588/scat/84aeba5e9b6e1230",
    "feature_id": "1090512",
    "feature_name": "Broken Arrow",
    "state_alpha": "OK",
    "county_name": "Tulsa",
    "county_numeric": "143",
    "prim_lat_dec": "36.0525993",
    "prim_long_dec": "-95.7908195",
    "elev_in_m": "230",
    "elev_in_ft": "755",
    "lat": 36.0525993,
    "long": -95.7908195
  },
  {
    "globaleventid": 267497950,
    "sqldate": 20130913,
    "monthyear": 201309,
    "year": 2013,
    "fractiondate": "2013.6932",
    "eventcode": 173,
    "quadclass": 4,
    "nummentions": 4,
    "numsources": 1,
    "numarticles": 4,
    "avgtone": "1.6304347826087",
    "sourceurl": "http://www.manchesterjournal.com/ci_24084906/arrests-made-londonderry-crime-cases?source=most_viewed",
    "feature_id": "1459648",
    "feature_name": "Springfield",
    "state_alpha": "VT",
    "county_name": "Windsor",
    "county_numeric": "027",
    "prim_lat_dec": "43.2984078",
    "prim_long_dec": "-72.4823117",
    "elev_in_m": "122",
    "elev_in_ft": "400",
    "lat": 43.2984078,
    "long": -72.4823117
  },
  {
    "globaleventid": 267497940,
    "sqldate": 20130913,
    "monthyear": 201309,
    "year": 2013,
    "fractiondate": "2013.6932",
    "eventcode": 173,
    "quadclass": 4,
    "nummentions": 2,
    "numsources": 1,
    "numarticles": 2,
    "avgtone": "3.30188679245283",
    "sourceurl": "http://www.ctpost.com/news/crime/article/Police-car-keys-left-in-Ore-bank-lead-to-arrest-4813647.php",
    "feature_id": "1167861",
    "feature_name": "Salem",
    "state_alpha": "OR",
    "county_name": "Marion",
    "county_numeric": "047",
    "prim_lat_dec": "44.9428975",
    "prim_long_dec": "-123.0350963",
    "elev_in_m": "48",
    "elev_in_ft": "157",
    "lat": 44.9428975,
    "long": -123.0350963
  },
  {
    "globaleventid": 267497918,
    "sqldate": 20130913,
    "monthyear": 201309,
    "year": 2013,
    "fractiondate": "2013.6932",
    "eventcode": 173,
    "quadclass": 4,
    "nummentions": 2,
    "numsources": 1,
    "numarticles": 2,
    "avgtone": "0.77120822622108",
    "sourceurl": "http://www.salemleader.com/main.asp?SectionID=2&SubSectionID=20&ArticleID=7468",
    "feature_id": "449730",
    "feature_name": "Sellersburg",
    "state_alpha": "IN",
    "county_name": "Clark",
    "county_numeric": "019",
    "prim_lat_dec": "38.3981216",
    "prim_long_dec": "-85.754964",
    "elev_in_m": "148",
    "elev_in_ft": "486",
    "lat": 38.3981216,
    "long": -85.754964
  },
  {
    "globaleventid": 267497917,
    "sqldate": 20130913,
    "monthyear": 201309,
    "year": 2013,
    "fractiondate": "2013.6932",
    "eventcode": 173,
    "quadclass": 4,
    "nummentions": 2,
    "numsources": 1,
    "numarticles": 2,
    "avgtone": "0.77120822622108",
    "sourceurl": "http://www.salemleader.com/main.asp?SectionID=2&SubSectionID=20&ArticleID=7468",
    "feature_id": "449730",
    "feature_name": "Sellersburg",
    "state_alpha": "IN",
    "county_name": "Clark",
    "county_numeric": "019",
    "prim_lat_dec": "38.3981216",
    "prim_long_dec": "-85.754964",
    "elev_in_m": "148",
    "elev_in_ft": "486",
    "lat": 38.3981216,
    "long": -85.754964
  },
  {
    "globaleventid": 267497916,
    "sqldate": 20130913,
    "monthyear": 201309,
    "year": 2013,
    "fractiondate": "2013.6932",
    "eventcode": 173,
    "quadclass": 4,
    "nummentions": 1,
    "numsources": 1,
    "numarticles": 1,
    "avgtone": "0.77120822622108",
    "sourceurl": "http://www.salemleader.com/main.asp?SectionID=2&SubSectionID=20&ArticleID=7468",
    "feature_id": "442873",
    "feature_name": "Salem",
    "state_alpha": "IN",
    "county_name": "Union",
    "county_numeric": "161",
    "prim_lat_dec": "39.5964391",
    "prim_long_dec": "-84.8902362",
    "elev_in_m": "318",
    "elev_in_ft": "1043",
    "lat": 39.5964391,
    "long": -84.8902362
  },
  {
    "globaleventid": 313801243,
    "sqldate": 20130913,
    "monthyear": 201309,
    "year": 2013,
    "fractiondate": "2013.6932",
    "eventcode": 111,
    "quadclass": 3,
    "nummentions": 2,
    "numsources": 1,
    "numarticles": 2,
    "avgtone": "0.0",
    "sourceurl": "http://www.theeagle.com/news/nation/new-mexico-sheriff-accused-in-rd-traffic-stop/article_34846d7c-a66c-5712-b4e8-e9b72e1e950b.html",
    "feature_id": "899715",
    "feature_name": "Las Cruces",
    "state_alpha": "NM",
    "county_name": "Doña Ana",
    "county_numeric": "013",
    "prim_lat_dec": "32.3123157",
    "prim_long_dec": "-106.7783374",
    "elev_in_m": "1191",
    "elev_in_ft": "3907",
    "lat": 32.3123157,
    "long": -106.7783374
  },
  {
    "globaleventid": 313801242,
    "sqldate": 20130913,
    "monthyear": 201309,
    "year": 2013,
    "fractiondate": "2013.6932",
    "eventcode": 111,
    "quadclass": 3,
    "nummentions": 2,
    "numsources": 1,
    "numarticles": 2,
    "avgtone": "0.0",
    "sourceurl": "http://www.theeagle.com/news/nation/new-mexico-sheriff-accused-in-rd-traffic-stop/article_34846d7c-a66c-5712-b4e8-e9b72e1e950b.html",
    "feature_id": "899715",
    "feature_name": "Las Cruces",
    "state_alpha": "NM",
    "county_name": "Doña Ana",
    "county_numeric": "013",
    "prim_lat_dec": "32.3123157",
    "prim_long_dec": "-106.7783374",
    "elev_in_m": "1191",
    "elev_in_ft": "3907",
    "lat": 32.3123157,
    "long": -106.7783374
  },
  {
    "globaleventid": 313801221,
    "sqldate": 20130913,
    "monthyear": 201309,
    "year": 2013,
    "fractiondate": "2013.6932",
    "eventcode": 190,
    "quadclass": 4,
    "nummentions": 2,
    "numsources": 1,
    "numarticles": 2,
    "avgtone": "3.10800310800311",
    "sourceurl": "http://www.progressive.org/news/2014/09/187858/scott-walker%E2%80%99s-favorite-judge-rescues-voter-id",
    "feature_id": "1577901",
    "feature_name": "Milwaukee",
    "state_alpha": "WI",
    "county_name": "Milwaukee",
    "county_numeric": "079",
    "prim_lat_dec": "43.0389025",
    "prim_long_dec": "-87.9064736",
    "elev_in_m": "187",
    "elev_in_ft": "614",
    "lat": 43.0389025,
    "long": -87.9064736
  },
  {
    "globaleventid": 313801220,
    "sqldate": 20130913,
    "monthyear": 201309,
    "year": 2013,
    "fractiondate": "2013.6932",
    "eventcode": 190,
    "quadclass": 4,
    "nummentions": 6,
    "numsources": 1,
    "numarticles": 6,
    "avgtone": "3.10800310800311",
    "sourceurl": "http://www.progressive.org/news/2014/09/187858/scott-walker%E2%80%99s-favorite-judge-rescues-voter-id",
    "feature_id": "1577901",
    "feature_name": "Milwaukee",
    "state_alpha": "WI",
    "county_name": "Milwaukee",
    "county_numeric": "079",
    "prim_lat_dec": "43.0389025",
    "prim_long_dec": "-87.9064736",
    "elev_in_m": "187",
    "elev_in_ft": "614",
    "lat": 43.0389025,
    "long": -87.9064736
  },
  {
    "globaleventid": 313800881,
    "sqldate": 20130913,
    "monthyear": 201309,
    "year": 2013,
    "fractiondate": "2013.6932",
    "eventcode": 141,
    "quadclass": 3,
    "nummentions": 14,
    "numsources": 9,
    "numarticles": 14,
    "avgtone": "3.01704798968833",
    "sourceurl": "http://www.deseretnews.com/article/765659627/Egypt-seeks-broader-alliance-with-US-over-Libya.html",
    "feature_id": "531871",
    "feature_name": "Washington",
    "state_alpha": "DC",
    "county_name": "District of Columbia",
    "county_numeric": "001",
    "prim_lat_dec": "38.8951118",
    "prim_long_dec": "-77.0363658",
    "elev_in_m": "7",
    "elev_in_ft": "23",
    "lat": 38.8951118,
    "long": -77.0363658
  },
  {
    "globaleventid": 313800869,
    "sqldate": 20130913,
    "monthyear": 201309,
    "year": 2013,
    "fractiondate": "2013.6932",
    "eventcode": 141,
    "quadclass": 3,
    "nummentions": 37,
    "numsources": 9,
    "numarticles": 37,
    "avgtone": "3.05147339817806",
    "sourceurl": "http://www.waow.com/story/26523950/kerry-seeks-egypt-aid-in-battle-against-extremists",
    "feature_id": "531871",
    "feature_name": "Washington",
    "state_alpha": "DC",
    "county_name": "District of Columbia",
    "county_numeric": "001",
    "prim_lat_dec": "38.8951118",
    "prim_long_dec": "-77.0363658",
    "elev_in_m": "7",
    "elev_in_ft": "23",
    "lat": 38.8951118,
    "long": -77.0363658
  },
  {
    "globaleventid": 313800518,
    "sqldate": 20130913,
    "monthyear": 201309,
    "year": 2013,
    "fractiondate": "2013.6932",
    "eventcode": 173,
    "quadclass": 4,
    "nummentions": 6,
    "numsources": 1,
    "numarticles": 6,
    "avgtone": "0.0",
    "sourceurl": "http://www.reporternews.com/news/state/teen-sentenced-to-20-years-for-fatal-stabbing",
    "feature_id": "1380948",
    "feature_name": "Houston",
    "state_alpha": "TX",
    "county_name": "Harris",
    "county_numeric": "201",
    "prim_lat_dec": "29.7632836",
    "prim_long_dec": "-95.3632715",
    "elev_in_m": "11",
    "elev_in_ft": "36",
    "lat": 29.7632836,
    "long": -95.3632715
  },
  {
    "globaleventid": 313800446,
    "sqldate": 20130913,
    "monthyear": 201309,
    "year": 2013,
    "fractiondate": "2013.6932",
    "eventcode": 173,
    "quadclass": 4,
    "nummentions": 24,
    "numsources": 4,
    "numarticles": 24,
    "avgtone": "0.0",
    "sourceurl": "http://www.kltv.com/story/26524490/ex-con-gets-70-year-sentence-for-rape-robbery",
    "feature_id": "1373985",
    "feature_name": "Haltom City",
    "state_alpha": "TX",
    "county_name": "Tarrant",
    "county_numeric": "439",
    "prim_lat_dec": "32.7995738",
    "prim_long_dec": "-97.2691817",
    "elev_in_m": "163",
    "elev_in_ft": "535",
    "lat": 32.7995738,
    "long": -97.2691817
  },
  {
    "globaleventid": 267497909,
    "sqldate": 20130913,
    "monthyear": 201309,
    "year": 2013,
    "fractiondate": "2013.6932",
    "eventcode": 173,
    "quadclass": 4,
    "nummentions": 2,
    "numsources": 1,
    "numarticles": 2,
    "avgtone": "3.14285714285714",
    "sourceurl": "http://www.cnycentral.com/news/story.aspx?id=946411",
    "feature_id": "287692",
    "feature_name": "New Smyrna Beach",
    "state_alpha": "FL",
    "county_name": "Volusia",
    "county_numeric": "127",
    "prim_lat_dec": "29.0258191",
    "prim_long_dec": "-80.9269984",
    "elev_in_m": "2",
    "elev_in_ft": "7",
    "lat": 29.0258191,
    "long": -80.9269984
  },
  {
    "globaleventid": 267497900,
    "sqldate": 20130913,
    "monthyear": 201309,
    "year": 2013,
    "fractiondate": "2013.6932",
    "eventcode": 173,
    "quadclass": 4,
    "nummentions": 8,
    "numsources": 1,
    "numarticles": 8,
    "avgtone": "2.1505376344086",
    "sourceurl": "http://www.ny1.com/content/news/188729/reward-offered-as-police-search-for-brooklyn-rape-suspect",
    "feature_id": "971314",
    "feature_name": "Williamsburg",
    "state_alpha": "NY",
    "county_name": "Kings",
    "county_numeric": "047",
    "prim_lat_dec": "40.7142692",
    "prim_long_dec": "-73.9534714",
    "elev_in_m": "4",
    "elev_in_ft": "13",
    "lat": 40.7142692,
    "long": -73.9534714
  },
  {
    "globaleventid": 267497899,
    "sqldate": 20130913,
    "monthyear": 201309,
    "year": 2013,
    "fractiondate": "2013.6932",
    "eventcode": 173,
    "quadclass": 4,
    "nummentions": 10,
    "numsources": 1,
    "numarticles": 10,
    "avgtone": "0.515463917525773",
    "sourceurl": "http://www.newyorkstatesman.com/index.php/sid/217040338/scat/e8d88d4b9a8be96b",
    "feature_id": "966966",
    "feature_name": "Syracuse",
    "state_alpha": "NY",
    "county_name": "Onondaga",
    "county_numeric": "067",
    "prim_lat_dec": "43.0481221",
    "prim_long_dec": "-76.1474244",
    "elev_in_m": "121",
    "elev_in_ft": "397",
    "lat": 43.0481221,
    "long": -76.1474244
  },
  {
    "globaleventid": 267497895,
    "sqldate": 20130913,
    "monthyear": 201309,
    "year": 2013,
    "fractiondate": "2013.6932",
    "eventcode": 173,
    "quadclass": 4,
    "nummentions": 8,
    "numsources": 1,
    "numarticles": 8,
    "avgtone": "0.0",
    "sourceurl": "http://timesleader.com/news/local-news/826817/Prosecutor:-3-being-probed-in-Sherman-Hills-shooting",
    "feature_id": "944840",
    "feature_name": "Brooklyn",
    "state_alpha": "NY",
    "county_name": "Delaware",
    "county_numeric": "025",
    "prim_lat_dec": "42.3442482",
    "prim_long_dec": "-75.1704468",
    "elev_in_m": "366",
    "elev_in_ft": "1201",
    "lat": 42.3442482,
    "long": -75.1704468
  },
  {
    "globaleventid": 267497894,
    "sqldate": 20130913,
    "monthyear": 201309,
    "year": 2013,
    "fractiondate": "2013.6932",
    "eventcode": 173,
    "quadclass": 4,
    "nummentions": 2,
    "numsources": 1,
    "numarticles": 2,
    "avgtone": "1.74081237911025",
    "sourceurl": "http://www.pressofatlanticcity.com/news/breaking/catching-up-killer-paroled-lawsuit-settled-in-fatal-crash/article_cd43d094-8fee-507d-a4ff-b30deabb58fd.html",
    "feature_id": "880447",
    "feature_name": "Sea Isle City",
    "state_alpha": "NJ",
    "county_name": "Cape May",
    "county_numeric": "009",
    "prim_lat_dec": "39.1534477",
    "prim_long_dec": "-74.6929387",
    "elev_in_m": "2",
    "elev_in_ft": "7",
    "lat": 39.1534477,
    "long": -74.6929387
  },
  {
    "globaleventid": 267497891,
    "sqldate": 20130913,
    "monthyear": 201309,
    "year": 2013,
    "fractiondate": "2013.6932",
    "eventcode": 173,
    "quadclass": 4,
    "nummentions": 10,
    "numsources": 1,
    "numarticles": 10,
    "avgtone": "1.02564102564103",
    "sourceurl": "http://www.ktnv.com/news/local/Police-looking-for-accused-child-pornographer-after-failure-to-appear-223699441.html",
    "feature_id": "847388",
    "feature_name": "Las Vegas",
    "state_alpha": "NV",
    "county_name": "Clark",
    "county_numeric": "003",
    "prim_lat_dec": "36.1749705",
    "prim_long_dec": "-115.137223",
    "elev_in_m": "610",
    "elev_in_ft": "2001",
    "lat": 36.1749705,
    "long": -115.137223
  },
  {
    "globaleventid": 267497890,
    "sqldate": 20130913,
    "monthyear": 201309,
    "year": 2013,
    "fractiondate": "2013.6932",
    "eventcode": 173,
    "quadclass": 4,
    "nummentions": 2,
    "numsources": 1,
    "numarticles": 2,
    "avgtone": "0.0",
    "sourceurl": "http://www.kait8.com/story/23420524/accused-bank-robber-admits-to-six-other-jonesboro-armed-robberies",
    "feature_id": "77389",
    "feature_name": "Jonesboro",
    "state_alpha": "AR",
    "county_name": "Craighead",
    "county_numeric": "031",
    "prim_lat_dec": "35.8422967",
    "prim_long_dec": "-90.7042791",
    "elev_in_m": "99",
    "elev_in_ft": "325",
    "lat": 35.8422967,
    "long": -90.7042791
  },
  {
    "globaleventid": 267497889,
    "sqldate": 20130913,
    "monthyear": 201309,
    "year": 2013,
    "fractiondate": "2013.6932",
    "eventcode": 173,
    "quadclass": 4,
    "nummentions": 4,
    "numsources": 1,
    "numarticles": 4,
    "avgtone": "0.0",
    "sourceurl": "http://www.heartlandconnection.com/news/story.aspx?id=946599",
    "feature_id": "736357",
    "feature_name": "Unionville",
    "state_alpha": "MO",
    "county_name": "Putnam",
    "county_numeric": "171",
    "prim_lat_dec": "40.4769606",
    "prim_long_dec": "-93.0032615",
    "elev_in_m": "324",
    "elev_in_ft": "1063",
    "lat": 40.4769606,
    "long": -93.0032615
  },
  {
    "globaleventid": 267497883,
    "sqldate": 20130913,
    "monthyear": 201309,
    "year": 2013,
    "fractiondate": "2013.6932",
    "eventcode": 173,
    "quadclass": 4,
    "nummentions": 3,
    "numsources": 1,
    "numarticles": 3,
    "avgtone": "0.277008310249307",
    "sourceurl": "http://www.albertleatribune.com/2013/09/13/2-predatory-offenders-sentenced/",
    "feature_id": "639247",
    "feature_name": "Albert Lea",
    "state_alpha": "MN",
    "county_name": "Freeborn",
    "county_numeric": "047",
    "prim_lat_dec": "43.6480127",
    "prim_long_dec": "-93.3682656",
    "elev_in_m": "380",
    "elev_in_ft": "1247",
    "lat": 43.6480127,
    "long": -93.3682656
  },
  {
    "globaleventid": 267497882,
    "sqldate": 20130913,
    "monthyear": 201309,
    "year": 2013,
    "fractiondate": "2013.6932",
    "eventcode": 173,
    "quadclass": 4,
    "nummentions": 2,
    "numsources": 1,
    "numarticles": 2,
    "avgtone": "3.03030303030303",
    "sourceurl": "http://www.nola.com/crime/index.ssf/2013/09/slidell_police_arrest_report_s.html",
    "feature_id": "679394",
    "feature_name": "Waveland",
    "state_alpha": "MS",
    "county_name": "Hancock",
    "county_numeric": "045",
    "prim_lat_dec": "30.2868632",
    "prim_long_dec": "-89.3761587",
    "elev_in_m": "5",
    "elev_in_ft": "16",
    "lat": 30.2868632,
    "long": -89.3761587
  },
  {
    "globaleventid": 267497881,
    "sqldate": 20130913,
    "monthyear": 201309,
    "year": 2013,
    "fractiondate": "2013.6932",
    "eventcode": 173,
    "quadclass": 4,
    "nummentions": 10,
    "numsources": 1,
    "numarticles": 10,
    "avgtone": "0.533807829181495",
    "sourceurl": "http://edition.cnn.com/2013/09/13/justice/whitey-bulger-legal-bills/",
    "feature_id": "617565",
    "feature_name": "Boston",
    "state_alpha": "MA",
    "county_name": "Suffolk",
    "county_numeric": "025",
    "prim_lat_dec": "42.3584308",
    "prim_long_dec": "-71.0597732",
    "elev_in_m": "14",
    "elev_in_ft": "46",
    "lat": 42.3584308,
    "long": -71.0597732
  },
  {
    "globaleventid": 267497880,
    "sqldate": 20130913,
    "monthyear": 201309,
    "year": 2013,
    "fractiondate": "2013.6932",
    "eventcode": 173,
    "quadclass": 4,
    "nummentions": 4,
    "numsources": 1,
    "numarticles": 4,
    "avgtone": "1.8796992481203",
    "sourceurl": "http://bostonherald.com/news_opinion/local_coverage/2013/09/man_charged_with_sex_trafficking_in_case_of_medfield_teen?utm_source=feedburner&utm_medium=feed&utm_campaign=Feed%3A+bostonherald%2Fnews%2Fregional+%28Local+%2F+Regional+-+News+%26+Opinion+-+Bost",
    "feature_id": "611950",
    "feature_name": "Medfield",
    "state_alpha": "MA",
    "county_name": "Norfolk",
    "county_numeric": "021",
    "prim_lat_dec": "42.1875979",
    "prim_long_dec": "-71.3064454",
    "elev_in_m": "57",
    "elev_in_ft": "187",
    "lat": 42.1875979,
    "long": -71.3064454
  },
  {
    "globaleventid": 267497879,
    "sqldate": 20130913,
    "monthyear": 201309,
    "year": 2013,
    "fractiondate": "2013.6932",
    "eventcode": 173,
    "quadclass": 4,
    "nummentions": 4,
    "numsources": 1,
    "numarticles": 4,
    "avgtone": "1.8796992481203",
    "sourceurl": "http://bostonherald.com/news_opinion/local_coverage/2013/09/man_charged_with_sex_trafficking_in_case_of_medfield_teen?utm_source=feedburner&utm_medium=feed&utm_campaign=Feed%3A+bostonherald%2Fnews%2Fregional+%28Local+%2F+Regional+-+News+%26+Opinion+-+Bost",
    "feature_id": "611950",
    "feature_name": "Medfield",
    "state_alpha": "MA",
    "county_name": "Norfolk",
    "county_numeric": "021",
    "prim_lat_dec": "42.1875979",
    "prim_long_dec": "-71.3064454",
    "elev_in_m": "57",
    "elev_in_ft": "187",
    "lat": 42.1875979,
    "long": -71.3064454
  },
  {
    "globaleventid": 267497878,
    "sqldate": 20130913,
    "monthyear": 201309,
    "year": 2013,
    "fractiondate": "2013.6932",
    "eventcode": 173,
    "quadclass": 4,
    "nummentions": 32,
    "numsources": 2,
    "numarticles": 16,
    "avgtone": "0.136518834939876",
    "sourceurl": "http://www.metrowestdailynews.com/news/x1803290900/Framingham-man-facing-steroid-identity-theft-charges",
    "feature_id": "611641",
    "feature_name": "Framingham",
    "state_alpha": "MA",
    "county_name": "Middlesex",
    "county_numeric": "017",
    "prim_lat_dec": "42.2792625",
    "prim_long_dec": "-71.416172",
    "elev_in_m": "50",
    "elev_in_ft": "164",
    "lat": 42.2792625,
    "long": -71.416172
  },
  {
    "globaleventid": 267497877,
    "sqldate": 20130913,
    "monthyear": 201309,
    "year": 2013,
    "fractiondate": "2013.6932",
    "eventcode": 173,
    "quadclass": 4,
    "nummentions": 10,
    "numsources": 1,
    "numarticles": 10,
    "avgtone": "0.401606425702811",
    "sourceurl": "http://www.nbcconnecticut.com/news/local/Suspect-in-3-Armed-Robberies-Arrested-in-East-Windsor-223604751.html",
    "feature_id": "607887",
    "feature_name": "East Windsor",
    "state_alpha": "MA",
    "county_name": "Berkshire",
    "county_numeric": "003",
    "prim_lat_dec": "42.4778637",
    "prim_long_dec": "-72.9856541",
    "elev_in_m": "421",
    "elev_in_ft": "1381",
    "lat": 42.4778637,
    "long": -72.9856541
  },
  {
    "globaleventid": 267497876,
    "sqldate": 20130913,
    "monthyear": 201309,
    "year": 2013,
    "fractiondate": "2013.6932",
    "eventcode": 173,
    "quadclass": 4,
    "nummentions": 2,
    "numsources": 1,
    "numarticles": 2,
    "avgtone": "1.62337662337662",
    "sourceurl": "http://bangordailynews.com/2013/09/13/news/midcoast/police-report-offers-more-details-on-thomaston-drug-arrests/",
    "feature_id": "562119",
    "feature_name": "Biddeford",
    "state_alpha": "ME",
    "county_name": "York",
    "county_numeric": "031",
    "prim_lat_dec": "43.4925843",
    "prim_long_dec": "-70.4533844",
    "elev_in_m": "21",
    "elev_in_ft": "69",
    "lat": 43.4925843,
    "long": -70.4533844
  },
  {
    "globaleventid": 267497875,
    "sqldate": 20130913,
    "monthyear": 201309,
    "year": 2013,
    "fractiondate": "2013.6932",
    "eventcode": 173,
    "quadclass": 4,
    "nummentions": 4,
    "numsources": 1,
    "numarticles": 4,
    "avgtone": "1.21951219512195",
    "sourceurl": "http://kfor.com/2013/09/13/arkansas-man-recovering-after-being-robbed-stabbed-during-okc-layover/",
    "feature_id": "54764",
    "feature_name": "Sheridan",
    "state_alpha": "AR",
    "county_name": "Grant",
    "county_numeric": "053",
    "prim_lat_dec": "34.3070406",
    "prim_long_dec": "-92.4012654",
    "elev_in_m": "84",
    "elev_in_ft": "276",
    "lat": 34.3070406,
    "long": -92.4012654
  },
  {
    "globaleventid": 267497874,
    "sqldate": 20130913,
    "monthyear": 201309,
    "year": 2013,
    "fractiondate": "2013.6932",
    "eventcode": 173,
    "quadclass": 4,
    "nummentions": 27,
    "numsources": 18,
    "numarticles": 27,
    "avgtone": "0.677888532945682",
    "sourceurl": "http://www.times-standard.com/nationandworldnews/ci_24082542/wash-teens-plead-not-guilty-vet-beating-death",
    "feature_id": "531871",
    "feature_name": "Washington",
    "state_alpha": "DC",
    "county_name": "District of Columbia",
    "county_numeric": "001",
    "prim_lat_dec": "38.8951118",
    "prim_long_dec": "-77.0363658",
    "elev_in_m": "7",
    "elev_in_ft": "23",
    "lat": 38.8951118,
    "long": -77.0363658
  },
  {
    "globaleventid": 267497872,
    "sqldate": 20130913,
    "monthyear": 201309,
    "year": 2013,
    "fractiondate": "2013.6932",
    "eventcode": 173,
    "quadclass": 4,
    "nummentions": 8,
    "numsources": 1,
    "numarticles": 8,
    "avgtone": "0.0",
    "sourceurl": "http://www.whas11.com/news/local/Police-Second-arrest-made-relating-to-the-death-of-Indiana-child-223648751.html",
    "feature_id": "502766",
    "feature_name": "Salem",
    "state_alpha": "KY",
    "county_name": "Livingston",
    "county_numeric": "139",
    "prim_lat_dec": "37.2644981",
    "prim_long_dec": "-88.2441968",
    "elev_in_m": "135",
    "elev_in_ft": "443",
    "lat": 37.2644981,
    "long": -88.2441968
  },
  {
    "globaleventid": 267497870,
    "sqldate": 20130913,
    "monthyear": 201309,
    "year": 2013,
    "fractiondate": "2013.6932",
    "eventcode": 173,
    "quadclass": 4,
    "nummentions": 8,
    "numsources": 4,
    "numarticles": 8,
    "avgtone": "0.643685294692425",
    "sourceurl": "http://www.tribtown.com/view/story/97be611c55b244c6adf97b50aad03e4d/IN--South-Bend-Stabbing-Sentence",
    "feature_id": "452796",
    "feature_name": "South Bend",
    "state_alpha": "IN",
    "county_name": "St. Joseph",
    "county_numeric": "141",
    "prim_lat_dec": "41.6833813",
    "prim_long_dec": "-86.2500066",
    "elev_in_m": "211",
    "elev_in_ft": "692",
    "lat": 41.6833813,
    "long": -86.2500066
  },
  {
    "globaleventid": 267497869,
    "sqldate": 20130913,
    "monthyear": 201309,
    "year": 2013,
    "fractiondate": "2013.6932",
    "eventcode": 173,
    "quadclass": 4,
    "nummentions": 32,
    "numsources": 4,
    "numarticles": 32,
    "avgtone": "0.643685294692425",
    "sourceurl": "http://www.tribtown.com/view/story/97be611c55b244c6adf97b50aad03e4d/IN--South-Bend-Stabbing-Sentence",
    "feature_id": "452796",
    "feature_name": "South Bend",
    "state_alpha": "IN",
    "county_name": "St. Joseph",
    "county_numeric": "141",
    "prim_lat_dec": "41.6833813",
    "prim_long_dec": "-86.2500066",
    "elev_in_m": "211",
    "elev_in_ft": "692",
    "lat": 41.6833813,
    "long": -86.2500066
  },
  {
    "globaleventid": 267497868,
    "sqldate": 20130913,
    "monthyear": 201309,
    "year": 2013,
    "fractiondate": "2013.6932",
    "eventcode": 173,
    "quadclass": 4,
    "nummentions": 8,
    "numsources": 1,
    "numarticles": 8,
    "avgtone": "1.00586756077117",
    "sourceurl": "http://www.thenewsdispatch.com/articles/2013/09/13/news/local/doc521827214e50d156409246.txt",
    "feature_id": "450449",
    "feature_name": "LaPorte",
    "state_alpha": "IN",
    "county_name": "LaPorte",
    "county_numeric": "091",
    "prim_lat_dec": "41.6105983",
    "prim_long_dec": "-86.7225227",
    "elev_in_m": "247",
    "elev_in_ft": "810",
    "lat": 41.6105983,
    "long": -86.7225227
  },
  {
    "globaleventid": 267497867,
    "sqldate": 20130913,
    "monthyear": 201309,
    "year": 2013,
    "fractiondate": "2013.6932",
    "eventcode": 173,
    "quadclass": 4,
    "nummentions": 2,
    "numsources": 1,
    "numarticles": 2,
    "avgtone": "0.77120822622108",
    "sourceurl": "http://www.salemleader.com/main.asp?SectionID=2&SubSectionID=20&ArticleID=7468",
    "feature_id": "449730",
    "feature_name": "Sellersburg",
    "state_alpha": "IN",
    "county_name": "Clark",
    "county_numeric": "019",
    "prim_lat_dec": "38.3981216",
    "prim_long_dec": "-85.754964",
    "elev_in_m": "148",
    "elev_in_ft": "486",
    "lat": 38.3981216,
    "long": -85.754964
  },
  {
    "globaleventid": 267497866,
    "sqldate": 20130913,
    "monthyear": 201309,
    "year": 2013,
    "fractiondate": "2013.6932",
    "eventcode": 173,
    "quadclass": 4,
    "nummentions": 10,
    "numsources": 1,
    "numarticles": 10,
    "avgtone": "0.434782608695652",
    "sourceurl": "http://www.timesnews.net/article/9067344/argument-on-gate-city-street-leads-to-drug-arrest",
    "feature_id": "44784",
    "feature_name": "Phoenix",
    "state_alpha": "AZ",
    "county_name": "Maricopa",
    "county_numeric": "013",
    "prim_lat_dec": "33.4483771",
    "prim_long_dec": "-112.0740373",
    "elev_in_m": "331",
    "elev_in_ft": "1086",
    "lat": 33.4483771,
    "long": -112.0740373
  },
  {
    "globaleventid": 267497865,
    "sqldate": 20130913,
    "monthyear": 201309,
    "year": 2013,
    "fractiondate": "2013.6932",
    "eventcode": 173,
    "quadclass": 4,
    "nummentions": 2,
    "numsources": 1,
    "numarticles": 2,
    "avgtone": "0.77120822622108",
    "sourceurl": "http://www.salemleader.com/main.asp?SectionID=2&SubSectionID=20&ArticleID=7468",
    "feature_id": "446707",
    "feature_name": "Ridgeview",
    "state_alpha": "IN",
    "county_name": "Miami",
    "county_numeric": "103",
    "prim_lat_dec": "40.7614306",
    "prim_long_dec": "-86.0755481",
    "elev_in_m": "206",
    "elev_in_ft": "676",
    "lat": 40.7614306,
    "long": -86.0755481
  },
  {
    "globaleventid": 267497864,
    "sqldate": 20130913,
    "monthyear": 201309,
    "year": 2013,
    "fractiondate": "2013.6932",
    "eventcode": 173,
    "quadclass": 4,
    "nummentions": 1,
    "numsources": 1,
    "numarticles": 1,
    "avgtone": "0.77120822622108",
    "sourceurl": "http://www.salemleader.com/main.asp?SectionID=2&SubSectionID=20&ArticleID=7468",
    "feature_id": "446707",
    "feature_name": "Ridgeview",
    "state_alpha": "IN",
    "county_name": "Miami",
    "county_numeric": "103",
    "prim_lat_dec": "40.7614306",
    "prim_long_dec": "-86.0755481",
    "elev_in_m": "206",
    "elev_in_ft": "676",
    "lat": 40.7614306,
    "long": -86.0755481
  },
  {
    "globaleventid": 267497863,
    "sqldate": 20130913,
    "monthyear": 201309,
    "year": 2013,
    "fractiondate": "2013.6932",
    "eventcode": 173,
    "quadclass": 4,
    "nummentions": 1,
    "numsources": 1,
    "numarticles": 1,
    "avgtone": "0.77120822622108",
    "sourceurl": "http://www.salemleader.com/main.asp?SectionID=2&SubSectionID=20&ArticleID=7468",
    "feature_id": "442873",
    "feature_name": "Salem",
    "state_alpha": "IN",
    "county_name": "Union",
    "county_numeric": "161",
    "prim_lat_dec": "39.5964391",
    "prim_long_dec": "-84.8902362",
    "elev_in_m": "318",
    "elev_in_ft": "1043",
    "lat": 39.5964391,
    "long": -84.8902362
  },
  {
    "globaleventid": 267497861,
    "sqldate": 20130913,
    "monthyear": 201309,
    "year": 2013,
    "fractiondate": "2013.6932",
    "eventcode": 173,
    "quadclass": 4,
    "nummentions": 10,
    "numsources": 1,
    "numarticles": 10,
    "avgtone": "0.833333333333333",
    "sourceurl": "http://www.saukvalley.com/2013/09/13/deputy-man-booked-on-dui-charge-found-with-meth/apdvndx/",
    "feature_id": "426434",
    "feature_name": "Millstadt",
    "state_alpha": "IL",
    "county_name": "St. Clair",
    "county_numeric": "163",
    "prim_lat_dec": "38.4614404",
    "prim_long_dec": "-90.0917755",
    "elev_in_m": "188",
    "elev_in_ft": "617",
    "lat": 38.4614404,
    "long": -90.0917755
  },
  {
    "globaleventid": 267497860,
    "sqldate": 20130913,
    "monthyear": 201309,
    "year": 2013,
    "fractiondate": "2013.6932",
    "eventcode": 173,
    "quadclass": 4,
    "nummentions": 52,
    "numsources": 5,
    "numarticles": 52,
    "avgtone": "0.994748671489815",
    "sourceurl": "http://usnews.nbcnews.com/_news/2013/09/13/20478896-teen-gets-30-years-in-videotaped-beating-death?lite",
    "feature_id": "423587",
    "feature_name": "Chicago",
    "state_alpha": "IL",
    "county_name": "Cook",
    "county_numeric": "031",
    "prim_lat_dec": "41.850033",
    "prim_long_dec": "-87.6500523",
    "elev_in_m": "179",
    "elev_in_ft": "587",
    "lat": 41.850033,
    "long": -87.6500523
  },
  {
    "globaleventid": 267497858,
    "sqldate": 20130913,
    "monthyear": 201309,
    "year": 2013,
    "fractiondate": "2013.6932",
    "eventcode": 173,
    "quadclass": 4,
    "nummentions": 8,
    "numsources": 1,
    "numarticles": 8,
    "avgtone": "0.757575757575758",
    "sourceurl": "http://www.tribtown.com/view/story/b0890eb4c3db434f92ab9152e1f236f4/ID--Drunk-Driving-Manslaughter-Sentence",
    "feature_id": "399948",
    "feature_name": "Kooskia",
    "state_alpha": "ID",
    "county_name": "Idaho",
    "county_numeric": "049",
    "prim_lat_dec": "46.1448942",
    "prim_long_dec": "-115.9779188",
    "elev_in_m": "394",
    "elev_in_ft": "1293",
    "lat": 46.1448942,
    "long": -115.9779188
  },
  {
    "globaleventid": 267497857,
    "sqldate": 20130913,
    "monthyear": 201309,
    "year": 2013,
    "fractiondate": "2013.6932",
    "eventcode": 173,
    "quadclass": 4,
    "nummentions": 10,
    "numsources": 2,
    "numarticles": 10,
    "avgtone": "0.930864663589409",
    "sourceurl": "http://www.wtvm.com/story/23419107/georgia-teenager-sentenced-to-life-in-prison-without-parole-for-killing-of-baby-in-stroller",
    "feature_id": "354878",
    "feature_name": "Brunswick",
    "state_alpha": "GA",
    "county_name": "Glynn",
    "county_numeric": "127",
    "prim_lat_dec": "31.1499528",
    "prim_long_dec": "-81.4914894",
    "elev_in_m": "3",
    "elev_in_ft": "10",
    "lat": 31.1499528,
    "long": -81.4914894
  },
  {
    "globaleventid": 267497856,
    "sqldate": 20130913,
    "monthyear": 201309,
    "year": 2013,
    "fractiondate": "2013.6932",
    "eventcode": 173,
    "quadclass": 4,
    "nummentions": 4,
    "numsources": 1,
    "numarticles": 4,
    "avgtone": "0.0",
    "sourceurl": "http://cartersville.patch.com/groups/police-and-fire/p/bartow-mother-arrested-in-childs-death",
    "feature_id": "331382",
    "feature_name": "Cherokee",
    "state_alpha": "GA",
    "county_name": "Cherokee",
    "county_numeric": "057",
    "prim_lat_dec": "34.1681526",
    "prim_long_dec": "-84.570765",
    "elev_in_m": "268",
    "elev_in_ft": "879",
    "lat": 34.1681526,
    "long": -84.570765
  },
  {
    "globaleventid": 267497855,
    "sqldate": 20130913,
    "monthyear": 201309,
    "year": 2013,
    "fractiondate": "2013.6932",
    "eventcode": 173,
    "quadclass": 4,
    "nummentions": 2,
    "numsources": 1,
    "numarticles": 2,
    "avgtone": "3.14285714285714",
    "sourceurl": "http://www.cnycentral.com/news/story.aspx?id=946411",
    "feature_id": "1005554",
    "feature_name": "Carolina",
    "state_alpha": "NC",
    "county_name": "Gaston",
    "county_numeric": "071",
    "prim_lat_dec": "35.3884665",
    "prim_long_dec": "-81.3714737",
    "elev_in_m": "284",
    "elev_in_ft": "932",
    "lat": 35.3884665,
    "long": -81.3714737
  },
  {
    "globaleventid": 267497847,
    "sqldate": 20130913,
    "monthyear": 201309,
    "year": 2013,
    "fractiondate": "2013.6932",
    "eventcode": 173,
    "quadclass": 4,
    "nummentions": 4,
    "numsources": 1,
    "numarticles": 4,
    "avgtone": "0.0",
    "sourceurl": "http://www.sun-sentinel.com/news/local/crime/fl-weston-sticky-finger-arrest-20130913,0,338071.story",
    "feature_id": "284176",
    "feature_name": "Hollywood",
    "state_alpha": "FL",
    "county_name": "Broward",
    "county_numeric": "011",
    "prim_lat_dec": "26.0112014",
    "prim_long_dec": "-80.1494901",
    "elev_in_m": "3",
    "elev_in_ft": "10",
    "lat": 26.0112014,
    "long": -80.1494901
  },
  {
    "globaleventid": 267497846,
    "sqldate": 20130913,
    "monthyear": 201309,
    "year": 2013,
    "fractiondate": "2013.6932",
    "eventcode": 173,
    "quadclass": 4,
    "nummentions": 2,
    "numsources": 1,
    "numarticles": 2,
    "avgtone": "0.602409638554217",
    "sourceurl": "http://sanfrancisco.cbslocal.com/2013/09/13/salinas-man-sentenced-sex-abuse-stepdaughter/",
    "feature_id": "277593",
    "feature_name": "San Francisco",
    "state_alpha": "CA",
    "county_name": "San Francisco",
    "county_numeric": "075",
    "prim_lat_dec": "37.775",
    "prim_long_dec": "-122.4194444",
    "elev_in_m": "16",
    "elev_in_ft": "52",
    "lat": 37.775,
    "long": -122.4194444
  },
  {
    "globaleventid": 267497845,
    "sqldate": 20130913,
    "monthyear": 201309,
    "year": 2013,
    "fractiondate": "2013.6932",
    "eventcode": 173,
    "quadclass": 4,
    "nummentions": 2,
    "numsources": 1,
    "numarticles": 2,
    "avgtone": "1.69491525423729",
    "sourceurl": "http://www.maderatribune.com/news/ariz-man-relaxing-stolen-car-arrested",
    "feature_id": "277565",
    "feature_name": "Oakhurst",
    "state_alpha": "CA",
    "county_name": "Madera",
    "county_numeric": "039",
    "prim_lat_dec": "37.3279997",
    "prim_long_dec": "-119.6493154",
    "elev_in_m": "693",
    "elev_in_ft": "2274",
    "lat": 37.3279997,
    "long": -119.6493154
  },
  {
    "globaleventid": 267497844,
    "sqldate": 20130913,
    "monthyear": 201309,
    "year": 2013,
    "fractiondate": "2013.6932",
    "eventcode": 173,
    "quadclass": 4,
    "nummentions": 1,
    "numsources": 1,
    "numarticles": 1,
    "avgtone": "1.88679245283019",
    "sourceurl": "http://nationalmortgageprofessional.com/news43334/Two-Arrested-Defrauding-Distressed-Homeowners",
    "feature_id": "277479",
    "feature_name": "Brentwood",
    "state_alpha": "CA",
    "county_name": "Contra Costa",
    "county_numeric": "013",
    "prim_lat_dec": "37.931868",
    "prim_long_dec": "-121.6957863",
    "elev_in_m": "24",
    "elev_in_ft": "79",
    "lat": 37.931868,
    "long": -121.6957863
  },
  {
    "globaleventid": 267497838,
    "sqldate": 20130913,
    "monthyear": 201309,
    "year": 2013,
    "fractiondate": "2013.6932",
    "eventcode": 173,
    "quadclass": 4,
    "nummentions": 8,
    "numsources": 1,
    "numarticles": 4,
    "avgtone": "1.09289617486339",
    "sourceurl": "http://www.norwichbulletin.com/newsnow/x1803291077/2-New-London-men-charged-with-driving-dirt-bikes-illegally",
    "feature_id": "209237",
    "feature_name": "New London",
    "state_alpha": "CT",
    "county_name": "New London",
    "county_numeric": "011",
    "prim_lat_dec": "41.3556539",
    "prim_long_dec": "-72.0995209",
    "elev_in_m": "17",
    "elev_in_ft": "56",
    "lat": 41.3556539,
    "long": -72.0995209
  },
  {
    "globaleventid": 267497837,
    "sqldate": 20130913,
    "monthyear": 201309,
    "year": 2013,
    "fractiondate": "2013.6932",
    "eventcode": 173,
    "quadclass": 4,
    "nummentions": 3,
    "numsources": 1,
    "numarticles": 3,
    "avgtone": "0.72289156626506",
    "sourceurl": "http://meriden.patch.com/groups/police-and-fire/p/meriden-man-sentenced-for-involvement-in-mortgage-fraud-scheme",
    "feature_id": "209231",
    "feature_name": "New Haven",
    "state_alpha": "CT",
    "county_name": "New Haven",
    "county_numeric": "009",
    "prim_lat_dec": "41.3081527",
    "prim_long_dec": "-72.9281578",
    "elev_in_m": "12",
    "elev_in_ft": "39",
    "lat": 41.3081527,
    "long": -72.9281578
  },
  {
    "globaleventid": 267497836,
    "sqldate": 20130913,
    "monthyear": 201309,
    "year": 2013,
    "fractiondate": "2013.6932",
    "eventcode": 173,
    "quadclass": 4,
    "nummentions": 2,
    "numsources": 1,
    "numarticles": 2,
    "avgtone": "0.72289156626506",
    "sourceurl": "http://meriden.patch.com/groups/police-and-fire/p/meriden-man-sentenced-for-involvement-in-mortgage-fraud-scheme",
    "feature_id": "208834",
    "feature_name": "Meriden",
    "state_alpha": "CT",
    "county_name": "New Haven",
    "county_numeric": "009",
    "prim_lat_dec": "41.5381535",
    "prim_long_dec": "-72.8070435",
    "elev_in_m": "44",
    "elev_in_ft": "144",
    "lat": 41.5381535,
    "long": -72.8070435
  },
  {
    "globaleventid": 267497829,
    "sqldate": 20130913,
    "monthyear": 201309,
    "year": 2013,
    "fractiondate": "2013.6932",
    "eventcode": 173,
    "quadclass": 4,
    "nummentions": 2,
    "numsources": 1,
    "numarticles": 2,
    "avgtone": "0.884955752212389",
    "sourceurl": "http://www.nbcsandiego.com/news/local/Cold-Case-Arrest-2000-Murder-of-Teenager-Nghia-Tan-Pham-223684101.html",
    "feature_id": "1661377",
    "feature_name": "San Diego",
    "state_alpha": "CA",
    "county_name": "San Diego",
    "county_numeric": "073",
    "prim_lat_dec": "32.7153292",
    "prim_long_dec": "-117.1572551",
    "elev_in_m": "19",
    "elev_in_ft": "62",
    "lat": 32.7153292,
    "long": -117.1572551
  },
  {
    "globaleventid": 267497828,
    "sqldate": 20130913,
    "monthyear": 201309,
    "year": 2013,
    "fractiondate": "2013.6932",
    "eventcode": 173,
    "quadclass": 4,
    "nummentions": 6,
    "numsources": 1,
    "numarticles": 6,
    "avgtone": "0.396825396825397",
    "sourceurl": "http://www.utsandiego.com/news/2013/sep/13/arrest-freeway-killing-pham-huynh/",
    "feature_id": "1661377",
    "feature_name": "San Diego",
    "state_alpha": "CA",
    "county_name": "San Diego",
    "county_numeric": "073",
    "prim_lat_dec": "32.7153292",
    "prim_long_dec": "-117.1572551",
    "elev_in_m": "19",
    "elev_in_ft": "62",
    "lat": 32.7153292,
    "long": -117.1572551
  },
  {
    "globaleventid": 267497820,
    "sqldate": 20130913,
    "monthyear": 201309,
    "year": 2013,
    "fractiondate": "2013.6932",
    "eventcode": 173,
    "quadclass": 4,
    "nummentions": 2,
    "numsources": 1,
    "numarticles": 2,
    "avgtone": "0.0",
    "sourceurl": "http://www.heritage.com/articles/2013/09/13/ypsilanti_courier/news/doc522e0204ee989345830709.txt",
    "feature_id": "1616910",
    "feature_name": "Ypsilanti",
    "state_alpha": "MI",
    "county_name": "Washtenaw",
    "county_numeric": "161",
    "prim_lat_dec": "42.2411499",
    "prim_long_dec": "-83.6129939",
    "elev_in_m": "221",
    "elev_in_ft": "725",
    "lat": 42.2411499,
    "long": -83.6129939
  },
  {
    "globaleventid": 267497819,
    "sqldate": 20130913,
    "monthyear": 201309,
    "year": 2013,
    "fractiondate": "2013.6932",
    "eventcode": 173,
    "quadclass": 4,
    "nummentions": 3,
    "numsources": 1,
    "numarticles": 3,
    "avgtone": "0.0",
    "sourceurl": "http://www.miningjournal.net/page/content.detail/id/590648.html",
    "feature_id": "1565801",
    "feature_name": "Green Bay",
    "state_alpha": "WI",
    "county_name": "Brown",
    "county_numeric": "009",
    "prim_lat_dec": "44.519159",
    "prim_long_dec": "-88.019826",
    "elev_in_m": "181",
    "elev_in_ft": "594",
    "lat": 44.519159,
    "long": -88.019826
  },
  {
    "globaleventid": 267497818,
    "sqldate": 20130913,
    "monthyear": 201309,
    "year": 2013,
    "fractiondate": "2013.6932",
    "eventcode": 173,
    "quadclass": 4,
    "nummentions": 3,
    "numsources": 1,
    "numarticles": 3,
    "avgtone": "0.0",
    "sourceurl": "http://www.miningjournal.net/page/content.detail/id/590648.html",
    "feature_id": "1565801",
    "feature_name": "Green Bay",
    "state_alpha": "WI",
    "county_name": "Brown",
    "county_numeric": "009",
    "prim_lat_dec": "44.519159",
    "prim_long_dec": "-88.019826",
    "elev_in_m": "181",
    "elev_in_ft": "594",
    "lat": 44.519159,
    "long": -88.019826
  },
  {
    "globaleventid": 267497817,
    "sqldate": 20130913,
    "monthyear": 201309,
    "year": 2013,
    "fractiondate": "2013.6932",
    "eventcode": 173,
    "quadclass": 4,
    "nummentions": 16,
    "numsources": 1,
    "numarticles": 16,
    "avgtone": "1.36363636363636",
    "sourceurl": "http://www.washingtonpost.com/local/police-seize-nearly-17-pounds-of-club-drug-molly-linked-to-deaths/2013/09/13/28f03a30-1c94-11e3-8685-5021e0c41964_story.html?wprss=rss_crime",
    "feature_id": "1498444",
    "feature_name": "Abingdon",
    "state_alpha": "VA",
    "county_name": "Washington",
    "county_numeric": "191",
    "prim_lat_dec": "36.7098335",
    "prim_long_dec": "-81.9773482",
    "elev_in_m": "638",
    "elev_in_ft": "2093",
    "lat": 36.7098335,
    "long": -81.9773482
  },
  {
    "globaleventid": 267497816,
    "sqldate": 20130913,
    "monthyear": 201309,
    "year": 2013,
    "fractiondate": "2013.6932",
    "eventcode": 173,
    "quadclass": 4,
    "nummentions": 24,
    "numsources": 1,
    "numarticles": 24,
    "avgtone": "1.36363636363636",
    "sourceurl": "http://www.washingtonpost.com/local/police-seize-nearly-17-pounds-of-club-drug-molly-linked-to-deaths/2013/09/13/28f03a30-1c94-11e3-8685-5021e0c41964_story.html?wprss=rss_crime",
    "feature_id": "1498444",
    "feature_name": "Abingdon",
    "state_alpha": "VA",
    "county_name": "Washington",
    "county_numeric": "191",
    "prim_lat_dec": "36.7098335",
    "prim_long_dec": "-81.9773482",
    "elev_in_m": "638",
    "elev_in_ft": "2093",
    "lat": 36.7098335,
    "long": -81.9773482
  },
  {
    "globaleventid": 267497814,
    "sqldate": 20130913,
    "monthyear": 201309,
    "year": 2013,
    "fractiondate": "2013.6932",
    "eventcode": 173,
    "quadclass": 4,
    "nummentions": 2,
    "numsources": 1,
    "numarticles": 2,
    "avgtone": "1.17647058823529",
    "sourceurl": "http://www.wptz.com/news/vermont-new-york/burlington/vt-correctional-officer-facing-inmate-abuse-charge/-/8869880/21924022/-/f9aywb/-/index.html?absolute=true",
    "feature_id": "1456663",
    "feature_name": "Burlington",
    "state_alpha": "VT",
    "county_name": "Chittenden",
    "county_numeric": "007",
    "prim_lat_dec": "44.4758825",
    "prim_long_dec": "-73.212072",
    "elev_in_m": "60",
    "elev_in_ft": "197",
    "lat": 44.4758825,
    "long": -73.212072
  },
  {
    "globaleventid": 267497813,
    "sqldate": 20130913,
    "monthyear": 201309,
    "year": 2013,
    "fractiondate": "2013.6932",
    "eventcode": 173,
    "quadclass": 4,
    "nummentions": 32,
    "numsources": 7,
    "numarticles": 32,
    "avgtone": "1.22545477908931",
    "sourceurl": "http://www.therepublic.com/view/story/bb689110453647bea3218139a2fbef97/VT--Correctional-Officer-Charged",
    "feature_id": "1456663",
    "feature_name": "Burlington",
    "state_alpha": "VT",
    "county_name": "Chittenden",
    "county_numeric": "007",
    "prim_lat_dec": "44.4758825",
    "prim_long_dec": "-73.212072",
    "elev_in_m": "60",
    "elev_in_ft": "197",
    "lat": 44.4758825,
    "long": -73.212072
  },
  {
    "globaleventid": 267497812,
    "sqldate": 20130913,
    "monthyear": 201309,
    "year": 2013,
    "fractiondate": "2013.6932",
    "eventcode": 173,
    "quadclass": 4,
    "nummentions": 6,
    "numsources": 2,
    "numarticles": 6,
    "avgtone": "1.16104133961277",
    "sourceurl": "http://www.nst.com.my/latest/man-gets-3-years-for-hacking-police-websites-1.355100?localLinksEnabled=false&cache=03D163D03edding-pred-1.1176/?pFpentwage63Dp:/he3D03Dn63Frea-rti3D19.3D163D03edding-pred-1.1176/?pFpentwage63Dp:/he3D03Dn63Frea-rti3D19.111w5ii",
    "feature_id": "1454997",
    "feature_name": "Salt Lake City",
    "state_alpha": "UT",
    "county_name": "Salt Lake",
    "county_numeric": "035",
    "prim_lat_dec": "40.7607794",
    "prim_long_dec": "-111.8910474",
    "elev_in_m": "1300",
    "elev_in_ft": "4265",
    "lat": 40.7607794,
    "long": -111.8910474
  },
  {
    "globaleventid": 267497809,
    "sqldate": 20130913,
    "monthyear": 201309,
    "year": 2013,
    "fractiondate": "2013.6932",
    "eventcode": 173,
    "quadclass": 4,
    "nummentions": 6,
    "numsources": 1,
    "numarticles": 6,
    "avgtone": "0.649350649350649",
    "sourceurl": "http://m.centraljersey.com/articles/2013/09/13/south_brunswick_post/news/doc523241766a66f889621849.txt",
    "feature_id": "1381527",
    "feature_name": "Brunswick",
    "state_alpha": "TX",
    "county_name": "Cherokee",
    "county_numeric": "073",
    "prim_lat_dec": "31.5818446",
    "prim_long_dec": "-95.0618828",
    "elev_in_m": "104",
    "elev_in_ft": "341",
    "lat": 31.5818446,
    "long": -95.0618828
  },
  {
    "globaleventid": 267497808,
    "sqldate": 20130913,
    "monthyear": 201309,
    "year": 2013,
    "fractiondate": "2013.6932",
    "eventcode": 173,
    "quadclass": 4,
    "nummentions": 11,
    "numsources": 2,
    "numarticles": 11,
    "avgtone": "1.09307747814389",
    "sourceurl": "http://www.sanantoniopost.com/index.php/sid/217058129/scat/f18f75b7970654da",
    "feature_id": "1380951",
    "feature_name": "San Antonio",
    "state_alpha": "TX",
    "county_name": "Bexar",
    "county_numeric": "029",
    "prim_lat_dec": "29.4241219",
    "prim_long_dec": "-98.4936282",
    "elev_in_m": "198",
    "elev_in_ft": "650",
    "lat": 29.4241219,
    "long": -98.4936282
  },
  {
    "globaleventid": 267497807,
    "sqldate": 20130913,
    "monthyear": 201309,
    "year": 2013,
    "fractiondate": "2013.6932",
    "eventcode": 173,
    "quadclass": 4,
    "nummentions": 2,
    "numsources": 1,
    "numarticles": 2,
    "avgtone": "0.0",
    "sourceurl": "http://www.texasguardian.com/index.php/sid/217046541/scat/42acbe017a594c30",
    "feature_id": "1380947",
    "feature_name": "Fort Worth",
    "state_alpha": "TX",
    "county_name": "Tarrant",
    "county_numeric": "439",
    "prim_lat_dec": "32.725409",
    "prim_long_dec": "-97.3208496",
    "elev_in_m": "199",
    "elev_in_ft": "653",
    "lat": 32.725409,
    "long": -97.3208496
  },
  {
    "globaleventid": 267497806,
    "sqldate": 20130913,
    "monthyear": 201309,
    "year": 2013,
    "fractiondate": "2013.6932",
    "eventcode": 173,
    "quadclass": 4,
    "nummentions": 4,
    "numsources": 1,
    "numarticles": 4,
    "avgtone": "1.11731843575419",
    "sourceurl": "http://dfw.cbslocal.com/2013/09/12/dpd-clears-person-of-interest-in-serial-rapes-case/",
    "feature_id": "1380944",
    "feature_name": "Dallas",
    "state_alpha": "TX",
    "county_name": "Dallas",
    "county_numeric": "113",
    "prim_lat_dec": "32.7830556",
    "prim_long_dec": "-96.8066667",
    "elev_in_m": "128",
    "elev_in_ft": "420",
    "lat": 32.7830556,
    "long": -96.8066667
  },
  {
    "globaleventid": 267497805,
    "sqldate": 20130913,
    "monthyear": 201309,
    "year": 2013,
    "fractiondate": "2013.6932",
    "eventcode": 173,
    "quadclass": 4,
    "nummentions": 8,
    "numsources": 1,
    "numarticles": 8,
    "avgtone": "0.0",
    "sourceurl": "http://crimeblog.dallasnews.com/2013/09/arlington-police-arrest-2-in-connection-with-double-homicide.html/",
    "feature_id": "1372320",
    "feature_name": "Arlington",
    "state_alpha": "TX",
    "county_name": "Tarrant",
    "county_numeric": "439",
    "prim_lat_dec": "32.735687",
    "prim_long_dec": "-97.1080656",
    "elev_in_m": "184",
    "elev_in_ft": "604",
    "lat": 32.735687,
    "long": -97.1080656
  },
  {
    "globaleventid": 267497803,
    "sqldate": 20130913,
    "monthyear": 201309,
    "year": 2013,
    "fractiondate": "2013.6932",
    "eventcode": 173,
    "quadclass": 4,
    "nummentions": 2,
    "numsources": 1,
    "numarticles": 2,
    "avgtone": "0.0",
    "sourceurl": "http://www.wchstv.com/newsroom/eyewitness/130913_19044.shtml",
    "feature_id": "1295698",
    "feature_name": "Newport",
    "state_alpha": "TN",
    "county_name": "Cocke",
    "county_numeric": "029",
    "prim_lat_dec": "35.9670412",
    "prim_long_dec": "-83.1876578",
    "elev_in_m": "321",
    "elev_in_ft": "1053",
    "lat": 35.9670412,
    "long": -83.1876578
  },
  {
    "globaleventid": 267497801,
    "sqldate": 20130913,
    "monthyear": 201309,
    "year": 2013,
    "fractiondate": "2013.6932",
    "eventcode": 173,
    "quadclass": 4,
    "nummentions": 8,
    "numsources": 1,
    "numarticles": 4,
    "avgtone": "2.13270142180095",
    "sourceurl": "http://whnt.com/2013/09/13/family-dog-alerts-family-to-abuse-hidden-tape-leads-to-confession/",
    "feature_id": "1221516",
    "feature_name": "Charleston",
    "state_alpha": "SC",
    "county_name": "Charleston",
    "county_numeric": "019",
    "prim_lat_dec": "32.7765656",
    "prim_long_dec": "-79.9309216",
    "elev_in_m": "3",
    "elev_in_ft": "10",
    "lat": 32.7765656,
    "long": -79.9309216
  },
  {
    "globaleventid": 267497798,
    "sqldate": 20130913,
    "monthyear": 201309,
    "year": 2013,
    "fractiondate": "2013.6932",
    "eventcode": 173,
    "quadclass": 4,
    "nummentions": 2,
    "numsources": 1,
    "numarticles": 2,
    "avgtone": "0.44004400440044",
    "sourceurl": "http://delconewsnetwork.com/articles/2013/09/13/news_of_delaware_county/news/doc5233457096ca1660104477.txt",
    "feature_id": "1209052",
    "feature_name": "Philadelphia",
    "state_alpha": "PA",
    "county_name": "Philadelphia",
    "county_numeric": "101",
    "prim_lat_dec": "39.952335",
    "prim_long_dec": "-75.163789",
    "elev_in_m": "14",
    "elev_in_ft": "46",
    "lat": 39.952335,
    "long": -75.163789
  },
  {
    "globaleventid": 267497797,
    "sqldate": 20130913,
    "monthyear": 201309,
    "year": 2013,
    "fractiondate": "2013.6932",
    "eventcode": 173,
    "quadclass": 4,
    "nummentions": 16,
    "numsources": 1,
    "numarticles": 8,
    "avgtone": "1.20405576679341",
    "sourceurl": "http://www.centraljersey.com/articles/2013/09/13/the_messenger_press/news/doc52150223af9c6996472945.txt",
    "feature_id": "1203151",
    "feature_name": "Bridgeton",
    "state_alpha": "PA",
    "county_name": "York",
    "county_numeric": "133",
    "prim_lat_dec": "39.7909364",
    "prim_long_dec": "-76.4205178",
    "elev_in_m": "92",
    "elev_in_ft": "302",
    "lat": 39.7909364,
    "long": -76.4205178
  },
  {
    "globaleventid": 267497796,
    "sqldate": 20130913,
    "monthyear": 201309,
    "year": 2013,
    "fractiondate": "2013.6932",
    "eventcode": 173,
    "quadclass": 4,
    "nummentions": 4,
    "numsources": 1,
    "numarticles": 2,
    "avgtone": "0.749063670411985",
    "sourceurl": "http://montgomerynews.com/articles/2013/09/13/ambler_gazette/news/doc5227f132d1638612431043.txt",
    "feature_id": "1188005",
    "feature_name": "Souderton",
    "state_alpha": "PA",
    "county_name": "Montgomery",
    "county_numeric": "091",
    "prim_lat_dec": "40.3117707",
    "prim_long_dec": "-75.3251759",
    "elev_in_m": "126",
    "elev_in_ft": "413",
    "lat": 40.3117707,
    "long": -75.3251759
  },
  {
    "globaleventid": 267497795,
    "sqldate": 20130913,
    "monthyear": 201309,
    "year": 2013,
    "fractiondate": "2013.6932",
    "eventcode": 173,
    "quadclass": 4,
    "nummentions": 8,
    "numsources": 1,
    "numarticles": 8,
    "avgtone": "0.44004400440044",
    "sourceurl": "http://delconewsnetwork.com/articles/2013/09/13/news_of_delaware_county/news/doc5233457096ca1660104477.txt",
    "feature_id": "1183500",
    "feature_name": "Penn View",
    "state_alpha": "PA",
    "county_name": "Centre",
    "county_numeric": "027",
    "prim_lat_dec": "40.8464576",
    "prim_long_dec": "-77.4524916",
    "elev_in_m": "314",
    "elev_in_ft": "1030",
    "lat": 40.8464576,
    "long": -77.4524916
  },
  {
    "globaleventid": 267497794,
    "sqldate": 20130913,
    "monthyear": 201309,
    "year": 2013,
    "fractiondate": "2013.6932",
    "eventcode": 173,
    "quadclass": 4,
    "nummentions": 4,
    "numsources": 1,
    "numarticles": 4,
    "avgtone": "1.20405576679341",
    "sourceurl": "http://www.centraljersey.com/articles/2013/09/13/the_messenger_press/news/doc52150223af9c6996472945.txt",
    "feature_id": "1181069",
    "feature_name": "Middletown",
    "state_alpha": "PA",
    "county_name": "Dauphin",
    "county_numeric": "043",
    "prim_lat_dec": "40.199814",
    "prim_long_dec": "-76.7310806",
    "elev_in_m": "110",
    "elev_in_ft": "361",
    "lat": 40.199814,
    "long": -76.7310806
  },
  {
    "globaleventid": 267497793,
    "sqldate": 20130913,
    "monthyear": 201309,
    "year": 2013,
    "fractiondate": "2013.6932",
    "eventcode": 173,
    "quadclass": 4,
    "nummentions": 1,
    "numsources": 1,
    "numarticles": 1,
    "avgtone": "0.44004400440044",
    "sourceurl": "http://delconewsnetwork.com/articles/2013/09/13/news_of_delaware_county/news/doc5233457096ca1660104477.txt",
    "feature_id": "1180364",
    "feature_name": "Maple Shade",
    "state_alpha": "PA",
    "county_name": "Bucks",
    "county_numeric": "017",
    "prim_lat_dec": "40.1001105",
    "prim_long_dec": "-74.895166",
    "elev_in_m": "9",
    "elev_in_ft": "30",
    "lat": 40.1001105,
    "long": -74.895166
  },
  {
    "globaleventid": 267497792,
    "sqldate": 20130913,
    "monthyear": 201309,
    "year": 2013,
    "fractiondate": "2013.6932",
    "eventcode": 173,
    "quadclass": 4,
    "nummentions": 4,
    "numsources": 1,
    "numarticles": 2,
    "avgtone": "0.44004400440044",
    "sourceurl": "http://delconewsnetwork.com/articles/2013/09/13/news_of_delaware_county/news/doc5233457096ca1660104477.txt",
    "feature_id": "1176657",
    "feature_name": "Haverford",
    "state_alpha": "PA",
    "county_name": "Montgomery",
    "county_numeric": "091",
    "prim_lat_dec": "40.0131672",
    "prim_long_dec": "-75.2943516",
    "elev_in_m": "97",
    "elev_in_ft": "318",
    "lat": 40.0131672,
    "long": -75.2943516
  },
  {
    "globaleventid": 267497791,
    "sqldate": 20130913,
    "monthyear": 201309,
    "year": 2013,
    "fractiondate": "2013.6932",
    "eventcode": 173,
    "quadclass": 4,
    "nummentions": 17,
    "numsources": 1,
    "numarticles": 8,
    "avgtone": "0.44004400440044",
    "sourceurl": "http://delconewsnetwork.com/articles/2013/09/13/news_of_delaware_county/news/doc5233457096ca1660104477.txt",
    "feature_id": "1176657",
    "feature_name": "Haverford",
    "state_alpha": "PA",
    "county_name": "Montgomery",
    "county_numeric": "091",
    "prim_lat_dec": "40.0131672",
    "prim_long_dec": "-75.2943516",
    "elev_in_m": "97",
    "elev_in_ft": "318",
    "lat": 40.0131672,
    "long": -75.2943516
  },
  {
    "globaleventid": 267497790,
    "sqldate": 20130913,
    "monthyear": 201309,
    "year": 2013,
    "fractiondate": "2013.6932",
    "eventcode": 173,
    "quadclass": 4,
    "nummentions": 1,
    "numsources": 1,
    "numarticles": 1,
    "avgtone": "0.44004400440044",
    "sourceurl": "http://delconewsnetwork.com/articles/2013/09/13/news_of_delaware_county/news/doc5233457096ca1660104477.txt",
    "feature_id": "1176657",
    "feature_name": "Haverford",
    "state_alpha": "PA",
    "county_name": "Montgomery",
    "county_numeric": "091",
    "prim_lat_dec": "40.0131672",
    "prim_long_dec": "-75.2943516",
    "elev_in_m": "97",
    "elev_in_ft": "318",
    "lat": 40.0131672,
    "long": -75.2943516
  },
  {
    "globaleventid": 267497789,
    "sqldate": 20130913,
    "monthyear": 201309,
    "year": 2013,
    "fractiondate": "2013.6932",
    "eventcode": 173,
    "quadclass": 4,
    "nummentions": 8,
    "numsources": 1,
    "numarticles": 4,
    "avgtone": "0.44004400440044",
    "sourceurl": "http://delconewsnetwork.com/articles/2013/09/13/news_of_delaware_county/news/doc5233457096ca1660104477.txt",
    "feature_id": "1175714",
    "feature_name": "Glendale",
    "state_alpha": "PA",
    "county_name": "Allegheny",
    "county_numeric": "003",
    "prim_lat_dec": "40.3964581",
    "prim_long_dec": "-80.0956109",
    "elev_in_m": "261",
    "elev_in_ft": "856",
    "lat": 40.3964581,
    "long": -80.0956109
  },
  {
    "globaleventid": 267497788,
    "sqldate": 20130913,
    "monthyear": 201309,
    "year": 2013,
    "fractiondate": "2013.6932",
    "eventcode": 173,
    "quadclass": 4,
    "nummentions": 4,
    "numsources": 1,
    "numarticles": 2,
    "avgtone": "0.44004400440044",
    "sourceurl": "http://delconewsnetwork.com/articles/2013/09/13/news_of_delaware_county/news/doc5233457096ca1660104477.txt",
    "feature_id": "1168378",
    "feature_name": "Ardmore",
    "state_alpha": "PA",
    "county_name": "Montgomery",
    "county_numeric": "091",
    "prim_lat_dec": "40.0067786",
    "prim_long_dec": "-75.2854622",
    "elev_in_m": "108",
    "elev_in_ft": "354",
    "lat": 40.0067786,
    "long": -75.2854622
  },
  {
    "globaleventid": 267497787,
    "sqldate": 20130913,
    "monthyear": 201309,
    "year": 2013,
    "fractiondate": "2013.6932",
    "eventcode": 173,
    "quadclass": 4,
    "nummentions": 2,
    "numsources": 1,
    "numarticles": 1,
    "avgtone": "0.44004400440044",
    "sourceurl": "http://delconewsnetwork.com/articles/2013/09/13/news_of_delaware_county/news/doc5233457096ca1660104477.txt",
    "feature_id": "1175714",
    "feature_name": "Glendale",
    "state_alpha": "PA",
    "county_name": "Allegheny",
    "county_numeric": "003",
    "prim_lat_dec": "40.3964581",
    "prim_long_dec": "-80.0956109",
    "elev_in_m": "261",
    "elev_in_ft": "856",
    "lat": 40.3964581,
    "long": -80.0956109
  },