[
  {
    "globaleventid": 262369561,
    "sqldate": 20130807,
    "monthyear": 201308,
    "year": 2013,
    "fractiondate": "2013.5945",
    "eventcode": 1821,
    "quadclass": 4,
    "nummentions": 4,
    "numsources": 1,
    "numarticles": 4,
    "avgtone": "0.344234079173838",
    "sourceurl": "http://www.theday.com/article/20130802/NWS01/308029941/1047/Delay-in-releasing-New-London-rape-information-questioned",
    "feature_id": "209237",
    "feature_name": "New London",
    "state_alpha": "CT",
    "county_name": "New London",
    "county_numeric": "011",
    "prim_lat_dec": "41.3556539",
    "prim_long_dec": "-72.0995209",
    "elev_in_m": "17",
    "elev_in_ft": "56",
    "lat": 41.3556539,
    "long": -72.0995209
  },
  {
    "globaleventid": 262369544,
    "sqldate": 20130807,
    "monthyear": 201308,
    "year": 2013,
    "fractiondate": "2013.5945",
    "eventcode": 172,
    "quadclass": 4,
    "nummentions": 2,
    "numsources": 1,
    "numarticles": 2,
    "avgtone": "1.45310435931308",
    "sourceurl": "http://www.ctpost.com/news/crime/article/News-briefs-from-around-Tennessee-at-1-58-a-m-EDT-4708800.php",
    "feature_id": "1292561",
    "feature_name": "Manchester",
    "state_alpha": "TN",
    "county_name": "Coffee",
    "county_numeric": "031",
    "prim_lat_dec": "35.4817432",
    "prim_long_dec": "-86.0885993",
    "elev_in_m": "323",
    "elev_in_ft": "1060",
    "lat": 35.4817432,
    "long": -86.0885993
  },
  {
    "globaleventid": 262369537,
    "sqldate": 20130807,
    "monthyear": 201308,
    "year": 2013,
    "fractiondate": "2013.5945",
    "eventcode": 130,
    "quadclass": 3,
    "nummentions": 4,
    "numsources": 1,
    "numarticles": 4,
    "avgtone": "3.44827586206897",
    "sourceurl": "http://www.huffingtonpost.com/2013/08/07/downton-abbey-baby-george_n_3721483.html",
    "feature_id": "1652672",
    "feature_name": "Beverly Hills",
    "state_alpha": "CA",
    "county_name": "Los Angeles",
    "county_numeric": "037",
    "prim_lat_dec": "34.0736204",
    "prim_long_dec": "-118.4003563",
    "elev_in_m": "79",
    "elev_in_ft": "259",
    "lat": 34.0736204,
    "long": -118.4003563
  },
  {
    "globaleventid": 262369536,
    "sqldate": 20130807,
    "monthyear": 201308,
    "year": 2013,
    "fractiondate": "2013.5945",
    "eventcode": 120,
    "quadclass": 3,
    "nummentions": 2,
    "numsources": 1,
    "numarticles": 2,
    "avgtone": "1.11940298507463",
    "sourceurl": "http://www.theday.com/article/20130806/NWS01/130809797/1017",
    "feature_id": "209237",
    "feature_name": "New London",
    "state_alpha": "CT",
    "county_name": "New London",
    "county_numeric": "011",
    "prim_lat_dec": "41.3556539",
    "prim_long_dec": "-72.0995209",
    "elev_in_m": "17",
    "elev_in_ft": "56",
    "lat": 41.3556539,
    "long": -72.0995209
  },
  {
    "globaleventid": 262369532,
    "sqldate": 20130807,
    "monthyear": 201308,
    "year": 2013,
    "fractiondate": "2013.5945",
    "eventcode": 100,
    "quadclass": 3,
    "nummentions": 2,
    "numsources": 1,
    "numarticles": 2,
    "avgtone": "1.61290322580645",
    "sourceurl": "http://www.thedailybeast.com/cheats/2013/08/07/yemen-we-stopped-al-qaeda-plot.html",
    "feature_id": "531871",
    "feature_name": "Washington",
    "state_alpha": "DC",
    "county_name": "District of Columbia",
    "county_numeric": "001",
    "prim_lat_dec": "38.8951118",
    "prim_long_dec": "-77.0363658",
    "elev_in_m": "7",
    "elev_in_ft": "23",
    "lat": 38.8951118,
    "long": -77.0363658
  },
  {
    "globaleventid": 262368832,
    "sqldate": 20130807,
    "monthyear": 201308,
    "year": 2013,
    "fractiondate": "2013.5945",
    "eventcode": 100,
    "quadclass": 3,
    "nummentions": 1,
    "numsources": 1,
    "numarticles": 1,
    "avgtone": "1.28654970760234",
    "sourceurl": "http://www.independent.ie/irish-news/erins-mum-hits-out-after-latest-cyberbully-death-29479209.html",
    "feature_id": "1660757",
    "feature_name": "Hollywood",
    "state_alpha": "CA",
    "county_name": "Los Angeles",
    "county_numeric": "037",
    "prim_lat_dec": "34.0983425",
    "prim_long_dec": "-118.3267434",
    "elev_in_m": "108",
    "elev_in_ft": "354",
    "lat": 34.0983425,
    "long": -118.3267434
  },
  {
    "globaleventid": 262368708,
    "sqldate": 20130807,
    "monthyear": 201308,
    "year": 2013,
    "fractiondate": "2013.5945",
    "eventcode": 160,
    "quadclass": 4,
    "nummentions": 4,
    "numsources": 2,
    "numarticles": 4,
    "avgtone": "1.46369703655966",
    "sourceurl": "http://www.denverpost.com/nationworld/ci_23809820/yemen-again-at-forefront-fight-against-terror",
    "feature_id": "531871",
    "feature_name": "Washington",
    "state_alpha": "DC",
    "county_name": "District of Columbia",
    "county_numeric": "001",
    "prim_lat_dec": "38.8951118",
    "prim_long_dec": "-77.0363658",
    "elev_in_m": "7",
    "elev_in_ft": "23",
    "lat": 38.8951118,
    "long": -77.0363658
  },
  {
    "globaleventid": 262366728,
    "sqldate": 20130807,
    "monthyear": 201308,
    "year": 2013,
    "fractiondate": "2013.5945",
    "eventcode": 161,
    "quadclass": 4,
    "nummentions": 2,
    "numsources": 1,
    "numarticles": 2,
    "avgtone": "0.826446280991736",
    "sourceurl": "http://www.focus-fen.net/?id=n312448&c=s01_CHK93mFUYs1Y0AMXjIYELxyeQyg7ANXUfaBOOnY&mkt=en-us",
    "feature_id": "531871",
    "feature_name": "Washington",
    "state_alpha": "DC",
    "county_name": "District of Columbia",
    "county_numeric": "001",
    "prim_lat_dec": "38.8951118",
    "prim_long_dec": "-77.0363658",
    "elev_in_m": "7",
    "elev_in_ft": "23",
    "lat": 38.8951118,
    "long": -77.0363658
  },
  {
    "globaleventid": 262365704,
    "sqldate": 20130807,
    "monthyear": 201308,
    "year": 2013,
    "fractiondate": "2013.5945",
    "eventcode": 111,
    "quadclass": 3,
    "nummentions": 6,
    "numsources": 1,
    "numarticles": 6,
    "avgtone": "6.50887573964497",
    "sourceurl": "http://www.prnewswire.com/news-releases/shoes-by-international-clothing-brand-inkkas-now-available-in-europe-218693271.html",
    "feature_id": "1662328",
    "feature_name": "Los Angeles",
    "state_alpha": "CA",
    "county_name": "Los Angeles",
    "county_numeric": "037",
    "prim_lat_dec": "34.0522342",
    "prim_long_dec": "-118.2436849",
    "elev_in_m": "89",
    "elev_in_ft": "292",
    "lat": 34.0522342,
    "long": -118.2436849
  },
  {
    "globaleventid": 262365022,
    "sqldate": 20130807,
    "monthyear": 201308,
    "year": 2013,
    "fractiondate": "2013.5945",
    "eventcode": 190,
    "quadclass": 4,
    "nummentions": 1,
    "numsources": 1,
    "numarticles": 1,
    "avgtone": "1.06382978723404",
    "sourceurl": "http://www.bhpioneer.com/local_news/article_8078c5c6-feec-11e2-ab65-001a4bcf887a.html",
    "feature_id": "472209",
    "feature_name": "Hill City",
    "state_alpha": "KS",
    "county_name": "Graham",
    "county_numeric": "065",
    "prim_lat_dec": "39.3647281",
    "prim_long_dec": "-99.8420649",
    "elev_in_m": "666",
    "elev_in_ft": "2185",
    "lat": 39.3647281,
    "long": -99.8420649
  },
  {
    "globaleventid": 262364617,
    "sqldate": 20130807,
    "monthyear": 201308,
    "year": 2013,
    "fractiondate": "2013.5945",
    "eventcode": 100,
    "quadclass": 3,
    "nummentions": 12,
    "numsources": 1,
    "numarticles": 12,
    "avgtone": "6.21860798851949",
    "sourceurl": "http://mainlinemedianews.com/articles/2013/08/07/main_line_times/news/doc51ffc21166852327625541.txt",
    "feature_id": "1176657",
    "feature_name": "Haverford",
    "state_alpha": "PA",
    "county_name": "Montgomery",
    "county_numeric": "091",
    "prim_lat_dec": "40.0131672",
    "prim_long_dec": "-75.2943516",
    "elev_in_m": "97",
    "elev_in_ft": "318",
    "lat": 40.0131672,
    "long": -75.2943516
  },
  {
    "globaleventid": 262364351,
    "sqldate": 20130807,
    "monthyear": 201308,
    "year": 2013,
    "fractiondate": "2013.5945",
    "eventcode": 141,
    "quadclass": 3,
    "nummentions": 2,
    "numsources": 1,
    "numarticles": 2,
    "avgtone": "2.06185567010309",
    "sourceurl": "http://www.wbko.com/news/headlines/Groups-to-Protest-Gas-Pipeline-at-KY-Capitol-218663181.html?ref=181",
    "feature_id": "517517",
    "feature_name": "Frankfort",
    "state_alpha": "KY",
    "county_name": "Franklin",
    "county_numeric": "073",
    "prim_lat_dec": "38.2009055",
    "prim_long_dec": "-84.8732836",
    "elev_in_m": "154",
    "elev_in_ft": "505",
    "lat": 38.2009055,
    "long": -84.8732836
  },
  {
    "globaleventid": 262364350,
    "sqldate": 20130807,
    "monthyear": 201308,
    "year": 2013,
    "fractiondate": "2013.5945",
    "eventcode": 141,
    "quadclass": 3,
    "nummentions": 2,
    "numsources": 1,
    "numarticles": 2,
    "avgtone": "2.06185567010309",
    "sourceurl": "http://www.wbko.com/news/headlines/Groups-to-Protest-Gas-Pipeline-at-KY-Capitol-218663181.html?ref=181",
    "feature_id": "517517",
    "feature_name": "Frankfort",
    "state_alpha": "KY",
    "county_name": "Franklin",
    "county_numeric": "073",
    "prim_lat_dec": "38.2009055",
    "prim_long_dec": "-84.8732836",
    "elev_in_m": "154",
    "elev_in_ft": "505",
    "lat": 38.2009055,
    "long": -84.8732836
  },
  {
    "globaleventid": 262364339,
    "sqldate": 20130807,
    "monthyear": 201308,
    "year": 2013,
    "fractiondate": "2013.5945",
    "eventcode": 100,
    "quadclass": 3,
    "nummentions": 6,
    "numsources": 1,
    "numarticles": 6,
    "avgtone": "1.32013201320132",
    "sourceurl": "http://www.huffingtonpost.com/2013/08/07/steve-king-global-warming_n_3719568.html",
    "feature_id": "456686",
    "feature_name": "Fort Dodge",
    "state_alpha": "IA",
    "county_name": "Webster",
    "county_numeric": "187",
    "prim_lat_dec": "42.4974694",
    "prim_long_dec": "-94.1680158",
    "elev_in_m": "339",
    "elev_in_ft": "1112",
    "lat": 42.4974694,
    "long": -94.1680158
  },
  {
    "globaleventid": 262364337,
    "sqldate": 20130807,
    "monthyear": 201308,
    "year": 2013,
    "fractiondate": "2013.5945",
    "eventcode": 141,
    "quadclass": 3,
    "nummentions": 2,
    "numsources": 1,
    "numarticles": 2,
    "avgtone": "2.06185567010309",
    "sourceurl": "http://www.wbko.com/news/headlines/Groups-to-Protest-Gas-Pipeline-at-KY-Capitol-218663181.html?ref=181",
    "feature_id": "517517",
    "feature_name": "Frankfort",
    "state_alpha": "KY",
    "county_name": "Franklin",
    "county_numeric": "073",
    "prim_lat_dec": "38.2009055",
    "prim_long_dec": "-84.8732836",
    "elev_in_m": "154",
    "elev_in_ft": "505",
    "lat": 38.2009055,
    "long": -84.8732836
  },
  {
    "globaleventid": 262364336,
    "sqldate": 20130807,
    "monthyear": 201308,
    "year": 2013,
    "fractiondate": "2013.5945",
    "eventcode": 141,
    "quadclass": 3,
    "nummentions": 4,
    "numsources": 1,
    "numarticles": 4,
    "avgtone": "2.06185567010309",
    "sourceurl": "http://www.wbko.com/news/headlines/Groups-to-Protest-Gas-Pipeline-at-KY-Capitol-218663181.html?ref=181",
    "feature_id": "517517",
    "feature_name": "Frankfort",
    "state_alpha": "KY",
    "county_name": "Franklin",
    "county_numeric": "073",
    "prim_lat_dec": "38.2009055",
    "prim_long_dec": "-84.8732836",
    "elev_in_m": "154",
    "elev_in_ft": "505",
    "lat": 38.2009055,
    "long": -84.8732836
  },
  {
    "globaleventid": 262364204,
    "sqldate": 20130807,
    "monthyear": 201308,
    "year": 2013,
    "fractiondate": "2013.5945",
    "eventcode": 173,
    "quadclass": 4,
    "nummentions": 4,
    "numsources": 1,
    "numarticles": 4,
    "avgtone": "2.17391304347826",
    "sourceurl": "http://www.theguardian.com/world/us-embassy-cables-documents/250311",
    "feature_id": "531871",
    "feature_name": "Washington",
    "state_alpha": "DC",
    "county_name": "District of Columbia",
    "county_numeric": "001",
    "prim_lat_dec": "38.8951118",
    "prim_long_dec": "-77.0363658",
    "elev_in_m": "7",
    "elev_in_ft": "23",
    "lat": 38.8951118,
    "long": -77.0363658
  },
  {
    "globaleventid": 262364198,
    "sqldate": 20130807,
    "monthyear": 201308,
    "year": 2013,
    "fractiondate": "2013.5945",
    "eventcode": 141,
    "quadclass": 3,
    "nummentions": 10,
    "numsources": 1,
    "numarticles": 10,
    "avgtone": "3.30788804071247",
    "sourceurl": "http://metrotimes.com/news/news-hits/dumb-lazy-detroiters-1.1532260",
    "feature_id": "1617959",
    "feature_name": "Detroit",
    "state_alpha": "MI",
    "county_name": "Wayne",
    "county_numeric": "163",
    "prim_lat_dec": "42.331427",
    "prim_long_dec": "-83.0457538",
    "elev_in_m": "182",
    "elev_in_ft": "597",
    "lat": 42.331427,
    "long": -83.0457538
  },
  {
    "globaleventid": 262364197,
    "sqldate": 20130807,
    "monthyear": 201308,
    "year": 2013,
    "fractiondate": "2013.5945",
    "eventcode": 111,
    "quadclass": 3,
    "nummentions": 10,
    "numsources": 1,
    "numarticles": 10,
    "avgtone": "3.30788804071247",
    "sourceurl": "http://metrotimes.com/news/news-hits/dumb-lazy-detroiters-1.1532260",
    "feature_id": "1617959",
    "feature_name": "Detroit",
    "state_alpha": "MI",
    "county_name": "Wayne",
    "county_numeric": "163",
    "prim_lat_dec": "42.331427",
    "prim_long_dec": "-83.0457538",
    "elev_in_m": "182",
    "elev_in_ft": "597",
    "lat": 42.331427,
    "long": -83.0457538
  },
  {
    "globaleventid": 262363757,
    "sqldate": 20130807,
    "monthyear": 201308,
    "year": 2013,
    "fractiondate": "2013.5945",
    "eventcode": 173,
    "quadclass": 4,
    "nummentions": 2,
    "numsources": 1,
    "numarticles": 2,
    "avgtone": "2.28690228690229",
    "sourceurl": "http://news.yahoo.com/accused-nj-white-supremacists-sentenced-attack-egyptian-men-205045890.html",
    "feature_id": "874413",
    "feature_name": "Atlantic City",
    "state_alpha": "NJ",
    "county_name": "Atlantic",
    "county_numeric": "001",
    "prim_lat_dec": "39.3642834",
    "prim_long_dec": "-74.4229266",
    "elev_in_m": "2",
    "elev_in_ft": "7",
    "lat": 39.3642834,
    "long": -74.4229266
  },
  {
    "globaleventid": 262363712,
    "sqldate": 20130807,
    "monthyear": 201308,
    "year": 2013,
    "fractiondate": "2013.5945",
    "eventcode": 193,
    "quadclass": 4,
    "nummentions": 2,
    "numsources": 1,
    "numarticles": 2,
    "avgtone": "0.0",
    "sourceurl": "http://www.wfmj.com/story/23074544/niles-man-who-shot-intruder-will-not-face-charges",
    "feature_id": "1065031",
    "feature_name": "Mineral Ridge",
    "state_alpha": "OH",
    "county_name": "Trumbull",
    "county_numeric": "155",
    "prim_lat_dec": "41.1400577",
    "prim_long_dec": "-80.768969",
    "elev_in_m": "306",
    "elev_in_ft": "1004",
    "lat": 41.1400577,
    "long": -80.768969
  },
  {
    "globaleventid": 262363711,
    "sqldate": 20130807,
    "monthyear": 201308,
    "year": 2013,
    "fractiondate": "2013.5945",
    "eventcode": 190,
    "quadclass": 4,
    "nummentions": 2,
    "numsources": 1,
    "numarticles": 2,
    "avgtone": "0.728155339805825",
    "sourceurl": "http://www.thedailyjournal.com/viewart/20130807/NEWS01/308070052/NJ-white-supremacists-sentenced-hate-crime",
    "feature_id": "881692",
    "feature_name": "West Collingswood",
    "state_alpha": "NJ",
    "county_name": "Camden",
    "county_numeric": "007",
    "prim_lat_dec": "39.9062242",
    "prim_long_dec": "-75.0929517",
    "elev_in_m": "8",
    "elev_in_ft": "26",
    "lat": 39.9062242,
    "long": -75.0929517
  },
  {
    "globaleventid": 262363704,
    "sqldate": 20130807,
    "monthyear": 201308,
    "year": 2013,
    "fractiondate": "2013.5945",
    "eventcode": 174,
    "quadclass": 4,
    "nummentions": 6,
    "numsources": 3,
    "numarticles": 6,
    "avgtone": "1.84854315557999",
    "sourceurl": "http://www.timesunion.com/news/crime/article/Suspect-in-Ala-terror-plot-changes-plea-to-guilty-4711797.php",
    "feature_id": "966966",
    "feature_name": "Syracuse",
    "state_alpha": "NY",
    "county_name": "Onondaga",
    "county_numeric": "067",
    "prim_lat_dec": "43.0481221",
    "prim_long_dec": "-76.1474244",
    "elev_in_m": "121",
    "elev_in_ft": "397",
    "lat": 43.0481221,
    "long": -76.1474244
  },
  {
    "globaleventid": 262363006,
    "sqldate": 20130807,
    "monthyear": 201308,
    "year": 2013,
    "fractiondate": "2013.5945",
    "eventcode": 140,
    "quadclass": 3,
    "nummentions": 8,
    "numsources": 1,
    "numarticles": 8,
    "avgtone": "3.26797385620915",
    "sourceurl": "http://english.ahram.org.eg/NewsContent/1/64/78589/Egypt/Politics-/US-embassy-in-Cairo-warns-nationals-about-possible.aspx",
    "feature_id": "531871",
    "feature_name": "Washington",
    "state_alpha": "DC",
    "county_name": "District of Columbia",
    "county_numeric": "001",
    "prim_lat_dec": "38.8951118",
    "prim_long_dec": "-77.0363658",
    "elev_in_m": "7",
    "elev_in_ft": "23",
    "lat": 38.8951118,
    "long": -77.0363658
  },
  {
    "globaleventid": 262362996,
    "sqldate": 20130807,
    "monthyear": 201308,
    "year": 2013,
    "fractiondate": "2013.5945",
    "eventcode": 110,
    "quadclass": 3,
    "nummentions": 1,
    "numsources": 1,
    "numarticles": 1,
    "avgtone": "5.08196721311475",
    "sourceurl": "http://www.washingtonpost.com/world/middle_east/clashes-between-pro-morsi-marchers-port-city-residents-kill-1-in-egypt/2013/08/07/a4f458c6-ff45-11e2-8294-0ee5075b840d_story.html",
    "feature_id": "531871",
    "feature_name": "Washington",
    "state_alpha": "DC",
    "county_name": "District of Columbia",
    "county_numeric": "001",
    "prim_lat_dec": "38.8951118",
    "prim_long_dec": "-77.0363658",
    "elev_in_m": "7",
    "elev_in_ft": "23",
    "lat": 38.8951118,
    "long": -77.0363658
  },
  {
    "globaleventid": 262362600,
    "sqldate": 20130807,
    "monthyear": 201308,
    "year": 2013,
    "fractiondate": "2013.5945",
    "eventcode": 115,
    "quadclass": 3,
    "nummentions": 6,
    "numsources": 3,
    "numarticles": 5,
    "avgtone": "1.53084721836444",
    "sourceurl": "http://www.sfgate.com/news/article/ACLU-sues-Ann-Arbor-schools-for-7th-hour-class-fee-4715132.php&c=YFQIFEKyX87A7orAifHDHWm7OGmG3eCEUngBa3nkMcc&mkt=en-us",
    "feature_id": "620133",
    "feature_name": "Ann Arbor",
    "state_alpha": "MI",
    "county_name": "Washtenaw",
    "county_numeric": "161",
    "prim_lat_dec": "42.2708716",
    "prim_long_dec": "-83.7263294",
    "elev_in_m": "268",
    "elev_in_ft": "879",
    "lat": 42.2708716,
    "long": -83.7263294
  },
  {
    "globaleventid": 262362596,
    "sqldate": 20130807,
    "monthyear": 201308,
    "year": 2013,
    "fractiondate": "2013.5945",
    "eventcode": 112,
    "quadclass": 3,
    "nummentions": 13,
    "numsources": 3,
    "numarticles": 9,
    "avgtone": "1.46864508646298",
    "sourceurl": "http://www.argus-press.com/news/state_news/article_def723bd-945e-56aa-a5e5-885c6ffbbb84.html",
    "feature_id": "620133",
    "feature_name": "Ann Arbor",
    "state_alpha": "MI",
    "county_name": "Washtenaw",
    "county_numeric": "161",
    "prim_lat_dec": "42.2708716",
    "prim_long_dec": "-83.7263294",
    "elev_in_m": "268",
    "elev_in_ft": "879",
    "lat": 42.2708716,
    "long": -83.7263294
  },
  {
    "globaleventid": 262362365,
    "sqldate": 20130807,
    "monthyear": 201308,
    "year": 2013,
    "fractiondate": "2013.5945",
    "eventcode": 162,
    "quadclass": 4,
    "nummentions": 2,
    "numsources": 1,
    "numarticles": 2,
    "avgtone": "2.85400658616905",
    "sourceurl": "http://www.philly.com/philly/news/local/20130807_Student_makes_the_case_for_increased_school_funding.html",
    "feature_id": "1209052",
    "feature_name": "Philadelphia",
    "state_alpha": "PA",
    "county_name": "Philadelphia",
    "county_numeric": "101",
    "prim_lat_dec": "39.952335",
    "prim_long_dec": "-75.163789",
    "elev_in_m": "14",
    "elev_in_ft": "46",
    "lat": 39.952335,
    "long": -75.163789
  },
  {
    "globaleventid": 262362364,
    "sqldate": 20130807,
    "monthyear": 201308,
    "year": 2013,
    "fractiondate": "2013.5945",
    "eventcode": 162,
    "quadclass": 4,
    "nummentions": 4,
    "numsources": 1,
    "numarticles": 4,
    "avgtone": "2.85400658616905",
    "sourceurl": "http://www.philly.com/philly/news/local/20130807_Student_makes_the_case_for_increased_school_funding.html",
    "feature_id": "1175992",
    "feature_name": "Graterford",
    "state_alpha": "PA",
    "county_name": "Montgomery",
    "county_numeric": "091",
    "prim_lat_dec": "40.2256585",
    "prim_long_dec": "-75.454623",
    "elev_in_m": "45",
    "elev_in_ft": "148",
    "lat": 40.2256585,
    "long": -75.454623
  },
  {
    "globaleventid": 262362361,
    "sqldate": 20130807,
    "monthyear": 201308,
    "year": 2013,
    "fractiondate": "2013.5945",
    "eventcode": 193,
    "quadclass": 4,
    "nummentions": 6,
    "numsources": 2,
    "numarticles": 4,
    "avgtone": "3.70831283342498",
    "sourceurl": "http://www.dailycomet.com/article/20130807/articles/130809694",
    "feature_id": "210639",
    "feature_name": "Sandy Hook",
    "state_alpha": "CT",
    "county_name": "Fairfield",
    "county_numeric": "001",
    "prim_lat_dec": "41.4200956",
    "prim_long_dec": "-73.2820608",
    "elev_in_m": "72",
    "elev_in_ft": "236",
    "lat": 41.4200956,
    "long": -73.2820608
  },
  {
    "globaleventid": 262362360,
    "sqldate": 20130807,
    "monthyear": 201308,
    "year": 2013,
    "fractiondate": "2013.5945",
    "eventcode": 193,
    "quadclass": 4,
    "nummentions": 1,
    "numsources": 1,
    "numarticles": 1,
    "avgtone": "3.6697247706422",
    "sourceurl": "http://www.houmatoday.com/article/20130807/articles/130809694",
    "feature_id": "210639",
    "feature_name": "Sandy Hook",
    "state_alpha": "CT",
    "county_name": "Fairfield",
    "county_numeric": "001",
    "prim_lat_dec": "41.4200956",
    "prim_long_dec": "-73.2820608",
    "elev_in_m": "72",
    "elev_in_ft": "236",
    "lat": 41.4200956,
    "long": -73.2820608
  },
  {
    "globaleventid": 262362348,
    "sqldate": 20130807,
    "monthyear": 201308,
    "year": 2013,
    "fractiondate": "2013.5945",
    "eventcode": 182,
    "quadclass": 4,
    "nummentions": 2,
    "numsources": 1,
    "numarticles": 2,
    "avgtone": "0.0",
    "sourceurl": "http://www.wzzm13.com/news/article/264064/2/3-seriously-hurt-in-wrong-way-DUI-crash-near-GVSU",
    "feature_id": "623797",
    "feature_name": "Coopersville",
    "state_alpha": "MI",
    "county_name": "Ottawa",
    "county_numeric": "139",
    "prim_lat_dec": "43.0639112",
    "prim_long_dec": "-85.9347667",
    "elev_in_m": "195",
    "elev_in_ft": "640",
    "lat": 43.0639112,
    "long": -85.9347667
  },
  {
    "globaleventid": 262362347,
    "sqldate": 20130807,
    "monthyear": 201308,
    "year": 2013,
    "fractiondate": "2013.5945",
    "eventcode": 180,
    "quadclass": 4,
    "nummentions": 2,
    "numsources": 1,
    "numarticles": 2,
    "avgtone": "1.15532734274711",
    "sourceurl": "http://blogs.sacbee.com/report-card/2013/08/arsonists-damage-two-sacramento-school-playgrounds.html",
    "feature_id": "1659564",
    "feature_name": "Sacramento",
    "state_alpha": "CA",
    "county_name": "Sacramento",
    "county_numeric": "067",
    "prim_lat_dec": "38.5815719",
    "prim_long_dec": "-121.4943996",
    "elev_in_m": "8",
    "elev_in_ft": "26",
    "lat": 38.5815719,
    "long": -121.4943996
  },
  {
    "globaleventid": 262362346,
    "sqldate": 20130807,
    "monthyear": 201308,
    "year": 2013,
    "fractiondate": "2013.5945",
    "eventcode": 180,
    "quadclass": 4,
    "nummentions": 2,
    "numsources": 1,
    "numarticles": 2,
    "avgtone": "1.15532734274711",
    "sourceurl": "http://blogs.sacbee.com/report-card/2013/08/arsonists-damage-two-sacramento-school-playgrounds.html",
    "feature_id": "1659564",
    "feature_name": "Sacramento",
    "state_alpha": "CA",
    "county_name": "Sacramento",
    "county_numeric": "067",
    "prim_lat_dec": "38.5815719",
    "prim_long_dec": "-121.4943996",
    "elev_in_m": "8",
    "elev_in_ft": "26",
    "lat": 38.5815719,
    "long": -121.4943996
  },
  {
    "globaleventid": 262362345,
    "sqldate": 20130807,
    "monthyear": 201308,
    "year": 2013,
    "fractiondate": "2013.5945",
    "eventcode": 180,
    "quadclass": 4,
    "nummentions": 2,
    "numsources": 1,
    "numarticles": 2,
    "avgtone": "1.15532734274711",
    "sourceurl": "http://blogs.sacbee.com/report-card/2013/08/arsonists-damage-two-sacramento-school-playgrounds.html",
    "feature_id": "1659564",
    "feature_name": "Sacramento",
    "state_alpha": "CA",
    "county_name": "Sacramento",
    "county_numeric": "067",
    "prim_lat_dec": "38.5815719",
    "prim_long_dec": "-121.4943996",
    "elev_in_m": "8",
    "elev_in_ft": "26",
    "lat": 38.5815719,
    "long": -121.4943996
  },
  {
    "globaleventid": 262362342,
    "sqldate": 20130807,
    "monthyear": 201308,
    "year": 2013,
    "fractiondate": "2013.5945",
    "eventcode": 173,
    "quadclass": 4,
    "nummentions": 2,
    "numsources": 1,
    "numarticles": 2,
    "avgtone": "2.74390243902439",
    "sourceurl": "http://novi.patch.com/groups/police-and-fire/p/exnovi-principal-gets-probation-for-drunk-driving",
    "feature_id": "621987",
    "feature_name": "Brighton",
    "state_alpha": "MI",
    "county_name": "Livingston",
    "county_numeric": "093",
    "prim_lat_dec": "42.5294773",
    "prim_long_dec": "-83.7802214",
    "elev_in_m": "282",
    "elev_in_ft": "925",
    "lat": 42.5294773,
    "long": -83.7802214
  },
  {
    "globaleventid": 262362340,
    "sqldate": 20130807,
    "monthyear": 201308,
    "year": 2013,
    "fractiondate": "2013.5945",
    "eventcode": 173,
    "quadclass": 4,
    "nummentions": 10,
    "numsources": 1,
    "numarticles": 10,
    "avgtone": "2.57234726688103",
    "sourceurl": "http://www.620wtmj.com/news/local/School-board-to-discuss-member-convicted-of-underage-drinking-party-218670721.html",
    "feature_id": "1577901",
    "feature_name": "Milwaukee",
    "state_alpha": "WI",
    "county_name": "Milwaukee",
    "county_numeric": "079",
    "prim_lat_dec": "43.0389025",
    "prim_long_dec": "-87.9064736",
    "elev_in_m": "187",
    "elev_in_ft": "614",
    "lat": 43.0389025,
    "long": -87.9064736
  },
  {
    "globaleventid": 262362339,
    "sqldate": 20130807,
    "monthyear": 201308,
    "year": 2013,
    "fractiondate": "2013.5945",
    "eventcode": 173,
    "quadclass": 4,
    "nummentions": 1,
    "numsources": 1,
    "numarticles": 1,
    "avgtone": "2.76315789473684",
    "sourceurl": "http://www.washingtonpost.com/local/prince-william-showcases-its-historic-sites/2013/08/06/bb9f79f8-fe22-11e2-96a8-d3b921c0924a_story.html",
    "feature_id": "1498512",
    "feature_name": "Manassas",
    "state_alpha": "VA",
    "county_name": "Manassas (city)",
    "county_numeric": "683",
    "prim_lat_dec": "38.7509488",
    "prim_long_dec": "-77.4752667",
    "elev_in_m": "94",
    "elev_in_ft": "308",
    "lat": 38.7509488,
    "long": -77.4752667
  },
  {
    "globaleventid": 262362337,
    "sqldate": 20130807,
    "monthyear": 201308,
    "year": 2013,
    "fractiondate": "2013.5945",
    "eventcode": 173,
    "quadclass": 4,
    "nummentions": 4,
    "numsources": 1,
    "numarticles": 4,
    "avgtone": "0.733496332518337",
    "sourceurl": "http://www.centraljersey.com/articles/2013/08/07/hopewell_valley_news/news/doc51f945208decb713416188.txt",
    "feature_id": "1204826",
    "feature_name": "Trenton",
    "state_alpha": "PA",
    "county_name": "Schuylkill",
    "county_numeric": "107",
    "prim_lat_dec": "40.8381432",
    "prim_long_dec": "-76.0904885",
    "elev_in_m": "492",
    "elev_in_ft": "1614",
    "lat": 40.8381432,
    "long": -76.0904885
  },
  {
    "globaleventid": 262362332,
    "sqldate": 20130807,
    "monthyear": 201308,
    "year": 2013,
    "fractiondate": "2013.5945",
    "eventcode": 172,
    "quadclass": 4,
    "nummentions": 20,
    "numsources": 1,
    "numarticles": 20,
    "avgtone": "2.04081632653061",
    "sourceurl": "http://www.detroitnews.com/article/20130807/SCHOOLS/308070050/1361/Romeo-school-district-parent-upset-over-nut-ban-loses-lawsuit",
    "feature_id": "631290",
    "feature_name": "Macomb",
    "state_alpha": "MI",
    "county_name": "Macomb",
    "county_numeric": "099",
    "prim_lat_dec": "42.7008653",
    "prim_long_dec": "-82.9590938",
    "elev_in_m": "191",
    "elev_in_ft": "627",
    "lat": 42.7008653,
    "long": -82.9590938
  },
  {
    "globaleventid": 262362330,
    "sqldate": 20130807,
    "monthyear": 201308,
    "year": 2013,
    "fractiondate": "2013.5945",
    "eventcode": 172,
    "quadclass": 4,
    "nummentions": 4,
    "numsources": 1,
    "numarticles": 4,
    "avgtone": "1.26050420168067",
    "sourceurl": "http://whnt.com/2013/08/07/northwest-shoals-going-smoke-free-on-campuses/",
    "feature_id": "152574",
    "feature_name": "Muscle Shoals",
    "state_alpha": "AL",
    "county_name": "Colbert",
    "county_numeric": "033",
    "prim_lat_dec": "34.7448112",
    "prim_long_dec": "-87.6675292",
    "elev_in_m": "153",
    "elev_in_ft": "502",
    "lat": 34.7448112,
    "long": -87.6675292
  },
  {
    "globaleventid": 262362329,
    "sqldate": 20130807,
    "monthyear": 201308,
    "year": 2013,
    "fractiondate": "2013.5945",
    "eventcode": 172,
    "quadclass": 4,
    "nummentions": 6,
    "numsources": 1,
    "numarticles": 6,
    "avgtone": "1.26050420168067",
    "sourceurl": "http://whnt.com/2013/08/07/northwest-shoals-going-smoke-free-on-campuses/",
    "feature_id": "124673",
    "feature_name": "Phil Campbell",
    "state_alpha": "AL",
    "county_name": "Franklin",
    "county_numeric": "059",
    "prim_lat_dec": "34.3509299",
    "prim_long_dec": "-87.706418",
    "elev_in_m": "312",
    "elev_in_ft": "1024",
    "lat": 34.3509299,
    "long": -87.706418
  },
  {
    "globaleventid": 262362328,
    "sqldate": 20130807,
    "monthyear": 201308,
    "year": 2013,
    "fractiondate": "2013.5945",
    "eventcode": 172,
    "quadclass": 4,
    "nummentions": 4,
    "numsources": 1,
    "numarticles": 4,
    "avgtone": "2.6865671641791",
    "sourceurl": "http://www.huffingtonpost.com/2013/08/07/unc-gender-neutral-housing_n_3714907.html",
    "feature_id": "1019601",
    "feature_name": "Chapel Hill",
    "state_alpha": "NC",
    "county_name": "Madison",
    "county_numeric": "115",
    "prim_lat_dec": "35.9428828",
    "prim_long_dec": "-82.7087517",
    "elev_in_m": "658",
    "elev_in_ft": "2159",
    "lat": 35.9428828,
    "long": -82.7087517
  },
  {
    "globaleventid": 262362324,
    "sqldate": 20130807,
    "monthyear": 201308,
    "year": 2013,
    "fractiondate": "2013.5945",
    "eventcode": 128,
    "quadclass": 3,
    "nummentions": 1,
    "numsources": 1,
    "numarticles": 1,
    "avgtone": "0.689655172413793",
    "sourceurl": "http://www.nypost.com/p/news/local/bronx/revealed_posh_school_sex_vic_deal_OdaAAMWh0BexDCeU8N6RyK",
    "feature_id": "869508",
    "feature_name": "Riverdale",
    "state_alpha": "NH",
    "county_name": "Hillsborough",
    "county_numeric": "011",
    "prim_lat_dec": "43.0320271",
    "prim_long_dec": "-71.6450728",
    "elev_in_m": "93",
    "elev_in_ft": "305",
    "lat": 43.0320271,
    "long": -71.6450728
  },
  {
    "globaleventid": 262362322,
    "sqldate": 20130807,
    "monthyear": 201308,
    "year": 2013,
    "fractiondate": "2013.5945",
    "eventcode": 128,
    "quadclass": 3,
    "nummentions": 1,
    "numsources": 1,
    "numarticles": 1,
    "avgtone": "0.689655172413793",
    "sourceurl": "http://www.nypost.com/p/news/local/bronx/revealed_posh_school_sex_vic_deal_OdaAAMWh0BexDCeU8N6RyK",
    "feature_id": "869508",
    "feature_name": "Riverdale",
    "state_alpha": "NH",
    "county_name": "Hillsborough",
    "county_numeric": "011",
    "prim_lat_dec": "43.0320271",
    "prim_long_dec": "-71.6450728",
    "elev_in_m": "93",
    "elev_in_ft": "305",
    "lat": 43.0320271,
    "long": -71.6450728
  },
  {
    "globaleventid": 262362319,
    "sqldate": 20130807,
    "monthyear": 201308,
    "year": 2013,
    "fractiondate": "2013.5945",
    "eventcode": 120,
    "quadclass": 3,
    "nummentions": 2,
    "numsources": 1,
    "numarticles": 2,
    "avgtone": "1.85185185185185",
    "sourceurl": "http://theadvocate.com/home/6710065-125/two-charter-schools-on-lafayette",
    "feature_id": "558348",
    "feature_name": "Youngsville",
    "state_alpha": "LA",
    "county_name": "Lafayette",
    "county_numeric": "055",
    "prim_lat_dec": "30.0996471",
    "prim_long_dec": "-91.9901206",
    "elev_in_m": "9",
    "elev_in_ft": "30",
    "lat": 30.0996471,
    "long": -91.9901206
  },
  {
    "globaleventid": 262362318,
    "sqldate": 20130807,
    "monthyear": 201308,
    "year": 2013,
    "fractiondate": "2013.5945",
    "eventcode": 120,
    "quadclass": 3,
    "nummentions": 1,
    "numsources": 1,
    "numarticles": 1,
    "avgtone": "1.28205128205128",
    "sourceurl": "http://www.ctpost.com/local/article/Arbitrage-fines-possible-for-Trumbull-4716131.php",
    "feature_id": "210639",
    "feature_name": "Sandy Hook",
    "state_alpha": "CT",
    "county_name": "Fairfield",
    "county_numeric": "001",
    "prim_lat_dec": "41.4200956",
    "prim_long_dec": "-73.2820608",
    "elev_in_m": "72",
    "elev_in_ft": "236",
    "lat": 41.4200956,
    "long": -73.2820608
  },
  {
    "globaleventid": 262362317,
    "sqldate": 20130807,
    "monthyear": 201308,
    "year": 2013,
    "fractiondate": "2013.5945",
    "eventcode": 120,
    "quadclass": 3,
    "nummentions": 1,
    "numsources": 1,
    "numarticles": 1,
    "avgtone": "1.28205128205128",
    "sourceurl": "http://www.ctpost.com/local/article/Arbitrage-fines-possible-for-Trumbull-4716131.php",
    "feature_id": "210639",
    "feature_name": "Sandy Hook",
    "state_alpha": "CT",
    "county_name": "Fairfield",
    "county_numeric": "001",
    "prim_lat_dec": "41.4200956",
    "prim_long_dec": "-73.2820608",
    "elev_in_m": "72",
    "elev_in_ft": "236",
    "lat": 41.4200956,
    "long": -73.2820608
  },
  {
    "globaleventid": 262362314,
    "sqldate": 20130807,
    "monthyear": 201308,
    "year": 2013,
    "fractiondate": "2013.5945",
    "eventcode": 120,
    "quadclass": 3,
    "nummentions": 2,
    "numsources": 1,
    "numarticles": 2,
    "avgtone": "1.61166538756715",
    "sourceurl": "http://www.wm.edu/news/stories/2013/bray-school-search-finds-something-even-older-123.php",
    "feature_id": "1498551",
    "feature_name": "Williamsburg",
    "state_alpha": "VA",
    "county_name": "Williamsburg (city)",
    "county_numeric": "830",
    "prim_lat_dec": "37.2707022",
    "prim_long_dec": "-76.7074571",
    "elev_in_m": "26",
    "elev_in_ft": "85",
    "lat": 37.2707022,
    "long": -76.7074571
  },
  {
    "globaleventid": 262362310,
    "sqldate": 20130807,
    "monthyear": 201308,
    "year": 2013,
    "fractiondate": "2013.5945",
    "eventcode": 114,
    "quadclass": 3,
    "nummentions": 2,
    "numsources": 1,
    "numarticles": 2,
    "avgtone": "0.645161290322581",
    "sourceurl": "http://newyork.cbslocal.com/2013/08/07/12-plaintiffs-join-lawsuit-alleging-sex-abuse-at-yeshiva-university-high-school/",
    "feature_id": "944840",
    "feature_name": "Brooklyn",
    "state_alpha": "NY",
    "county_name": "Delaware",
    "county_numeric": "025",
    "prim_lat_dec": "42.3442482",
    "prim_long_dec": "-75.1704468",
    "elev_in_m": "366",
    "elev_in_ft": "1201",
    "lat": 42.3442482,
    "long": -75.1704468
  },
  {
    "globaleventid": 262362304,
    "sqldate": 20130807,
    "monthyear": 201308,
    "year": 2013,
    "fractiondate": "2013.5945",
    "eventcode": 112,
    "quadclass": 3,
    "nummentions": 2,
    "numsources": 1,
    "numarticles": 2,
    "avgtone": "0.689655172413793",
    "sourceurl": "http://www.nypost.com/p/news/local/bronx/revealed_posh_school_sex_vic_deal_OdaAAMWh0BexDCeU8N6RyK",
    "feature_id": "869508",
    "feature_name": "Riverdale",
    "state_alpha": "NH",
    "county_name": "Hillsborough",
    "county_numeric": "011",
    "prim_lat_dec": "43.0320271",
    "prim_long_dec": "-71.6450728",
    "elev_in_m": "93",
    "elev_in_ft": "305",
    "lat": 43.0320271,
    "long": -71.6450728
  },
  {
    "globaleventid": 262362303,
    "sqldate": 20130807,
    "monthyear": 201308,
    "year": 2013,
    "fractiondate": "2013.5945",
    "eventcode": 112,
    "quadclass": 3,
    "nummentions": 4,
    "numsources": 1,
    "numarticles": 4,
    "avgtone": "0.413223140495868",
    "sourceurl": "http://fox59.com/2013/08/07/scandals-on-state-board-of-education-agenda/",
    "feature_id": "531871",
    "feature_name": "Washington",
    "state_alpha": "DC",
    "county_name": "District of Columbia",
    "county_numeric": "001",
    "prim_lat_dec": "38.8951118",
    "prim_long_dec": "-77.0363658",
    "elev_in_m": "7",
    "elev_in_ft": "23",
    "lat": 38.8951118,
    "long": -77.0363658
  },
  {
    "globaleventid": 262362302,
    "sqldate": 20130807,
    "monthyear": 201308,
    "year": 2013,
    "fractiondate": "2013.5945",
    "eventcode": 112,
    "quadclass": 3,
    "nummentions": 1,
    "numsources": 1,
    "numarticles": 1,
    "avgtone": "1.82054616384915",
    "sourceurl": "http://eon.businesswire.com/news/eon/20130807006619/en/Boy-Scout-sexual-abuse/prolific-molester/Thomas-Hacker",
    "feature_id": "423587",
    "feature_name": "Chicago",
    "state_alpha": "IL",
    "county_name": "Cook",
    "county_numeric": "031",
    "prim_lat_dec": "41.850033",
    "prim_long_dec": "-87.6500523",
    "elev_in_m": "179",
    "elev_in_ft": "587",
    "lat": 41.850033,
    "long": -87.6500523
  },
  {
    "globaleventid": 262362293,
    "sqldate": 20130807,
    "monthyear": 201308,
    "year": 2013,
    "fractiondate": "2013.5945",
    "eventcode": 110,
    "quadclass": 3,
    "nummentions": 4,
    "numsources": 1,
    "numarticles": 4,
    "avgtone": "3.17460317460317",
    "sourceurl": "http://www.alamogordonews.com/news/ci_23817390/status-nmsu-nursing-program-muddled-beyond-spring-2014&c=iF5yG7FFEFb4rac-v5X8tOZufFIM5izktjxv01LEV3Y&mkt=en-us",
    "feature_id": "903054",
    "feature_name": "Alamogordo",
    "state_alpha": "NM",
    "county_name": "Otero",
    "county_numeric": "035",
    "prim_lat_dec": "32.8995325",
    "prim_long_dec": "-105.960265",
    "elev_in_m": "1323",
    "elev_in_ft": "4340",
    "lat": 32.8995325,
    "long": -105.960265
  },
  {
    "globaleventid": 262362292,
    "sqldate": 20130807,
    "monthyear": 201308,
    "year": 2013,
    "fractiondate": "2013.5945",
    "eventcode": 110,
    "quadclass": 3,
    "nummentions": 2,
    "numsources": 1,
    "numarticles": 2,
    "avgtone": "2.8184892897407",
    "sourceurl": "http://www.dickinsoncountynews.com/story/1991769.html",
    "feature_id": "461851",
    "feature_name": "Spirit Lake",
    "state_alpha": "IA",
    "county_name": "Dickinson",
    "county_numeric": "059",
    "prim_lat_dec": "43.4221843",
    "prim_long_dec": "-95.1022169",
    "elev_in_m": "449",
    "elev_in_ft": "1473",
    "lat": 43.4221843,
    "long": -95.1022169
  },
  {
    "globaleventid": 262362290,
    "sqldate": 20130807,
    "monthyear": 201308,
    "year": 2013,
    "fractiondate": "2013.5945",
    "eventcode": 110,
    "quadclass": 3,
    "nummentions": 10,
    "numsources": 1,
    "numarticles": 10,
    "avgtone": "1.72579098753595",
    "sourceurl": "http://www.sacbee.com/2013/08/07/5629507/lodi-schools-to-require-student.html",
    "feature_id": "1659564",
    "feature_name": "Sacramento",
    "state_alpha": "CA",
    "county_name": "Sacramento",
    "county_numeric": "067",
    "prim_lat_dec": "38.5815719",
    "prim_long_dec": "-121.4943996",
    "elev_in_m": "8",
    "elev_in_ft": "26",
    "lat": 38.5815719,
    "long": -121.4943996
  },
  {
    "globaleventid": 262362289,
    "sqldate": 20130807,
    "monthyear": 201308,
    "year": 2013,
    "fractiondate": "2013.5945",
    "eventcode": 110,
    "quadclass": 3,
    "nummentions": 1,
    "numsources": 1,
    "numarticles": 1,
    "avgtone": "5.51654964894684",
    "sourceurl": "http://www.washingtonblade.com/2013/08/07/virginia-marriage-lawsuit-about-equal-protection/",
    "feature_id": "1497051",
    "feature_name": "Norfolk",
    "state_alpha": "VA",
    "county_name": "Norfolk (city)",
    "county_numeric": "710",
    "prim_lat_dec": "36.8468146",
    "prim_long_dec": "-76.2852183",
    "elev_in_m": "3",
    "elev_in_ft": "10",
    "lat": 36.8468146,
    "long": -76.2852183
  },
  {
    "globaleventid": 262362288,
    "sqldate": 20130807,
    "monthyear": 201308,
    "year": 2013,
    "fractiondate": "2013.5945",
    "eventcode": 110,
    "quadclass": 3,
    "nummentions": 2,
    "numsources": 1,
    "numarticles": 2,
    "avgtone": "4.61997019374069",
    "sourceurl": "http://dailysoutherner.com/x1981930107/First-day-for-NECP",
    "feature_id": "1022368",
    "feature_name": "Rocky Mount",
    "state_alpha": "NC",
    "county_name": "Nash",
    "county_numeric": "127",
    "prim_lat_dec": "35.9382103",
    "prim_long_dec": "-77.790534",
    "elev_in_m": "30",
    "elev_in_ft": "98",
    "lat": 35.9382103,
    "long": -77.790534
  },
  {
    "globaleventid": 262362285,
    "sqldate": 20130807,
    "monthyear": 201308,
    "year": 2013,
    "fractiondate": "2013.5945",
    "eventcode": 100,
    "quadclass": 3,
    "nummentions": 1,
    "numsources": 1,
    "numarticles": 1,
    "avgtone": "3.04928989139515",
    "sourceurl": "http://news.heartland.org/editorial/2013/08/07/distortions-and-reality-about-income-mobility?quicktabs_4=1&c=YRtVAR0h4NuAtFaR5jER7L_kq_H2OP1bNVV7pEx70MU&mkt=en-us",
    "feature_id": "617565",
    "feature_name": "Boston",
    "state_alpha": "MA",
    "county_name": "Suffolk",
    "county_numeric": "025",
    "prim_lat_dec": "42.3584308",
    "prim_long_dec": "-71.0597732",
    "elev_in_m": "14",
    "elev_in_ft": "46",
    "lat": 42.3584308,
    "long": -71.0597732
  },
  {
    "globaleventid": 262362284,
    "sqldate": 20130807,
    "monthyear": 201308,
    "year": 2013,
    "fractiondate": "2013.5945",
    "eventcode": 100,
    "quadclass": 3,
    "nummentions": 1,
    "numsources": 1,
    "numarticles": 1,
    "avgtone": "3.04928989139515",
    "sourceurl": "http://news.heartland.org/editorial/2013/08/07/distortions-and-reality-about-income-mobility?quicktabs_4=1&c=YRtVAR0h4NuAtFaR5jER7L_kq_H2OP1bNVV7pEx70MU&mkt=en-us",
    "feature_id": "1657962",
    "feature_name": "Atlanta",
    "state_alpha": "CA",
    "county_name": "San Joaquin",
    "county_numeric": "077",
    "prim_lat_dec": "37.8129826",
    "prim_long_dec": "-121.1207729",
    "elev_in_m": "19",
    "elev_in_ft": "62",
    "lat": 37.8129826,
    "long": -121.1207729
  },
  {
    "globaleventid": 262361367,
    "sqldate": 20130807,
    "monthyear": 201308,
    "year": 2013,
    "fractiondate": "2013.5945",
    "eventcode": 192,
    "quadclass": 4,
    "nummentions": 5,
    "numsources": 1,
    "numarticles": 5,
    "avgtone": "3.25814536340852",
    "sourceurl": "http://www.boston.com/lifestyle/health/blogs/daily-dose/2013/08/05/weekly-challenge-make-sure-kids-heading-off-college-are-date-vaccinations/dyWzNt8DhEvJ4nVVdIjG9L/blog.html",
    "feature_id": "617565",
    "feature_name": "Boston",
    "state_alpha": "MA",
    "county_name": "Suffolk",
    "county_numeric": "025",
    "prim_lat_dec": "42.3584308",
    "prim_long_dec": "-71.0597732",
    "elev_in_m": "14",
    "elev_in_ft": "46",
    "lat": 42.3584308,
    "long": -71.0597732
  },
  {
    "globaleventid": 262361302,
    "sqldate": 20130807,
    "monthyear": 201308,
    "year": 2013,
    "fractiondate": "2013.5945",
    "eventcode": 172,
    "quadclass": 4,
    "nummentions": 4,
    "numsources": 1,
    "numarticles": 4,
    "avgtone": "2.6865671641791",
    "sourceurl": "http://www.huffingtonpost.com/2013/08/07/unc-gender-neutral-housing_n_3714907.html",
    "feature_id": "1005554",
    "feature_name": "Carolina",
    "state_alpha": "NC",
    "county_name": "Gaston",
    "county_numeric": "071",
    "prim_lat_dec": "35.3884665",
    "prim_long_dec": "-81.3714737",
    "elev_in_m": "284",
    "elev_in_ft": "932",
    "lat": 35.3884665,
    "long": -81.3714737
  },
  {
    "globaleventid": 262361294,
    "sqldate": 20130807,
    "monthyear": 201308,
    "year": 2013,
    "fractiondate": "2013.5945",
    "eventcode": 110,
    "quadclass": 3,
    "nummentions": 2,
    "numsources": 1,
    "numarticles": 2,
    "avgtone": "2.6865671641791",
    "sourceurl": "http://www.huffingtonpost.com/2013/08/07/unc-gender-neutral-housing_n_3714907.html",
    "feature_id": "1019601",
    "feature_name": "Chapel Hill",
    "state_alpha": "NC",
    "county_name": "Madison",
    "county_numeric": "115",
    "prim_lat_dec": "35.9428828",
    "prim_long_dec": "-82.7087517",
    "elev_in_m": "658",
    "elev_in_ft": "2159",
    "lat": 35.9428828,
    "long": -82.7087517
  },
  {
    "globaleventid": 262361102,
    "sqldate": 20130807,
    "monthyear": 201308,
    "year": 2013,
    "fractiondate": "2013.5945",
    "eventcode": 120,
    "quadclass": 3,
    "nummentions": 2,
    "numsources": 1,
    "numarticles": 2,
    "avgtone": "2.82352941176471",
    "sourceurl": "http://www.homelandsecuritynewswire.com/dr20130807-eightysix-collegiate-teams-compete-for-the-best-car-design-and-build",
    "feature_id": "531871",
    "feature_name": "Washington",
    "state_alpha": "DC",
    "county_name": "District of Columbia",
    "county_numeric": "001",
    "prim_lat_dec": "38.8951118",
    "prim_long_dec": "-77.0363658",
    "elev_in_m": "7",
    "elev_in_ft": "23",
    "lat": 38.8951118,
    "long": -77.0363658
  },
  {
    "globaleventid": 262361101,
    "sqldate": 20130807,
    "monthyear": 201308,
    "year": 2013,
    "fractiondate": "2013.5945",
    "eventcode": 114,
    "quadclass": 3,
    "nummentions": 30,
    "numsources": 3,
    "numarticles": 30,
    "avgtone": "1.19083814735989",
    "sourceurl": "http://www.newstimes.com/news/crime/article/NYC-school-sues-insurers-to-cover-abuse-liability-4713283.php&c=BA4fF0TnDiFVSXoAH-Bj4CrbZlnKd5oUxIg9Xp3kBro&mkt=en-us",
    "feature_id": "971945",
    "feature_name": "Manhattan",
    "state_alpha": "NY",
    "county_name": "New York",
    "county_numeric": "061",
    "prim_lat_dec": "40.7834345",
    "prim_long_dec": "-73.9662495",
    "elev_in_m": "35",
    "elev_in_ft": "115",
    "lat": 40.7834345,
    "long": -73.9662495
  },
  {
    "globaleventid": 262361013,
    "sqldate": 20130807,
    "monthyear": 201308,
    "year": 2013,
    "fractiondate": "2013.5945",
    "eventcode": 162,
    "quadclass": 4,
    "nummentions": 1,
    "numsources": 1,
    "numarticles": 1,
    "avgtone": "2.85400658616905",
    "sourceurl": "http://www.philly.com/philly/news/local/20130807_Student_makes_the_case_for_increased_school_funding.html",
    "feature_id": "1175992",
    "feature_name": "Graterford",
    "state_alpha": "PA",
    "county_name": "Montgomery",
    "county_numeric": "091",
    "prim_lat_dec": "40.2256585",
    "prim_long_dec": "-75.454623",
    "elev_in_m": "45",
    "elev_in_ft": "148",
    "lat": 40.2256585,
    "long": -75.454623
  },
  {
    "globaleventid": 262360986,
    "sqldate": 20130807,
    "monthyear": 201308,
    "year": 2013,
    "fractiondate": "2013.5945",
    "eventcode": 130,
    "quadclass": 3,
    "nummentions": 2,
    "numsources": 1,
    "numarticles": 2,
    "avgtone": "4.71950133570792",
    "sourceurl": "http://mainlinemedianews.com/articles/2013/08/07/main_line_suburban_life/news/doc52010c7dd60f5512716586.txt",
    "feature_id": "1190374",
    "feature_name": "Venango",
    "state_alpha": "PA",
    "county_name": "Crawford",
    "county_numeric": "039",
    "prim_lat_dec": "41.7725563",
    "prim_long_dec": "-80.1131125",
    "elev_in_m": "347",
    "elev_in_ft": "1138",
    "lat": 41.7725563,
    "long": -80.1131125
  },
  {
    "globaleventid": 262360985,
    "sqldate": 20130807,
    "monthyear": 201308,
    "year": 2013,
    "fractiondate": "2013.5945",
    "eventcode": 130,
    "quadclass": 3,
    "nummentions": 2,
    "numsources": 1,
    "numarticles": 2,
    "avgtone": "4.71950133570792",
    "sourceurl": "http://mainlinemedianews.com/articles/2013/08/07/main_line_suburban_life/news/doc52010c7dd60f5512716586.txt",
    "feature_id": "1065158",
    "feature_name": "Norristown",
    "state_alpha": "OH",
    "county_name": "Carroll",
    "county_numeric": "019",
    "prim_lat_dec": "40.6653386",
    "prim_long_dec": "-80.951478",
    "elev_in_m": "344",
    "elev_in_ft": "1129",
    "lat": 40.6653386,
    "long": -80.951478
  },
  {
    "globaleventid": 262360952,
    "sqldate": 20130807,
    "monthyear": 201308,
    "year": 2013,
    "fractiondate": "2013.5945",
    "eventcode": 112,
    "quadclass": 3,
    "nummentions": 1,
    "numsources": 1,
    "numarticles": 1,
    "avgtone": "4.36681222707424",
    "sourceurl": "http://www.prweb.com/releases/2013/8/prweb10997844.htm",
    "feature_id": "283720",
    "feature_name": "Harbor Village",
    "state_alpha": "FL",
    "county_name": "Broward",
    "county_numeric": "011",
    "prim_lat_dec": "26.2378596",
    "prim_long_dec": "-80.0955991",
    "elev_in_m": "0",
    "elev_in_ft": "0",
    "lat": 26.2378596,
    "long": -80.0955991
  },
  {
    "globaleventid": 262360951,
    "sqldate": 20130807,
    "monthyear": 201308,
    "year": 2013,
    "fractiondate": "2013.5945",
    "eventcode": 112,
    "quadclass": 3,
    "nummentions": 3,
    "numsources": 1,
    "numarticles": 3,
    "avgtone": "4.36681222707424",
    "sourceurl": "http://www.prweb.com/releases/2013/8/prweb10997844.htm",
    "feature_id": "283720",
    "feature_name": "Harbor Village",
    "state_alpha": "FL",
    "county_name": "Broward",
    "county_numeric": "011",
    "prim_lat_dec": "26.2378596",
    "prim_long_dec": "-80.0955991",
    "elev_in_m": "0",
    "elev_in_ft": "0",
    "lat": 26.2378596,
    "long": -80.0955991
  },
  {
    "globaleventid": 262360916,
    "sqldate": 20130807,
    "monthyear": 201308,
    "year": 2013,
    "fractiondate": "2013.5945",
    "eventcode": 186,
    "quadclass": 4,
    "nummentions": 8,
    "numsources": 1,
    "numarticles": 8,
    "avgtone": "2.85714285714286",
    "sourceurl": "http://triblive.com/neighborhoods/alleghenyneighborhoods/alleghenyneighborhoodsmore/4461310-74/culinary-academy-program",
    "feature_id": "617565",
    "feature_name": "Boston",
    "state_alpha": "MA",
    "county_name": "Suffolk",
    "county_numeric": "025",
    "prim_lat_dec": "42.3584308",
    "prim_long_dec": "-71.0597732",
    "elev_in_m": "14",
    "elev_in_ft": "46",
    "lat": 42.3584308,
    "long": -71.0597732
  },
  {
    "globaleventid": 262358971,
    "sqldate": 20130807,
    "monthyear": 201308,
    "year": 2013,
    "fractiondate": "2013.5945",
    "eventcode": 190,
    "quadclass": 4,
    "nummentions": 2,
    "numsources": 1,
    "numarticles": 2,
    "avgtone": "4.92957746478873",
    "sourceurl": "http://www.wkyt.com/home/headlines/Nunns-ex-wife-launches-her-book-218656331.html",
    "feature_id": "517517",
    "feature_name": "Frankfort",
    "state_alpha": "KY",
    "county_name": "Franklin",
    "county_numeric": "073",
    "prim_lat_dec": "38.2009055",
    "prim_long_dec": "-84.8732836",
    "elev_in_m": "154",
    "elev_in_ft": "505",
    "lat": 38.2009055,
    "long": -84.8732836
  },
  {
    "globaleventid": 262358970,
    "sqldate": 20130807,
    "monthyear": 201308,
    "year": 2013,
    "fractiondate": "2013.5945",
    "eventcode": 190,
    "quadclass": 4,
    "nummentions": 2,
    "numsources": 1,
    "numarticles": 2,
    "avgtone": "4.92957746478873",
    "sourceurl": "http://www.wkyt.com/home/headlines/Nunns-ex-wife-launches-her-book-218656331.html",
    "feature_id": "517517",
    "feature_name": "Frankfort",
    "state_alpha": "KY",
    "county_name": "Franklin",
    "county_numeric": "073",
    "prim_lat_dec": "38.2009055",
    "prim_long_dec": "-84.8732836",
    "elev_in_m": "154",
    "elev_in_ft": "505",
    "lat": 38.2009055,
    "long": -84.8732836
  },
  {
    "globaleventid": 262358969,
    "sqldate": 20130807,
    "monthyear": 201308,
    "year": 2013,
    "fractiondate": "2013.5945",
    "eventcode": 190,
    "quadclass": 4,
    "nummentions": 12,
    "numsources": 3,
    "numarticles": 12,
    "avgtone": "4.26861204638982",
    "sourceurl": "http://www.newschannel5.com/story/23065298/nunns-ex-wife-launches-her-book",
    "feature_id": "492876",
    "feature_name": "Glasgow",
    "state_alpha": "KY",
    "county_name": "Barren",
    "county_numeric": "009",
    "prim_lat_dec": "36.995884",
    "prim_long_dec": "-85.9119215",
    "elev_in_m": "230",
    "elev_in_ft": "755",
    "lat": 36.995884,
    "long": -85.9119215
  },
  {
    "globaleventid": 262358957,
    "sqldate": 20130807,
    "monthyear": 201308,
    "year": 2013,
    "fractiondate": "2013.5945",
    "eventcode": 190,
    "quadclass": 4,
    "nummentions": 2,
    "numsources": 1,
    "numarticles": 2,
    "avgtone": "4.92957746478873",
    "sourceurl": "http://www.wkyt.com/home/headlines/Nunns-ex-wife-launches-her-book-218656331.html",
    "feature_id": "517517",
    "feature_name": "Frankfort",
    "state_alpha": "KY",
    "county_name": "Franklin",
    "county_numeric": "073",
    "prim_lat_dec": "38.2009055",
    "prim_long_dec": "-84.8732836",
    "elev_in_m": "154",
    "elev_in_ft": "505",
    "lat": 38.2009055,
    "long": -84.8732836
  },
  {
    "globaleventid": 262358956,
    "sqldate": 20130807,
    "monthyear": 201308,
    "year": 2013,
    "fractiondate": "2013.5945",
    "eventcode": 190,
    "quadclass": 4,
    "nummentions": 6,
    "numsources": 3,
    "numarticles": 6,
    "avgtone": "4.26861204638982",
    "sourceurl": "http://www.newschannel5.com/story/23065298/nunns-ex-wife-launches-her-book",
    "feature_id": "492876",
    "feature_name": "Glasgow",
    "state_alpha": "KY",
    "county_name": "Barren",
    "county_numeric": "009",
    "prim_lat_dec": "36.995884",
    "prim_long_dec": "-85.9119215",
    "elev_in_m": "230",
    "elev_in_ft": "755",
    "lat": 36.995884,
    "long": -85.9119215
  },
  {
    "globaleventid": 262358955,
    "sqldate": 20130807,
    "monthyear": 201308,
    "year": 2013,
    "fractiondate": "2013.5945",
    "eventcode": 173,
    "quadclass": 4,
    "nummentions": 2,
    "numsources": 1,
    "numarticles": 2,
    "avgtone": "0.858369098712446",
    "sourceurl": "http://www.theforecaster.net/news/print/2013/08/07/massachusetts-man-arrested-cocaine-trafficking-cha/168958",
    "feature_id": "613714",
    "feature_name": "New Bedford",
    "state_alpha": "MA",
    "county_name": "Bristol",
    "county_numeric": "005",
    "prim_lat_dec": "41.6362152",
    "prim_long_dec": "-70.934205",
    "elev_in_m": "30",
    "elev_in_ft": "98",
    "lat": 41.6362152,
    "long": -70.934205
  },
  {
    "globaleventid": 262358949,
    "sqldate": 20130807,
    "monthyear": 201308,
    "year": 2013,
    "fractiondate": "2013.5945",
    "eventcode": 112,
    "quadclass": 3,
    "nummentions": 2,
    "numsources": 1,
    "numarticles": 2,
    "avgtone": "0.0",
    "sourceurl": "http://www.sfgate.com/news/crime/article/Defense-in-baby-slaying-asks-for-crime-scene-probe-4715662.php&c=DiL91l8iFGYdiwby6HulXFwacGkWskDwOGOlRkxghyg&mkt=en-us",
    "feature_id": "354878",
    "feature_name": "Brunswick",
    "state_alpha": "GA",
    "county_name": "Glynn",
    "county_numeric": "127",
    "prim_lat_dec": "31.1499528",
    "prim_long_dec": "-81.4914894",
    "elev_in_m": "3",
    "elev_in_ft": "10",
    "lat": 31.1499528,
    "long": -81.4914894
  },
  {
    "globaleventid": 262358948,
    "sqldate": 20130807,
    "monthyear": 201308,
    "year": 2013,
    "fractiondate": "2013.5945",
    "eventcode": 112,
    "quadclass": 3,
    "nummentions": 8,
    "numsources": 2,
    "numarticles": 8,
    "avgtone": "0.79787234042553",
    "sourceurl": "http://mdjonline.com/view/full_story/23311342/article-Crime-scene-probe-sought-in-slaying?instance=special%20_coverage_right_column",
    "feature_id": "354878",
    "feature_name": "Brunswick",
    "state_alpha": "GA",
    "county_name": "Glynn",
    "county_numeric": "127",
    "prim_lat_dec": "31.1499528",
    "prim_long_dec": "-81.4914894",
    "elev_in_m": "3",
    "elev_in_ft": "10",
    "lat": 31.1499528,
    "long": -81.4914894
  },
  {
    "globaleventid": 262358791,
    "sqldate": 20130807,
    "monthyear": 201308,
    "year": 2013,
    "fractiondate": "2013.5945",
    "eventcode": 192,
    "quadclass": 4,
    "nummentions": 2,
    "numsources": 1,
    "numarticles": 2,
    "avgtone": "4.42600276625173",
    "sourceurl": "http://bangordailynews.com/2013/08/07/news/midcoast/bowdoin-college-prepares-to-unveil-former-brunswick-school-as-arts-center/",
    "feature_id": "563088",
    "feature_name": "Brunswick",
    "state_alpha": "ME",
    "county_name": "Cumberland",
    "county_numeric": "005",
    "prim_lat_dec": "43.9145244",
    "prim_long_dec": "-69.9653278",
    "elev_in_m": "19",
    "elev_in_ft": "62",
    "lat": 43.9145244,
    "long": -69.9653278
  },
  {
    "globaleventid": 262358616,
    "sqldate": 20130807,
    "monthyear": 201308,
    "year": 2013,
    "fractiondate": "2013.5945",
    "eventcode": 192,
    "quadclass": 4,
    "nummentions": 2,
    "numsources": 1,
    "numarticles": 2,
    "avgtone": "4.42600276625173",
    "sourceurl": "http://bangordailynews.com/2013/08/07/news/midcoast/bowdoin-college-prepares-to-unveil-former-brunswick-school-as-arts-center/",
    "feature_id": "563088",
    "feature_name": "Brunswick",
    "state_alpha": "ME",
    "county_name": "Cumberland",
    "county_numeric": "005",
    "prim_lat_dec": "43.9145244",
    "prim_long_dec": "-69.9653278",
    "elev_in_m": "19",
    "elev_in_ft": "62",
    "lat": 43.9145244,
    "long": -69.9653278
  },
  {
    "globaleventid": 262358599,
    "sqldate": 20130807,
    "monthyear": 201308,
    "year": 2013,
    "fractiondate": "2013.5945",
    "eventcode": 112,
    "quadclass": 3,
    "nummentions": 2,
    "numsources": 1,
    "numarticles": 2,
    "avgtone": "0.0",
    "sourceurl": "http://www.sfgate.com/news/crime/article/Defense-in-baby-slaying-asks-for-crime-scene-probe-4715662.php&c=DiL91l8iFGYdiwby6HulXFwacGkWskDwOGOlRkxghyg&mkt=en-us",
    "feature_id": "354878",
    "feature_name": "Brunswick",
    "state_alpha": "GA",
    "county_name": "Glynn",
    "county_numeric": "127",
    "prim_lat_dec": "31.1499528",
    "prim_long_dec": "-81.4914894",
    "elev_in_m": "3",
    "elev_in_ft": "10",
    "lat": 31.1499528,
    "long": -81.4914894
  },
  {
    "globaleventid": 262358598,
    "sqldate": 20130807,
    "monthyear": 201308,
    "year": 2013,
    "fractiondate": "2013.5945",
    "eventcode": 112,
    "quadclass": 3,
    "nummentions": 4,
    "numsources": 2,
    "numarticles": 4,
    "avgtone": "0.79787234042553",
    "sourceurl": "http://mdjonline.com/view/full_story/23311342/article-Crime-scene-probe-sought-in-slaying?instance=special%20_coverage_right_column",
    "feature_id": "354878",
    "feature_name": "Brunswick",
    "state_alpha": "GA",
    "county_name": "Glynn",
    "county_numeric": "127",
    "prim_lat_dec": "31.1499528",
    "prim_long_dec": "-81.4914894",
    "elev_in_m": "3",
    "elev_in_ft": "10",
    "lat": 31.1499528,
    "long": -81.4914894
  },
  {
    "globaleventid": 262358023,
    "sqldate": 20130807,
    "monthyear": 201308,
    "year": 2013,
    "fractiondate": "2013.5945",
    "eventcode": 112,
    "quadclass": 3,
    "nummentions": 12,
    "numsources": 2,
    "numarticles": 12,
    "avgtone": "0.0",
    "sourceurl": "http://www.kfqd.com/common/more.php?m=49&post_id=12811",
    "feature_id": "1408977",
    "feature_name": "Saint Michael",
    "state_alpha": "AK",
    "county_name": "Nome (CA)",
    "county_numeric": "180",
    "prim_lat_dec": "63.4780556",
    "prim_long_dec": "-162.0391667",
    "elev_in_m": "11",
    "elev_in_ft": "36",
    "lat": 63.4780556,
    "long": -162.0391667
  },
  {
    "globaleventid": 262357962,
    "sqldate": 20130807,
    "monthyear": 201308,
    "year": 2013,
    "fractiondate": "2013.5945",
    "eventcode": 100,
    "quadclass": 3,
    "nummentions": 6,
    "numsources": 1,
    "numarticles": 6,
    "avgtone": "1.67865707434053",
    "sourceurl": "http://www.mailtribune.com/apps/pbcs.dll/article?AID=/20130807/NEWS/308070322/-1/NEWSMAP",
    "feature_id": "424165",
    "feature_name": "Portland",
    "state_alpha": "IL",
    "county_name": "Whiteside",
    "county_numeric": "195",
    "prim_lat_dec": "41.6625308",
    "prim_long_dec": "-89.9801153",
    "elev_in_m": "190",
    "elev_in_ft": "623",
    "lat": 41.6625308,
    "long": -89.9801153
  },
  {
    "globaleventid": 262357961,
    "sqldate": 20130807,
    "monthyear": 201308,
    "year": 2013,
    "fractiondate": "2013.5945",
    "eventcode": 120,
    "quadclass": 3,
    "nummentions": 18,
    "numsources": 1,
    "numarticles": 18,
    "avgtone": "2.97601274012143",
    "sourceurl": "http://www.reformer.com/localnews/ci_23809244/vernon-voters-reject-farm-preservation",
    "feature_id": "1456556",
    "feature_name": "Brattleboro",
    "state_alpha": "VT",
    "county_name": "Windham",
    "county_numeric": "025",
    "prim_lat_dec": "42.8509152",
    "prim_long_dec": "-72.5578678",
    "elev_in_m": "73",
    "elev_in_ft": "239",
    "lat": 42.8509152,
    "long": -72.5578678
  },
  {
    "globaleventid": 262357947,
    "sqldate": 20130807,
    "monthyear": 201308,
    "year": 2013,
    "fractiondate": "2013.5945",
    "eventcode": 192,
    "quadclass": 4,
    "nummentions": 2,
    "numsources": 1,
    "numarticles": 2,
    "avgtone": "2.77777777777778",
    "sourceurl": "http://tbo.com/plant-city-hospital-president-take-helm-at-east-polkx2019s-largest-hospital-20130807/",
    "feature_id": "289021",
    "feature_name": "Plant City",
    "state_alpha": "FL",
    "county_name": "Hillsborough",
    "county_numeric": "057",
    "prim_lat_dec": "28.0186323",
    "prim_long_dec": "-82.1128641",
    "elev_in_m": "40",
    "elev_in_ft": "131",
    "lat": 28.0186323,
    "long": -82.1128641
  },
  {
    "globaleventid": 262357946,
    "sqldate": 20130807,
    "monthyear": 201308,
    "year": 2013,
    "fractiondate": "2013.5945",
    "eventcode": 192,
    "quadclass": 4,
    "nummentions": 1,
    "numsources": 1,
    "numarticles": 1,
    "avgtone": "2.77777777777778",
    "sourceurl": "http://tbo.com/plant-city-hospital-president-take-helm-at-east-polkx2019s-largest-hospital-20130807/",
    "feature_id": "289021",
    "feature_name": "Plant City",
    "state_alpha": "FL",
    "county_name": "Hillsborough",
    "county_numeric": "057",
    "prim_lat_dec": "28.0186323",
    "prim_long_dec": "-82.1128641",
    "elev_in_m": "40",
    "elev_in_ft": "131",
    "lat": 28.0186323,
    "long": -82.1128641
  },
  {
    "globaleventid": 262357945,
    "sqldate": 20130807,
    "monthyear": 201308,
    "year": 2013,
    "fractiondate": "2013.5945",
    "eventcode": 173,
    "quadclass": 4,
    "nummentions": 2,
    "numsources": 1,
    "numarticles": 2,
    "avgtone": "0.93466107617051",
    "sourceurl": "http://www.sun-sentinel.com/news/broward/fl-arrested-lobbyist-sheriff-tophat-20130807,0,6088003.story?track=rss",
    "feature_id": "287782",
    "feature_name": "North Bay Village",
    "state_alpha": "FL",
    "county_name": "Miami-Dade",
    "county_numeric": "086",
    "prim_lat_dec": "25.8462075",
    "prim_long_dec": "-80.1539351",
    "elev_in_m": "0",
    "elev_in_ft": "0",
    "lat": 25.8462075,
    "long": -80.1539351
  },
  {
    "globaleventid": 262357942,
    "sqldate": 20130807,
    "monthyear": 201308,
    "year": 2013,
    "fractiondate": "2013.5945",
    "eventcode": 112,
    "quadclass": 3,
    "nummentions": 2,
    "numsources": 1,
    "numarticles": 2,
    "avgtone": "0.93466107617051",
    "sourceurl": "http://www.sun-sentinel.com/news/broward/fl-arrested-lobbyist-sheriff-tophat-20130807,0,6088003.story?track=rss",
    "feature_id": "287782",
    "feature_name": "North Bay Village",
    "state_alpha": "FL",
    "county_name": "Miami-Dade",
    "county_numeric": "086",
    "prim_lat_dec": "25.8462075",
    "prim_long_dec": "-80.1539351",
    "elev_in_m": "0",
    "elev_in_ft": "0",
    "lat": 25.8462075,
    "long": -80.1539351
  },
  {
    "globaleventid": 262357910,
    "sqldate": 20130807,
    "monthyear": 201308,
    "year": 2013,
    "fractiondate": "2013.5945",
    "eventcode": 193,
    "quadclass": 4,
    "nummentions": 4,
    "numsources": 1,
    "numarticles": 4,
    "avgtone": "1.96078431372549",
    "sourceurl": "http://www.rawstory.com/rs/2013/08/07/driver-shoots-self-in-groin-after-neighbors-stop-him-for-speeding-around-kids/",
    "feature_id": "1497051",
    "feature_name": "Norfolk",
    "state_alpha": "VA",
    "county_name": "Norfolk (city)",
    "county_numeric": "710",
    "prim_lat_dec": "36.8468146",
    "prim_long_dec": "-76.2852183",
    "elev_in_m": "3",
    "elev_in_ft": "10",
    "lat": 36.8468146,
    "long": -76.2852183
  },
  {
    "globaleventid": 262357909,
    "sqldate": 20130807,
    "monthyear": 201308,
    "year": 2013,
    "fractiondate": "2013.5945",
    "eventcode": 193,
    "quadclass": 4,
    "nummentions": 20,
    "numsources": 5,
    "numarticles": 20,
    "avgtone": "4.38303926523048",
    "sourceurl": "http://www.palestinechronicle.com/kerrys-success-worse-than-his-failure/",
    "feature_id": "531871",
    "feature_name": "Washington",
    "state_alpha": "DC",
    "county_name": "District of Columbia",
    "county_numeric": "001",
    "prim_lat_dec": "38.8951118",
    "prim_long_dec": "-77.0363658",
    "elev_in_m": "7",
    "elev_in_ft": "23",
    "lat": 38.8951118,
    "long": -77.0363658
  },
  {
    "globaleventid": 262357908,
    "sqldate": 20130807,
    "monthyear": 201308,
    "year": 2013,
    "fractiondate": "2013.5945",
    "eventcode": 193,
    "quadclass": 4,
    "nummentions": 4,
    "numsources": 1,
    "numarticles": 4,
    "avgtone": "0.72992700729927",
    "sourceurl": "http://www.sfgate.com/crime/article/Father-baby-son-shot-dead-in-Oakland-4713969.php",
    "feature_id": "277566",
    "feature_name": "Oakland",
    "state_alpha": "CA",
    "county_name": "Alameda",
    "county_numeric": "001",
    "prim_lat_dec": "37.8043722",
    "prim_long_dec": "-122.2708026",
    "elev_in_m": "13",
    "elev_in_ft": "43",
    "lat": 37.8043722,
    "long": -122.2708026
  },
  {
    "globaleventid": 262357907,
    "sqldate": 20130807,
    "monthyear": 201308,
    "year": 2013,
    "fractiondate": "2013.5945",
    "eventcode": 193,
    "quadclass": 4,
    "nummentions": 2,
    "numsources": 1,
    "numarticles": 2,
    "avgtone": "0.0",
    "sourceurl": "http://www.10news.com/news/san-diego-police-investigate-fatal-shooting-at-apartment-complex-in-lincoln-park-neighborhood-080713",
    "feature_id": "1870241",
    "feature_name": "Lincoln Park",
    "state_alpha": "CA",
    "county_name": "San Diego",
    "county_numeric": "073",
    "prim_lat_dec": "32.704219",
    "prim_long_dec": "-117.0894745",
    "elev_in_m": "47",
    "elev_in_ft": "154",
    "lat": 32.704219,
    "long": -117.0894745
  },
  {
    "globaleventid": 262357906,
    "sqldate": 20130807,
    "monthyear": 201308,
    "year": 2013,
    "fractiondate": "2013.5945",
    "eventcode": 192,
    "quadclass": 4,
    "nummentions": 4,
    "numsources": 1,
    "numarticles": 4,
    "avgtone": "2.59259259259259",
    "sourceurl": "http://www.onlinesentinel.com/news/dad-westbrook-tot-was-fine-at-bedtime_2013-08-07.html",
    "feature_id": "577893",
    "feature_name": "Waterville",
    "state_alpha": "ME",
    "county_name": "Kennebec",
    "county_numeric": "011",
    "prim_lat_dec": "44.5520105",
    "prim_long_dec": "-69.6317121",
    "elev_in_m": "33",
    "elev_in_ft": "108",
    "lat": 44.5520105,
    "long": -69.6317121
  },
  {
    "globaleventid": 262357905,
    "sqldate": 20130807,
    "monthyear": 201308,
    "year": 2013,
    "fractiondate": "2013.5945",
    "eventcode": 192,
    "quadclass": 4,
    "nummentions": 4,
    "numsources": 1,
    "numarticles": 4,
    "avgtone": "1.70454545454545",
    "sourceurl": "http://www.dothaneagle.com/news/article_b41c0402-ff9a-11e2-9d5f-0019bb30f31a.html",
    "feature_id": "117397",
    "feature_name": "Dothan",
    "state_alpha": "AL",
    "county_name": "Houston",
    "county_numeric": "069",
    "prim_lat_dec": "31.2232313",
    "prim_long_dec": "-85.3904889",
    "elev_in_m": "98",
    "elev_in_ft": "322",
    "lat": 31.2232313,
    "long": -85.3904889
  },
  {
    "globaleventid": 262357901,
    "sqldate": 20130807,
    "monthyear": 201308,
    "year": 2013,
    "fractiondate": "2013.5945",
    "eventcode": 190,
    "quadclass": 4,
    "nummentions": 2,
    "numsources": 1,
    "numarticles": 2,
    "avgtone": "0.519031141868512",
    "sourceurl": "http://bangordailynews.com/2013/08/07/news/hancock/woman-asked-mdi-police-to-look-for-slain-trenton-man-nine-months-ago/?ref=latest",
    "feature_id": "577302",
    "feature_name": "Trenton",
    "state_alpha": "ME",
    "county_name": "Hancock",
    "county_numeric": "009",
    "prim_lat_dec": "44.4389669",
    "prim_long_dec": "-68.3700179",
    "elev_in_m": "17",
    "elev_in_ft": "56",
    "lat": 44.4389669,
    "long": -68.3700179
  },
  {
    "globaleventid": 262357900,
    "sqldate": 20130807,
    "monthyear": 201308,
    "year": 2013,
    "fractiondate": "2013.5945",
    "eventcode": 190,
    "quadclass": 4,
    "nummentions": 2,
    "numsources": 1,
    "numarticles": 2,
    "avgtone": "0.519031141868512",
    "sourceurl": "http://bangordailynews.com/2013/08/07/news/hancock/woman-asked-mdi-police-to-look-for-slain-trenton-man-nine-months-ago/?ref=latest",
    "feature_id": "567516",
    "feature_name": "Hall Quarry",
    "state_alpha": "ME",
    "county_name": "Hancock",
    "county_numeric": "009",
    "prim_lat_dec": "44.3359128",
    "prim_long_dec": "-68.3214055",
    "elev_in_m": "27",
    "elev_in_ft": "89",
    "lat": 44.3359128,
    "long": -68.3214055
  },
  {
    "globaleventid": 262357898,
    "sqldate": 20130807,
    "monthyear": 201308,
    "year": 2013,
    "fractiondate": "2013.5945",
    "eventcode": 190,
    "quadclass": 4,
    "nummentions": 4,
    "numsources": 1,
    "numarticles": 4,
    "avgtone": "0.162866449511401",
    "sourceurl": "http://www.suntimes.com/news/metro/21757268-418/3-dead-9-wounded-in-citywide-violence.html",
    "feature_id": "406142",
    "feature_name": "Claremont",
    "state_alpha": "IL",
    "county_name": "Richland",
    "county_numeric": "159",
    "prim_lat_dec": "38.7194921",
    "prim_long_dec": "-87.9714232",
    "elev_in_m": "155",
    "elev_in_ft": "509",
    "lat": 38.7194921,
    "long": -87.9714232
  },
  {
    "globaleventid": 262357897,
    "sqldate": 20130807,
    "monthyear": 201308,
    "year": 2013,
    "fractiondate": "2013.5945",
    "eventcode": 190,
    "quadclass": 4,
    "nummentions": 4,
    "numsources": 1,
    "numarticles": 4,
    "avgtone": "0.72992700729927",
    "sourceurl": "http://www.sfgate.com/crime/article/Father-baby-son-shot-dead-in-Oakland-4713969.php",
    "feature_id": "277566",
    "feature_name": "Oakland",
    "state_alpha": "CA",
    "county_name": "Alameda",
    "county_numeric": "001",
    "prim_lat_dec": "37.8043722",
    "prim_long_dec": "-122.2708026",
    "elev_in_m": "13",
    "elev_in_ft": "43",
    "lat": 37.8043722,
    "long": -122.2708026
  },
  {
    "globaleventid": 262357896,
    "sqldate": 20130807,
    "monthyear": 201308,
    "year": 2013,
    "fractiondate": "2013.5945",
    "eventcode": 190,
    "quadclass": 4,
    "nummentions": 4,
    "numsources": 1,
    "numarticles": 4,
    "avgtone": "2.33918128654971",
    "sourceurl": "http://www.montereyherald.com/news/ci_23809274/&c=savwgbQheY22zyFpGZbtp9tls1iSnr45sNegiW_y3yE&mkt=en-us",
    "feature_id": "1659583",
    "feature_name": "San Lorenzo",
    "state_alpha": "CA",
    "county_name": "Alameda",
    "county_numeric": "001",
    "prim_lat_dec": "37.6810422",
    "prim_long_dec": "-122.1244088",
    "elev_in_m": "11",
    "elev_in_ft": "36",
    "lat": 37.6810422,
    "long": -122.1244088
  },
  {
    "globaleventid": 262357895,
    "sqldate": 20130807,
    "monthyear": 201308,
    "year": 2013,
    "fractiondate": "2013.5945",
    "eventcode": 190,
    "quadclass": 4,
    "nummentions": 9,
    "numsources": 1,
    "numarticles": 9,
    "avgtone": "4.02476780185759",
    "sourceurl": "http://www.wafb.com/story/23076400/elderly-residents-battling-heat-rely-on-coa-for-relief",
    "feature_id": "1629914",
    "feature_name": "Baton Rouge",
    "state_alpha": "LA",
    "county_name": "East Baton Rouge",
    "county_numeric": "033",
    "prim_lat_dec": "30.4507462",
    "prim_long_dec": "-91.154551",
    "elev_in_m": "14",
    "elev_in_ft": "46",
    "lat": 30.4507462,
    "long": -91.154551
  },
  {
    "globaleventid": 262357894,
    "sqldate": 20130807,
    "monthyear": 201308,
    "year": 2013,
    "fractiondate": "2013.5945",
    "eventcode": 190,
    "quadclass": 4,
    "nummentions": 2,
    "numsources": 1,
    "numarticles": 2,
    "avgtone": "4.6875",
    "sourceurl": "http://www.oregonlive.com/clackamascounty/index.ssf/2013/08/friends_dedicate_building_at_c.html",
    "feature_id": "1166631",
    "feature_name": "Clackamas",
    "state_alpha": "OR",
    "county_name": "Clackamas",
    "county_numeric": "005",
    "prim_lat_dec": "45.4076205",
    "prim_long_dec": "-122.5703692",
    "elev_in_m": "53",
    "elev_in_ft": "174",
    "lat": 45.4076205,
    "long": -122.5703692
  },
  {
    "globaleventid": 262357893,
    "sqldate": 20130807,
    "monthyear": 201308,
    "year": 2013,
    "fractiondate": "2013.5945",
    "eventcode": 190,
    "quadclass": 4,
    "nummentions": 2,
    "numsources": 1,
    "numarticles": 2,
    "avgtone": "3.33333333333333",
    "sourceurl": "http://www.legacy.com/obituaries/timesreporter/obituary.aspx?pid=166295557&c=R6dszuQsKhfbkwzmOhmzHVzQcwWqlrD9DVTSVkOc0Ko&mkt=en-us",
    "feature_id": "1617959",
    "feature_name": "Detroit",
    "state_alpha": "MI",
    "county_name": "Wayne",
    "county_numeric": "163",
    "prim_lat_dec": "42.331427",
    "prim_long_dec": "-83.0457538",
    "elev_in_m": "182",
    "elev_in_ft": "597",
    "lat": 42.331427,
    "long": -83.0457538
  },
  {
    "globaleventid": 262357892,
    "sqldate": 20130807,
    "monthyear": 201308,
    "year": 2013,
    "fractiondate": "2013.5945",
    "eventcode": 190,
    "quadclass": 4,
    "nummentions": 2,
    "numsources": 1,
    "numarticles": 2,
    "avgtone": "3.33333333333333",
    "sourceurl": "http://www.legacy.com/obituaries/timesreporter/obituary.aspx?pid=166295557&c=R6dszuQsKhfbkwzmOhmzHVzQcwWqlrD9DVTSVkOc0Ko&mkt=en-us",
    "feature_id": "1065105",
    "feature_name": "New Philadelphia",
    "state_alpha": "OH",
    "county_name": "Tuscarawas",
    "county_numeric": "157",
    "prim_lat_dec": "40.4897871",
    "prim_long_dec": "-81.4456706",
    "elev_in_m": "275",
    "elev_in_ft": "902",
    "lat": 40.4897871,
    "long": -81.4456706
  },
  {
    "globaleventid": 262357891,
    "sqldate": 20130807,
    "monthyear": 201308,
    "year": 2013,
    "fractiondate": "2013.5945",
    "eventcode": 190,
    "quadclass": 4,
    "nummentions": 3,
    "numsources": 1,
    "numarticles": 3,
    "avgtone": "3.33333333333333",
    "sourceurl": "http://www.legacy.com/obituaries/timesreporter/obituary.aspx?pid=166295557&c=R6dszuQsKhfbkwzmOhmzHVzQcwWqlrD9DVTSVkOc0Ko&mkt=en-us",
    "feature_id": "1617959",
    "feature_name": "Detroit",
    "state_alpha": "MI",
    "county_name": "Wayne",
    "county_numeric": "163",
    "prim_lat_dec": "42.331427",
    "prim_long_dec": "-83.0457538",
    "elev_in_m": "182",
    "elev_in_ft": "597",
    "lat": 42.331427,
    "long": -83.0457538
  },
  {
    "globaleventid": 262357889,
    "sqldate": 20130807,
    "monthyear": 201308,
    "year": 2013,
    "fractiondate": "2013.5945",
    "eventcode": 182,
    "quadclass": 4,
    "nummentions": 2,
    "numsources": 1,
    "numarticles": 2,
    "avgtone": "3.28719723183391",
    "sourceurl": "http://www.nbcsandiego.com/news/local/Amber-Alert-Expands-for-Missing-Lakeside-Children-Hannah-Anderson-Ethan-Anderson-218771201.html",
    "feature_id": "1656556",
    "feature_name": "Lakeside",
    "state_alpha": "CA",
    "county_name": "San Diego",
    "county_numeric": "073",
    "prim_lat_dec": "32.8572718",
    "prim_long_dec": "-116.9222488",
    "elev_in_m": "126",
    "elev_in_ft": "413",
    "lat": 32.8572718,
    "long": -116.9222488
  },
  {
    "globaleventid": 262357879,
    "sqldate": 20130807,
    "monthyear": 201308,
    "year": 2013,
    "fractiondate": "2013.5945",
    "eventcode": 173,
    "quadclass": 4,
    "nummentions": 1,
    "numsources": 1,
    "numarticles": 1,
    "avgtone": "2.62172284644195",
    "sourceurl": "http://bangordailynews.com/2013/08/07/news/down-east/migrant-workers-who-fuel-maine-blueberry-harvest-receive-state-federal-services/",
    "feature_id": "563916",
    "feature_name": "Cherryfield",
    "state_alpha": "ME",
    "county_name": "Washington",
    "county_numeric": "029",
    "prim_lat_dec": "44.6072991",
    "prim_long_dec": "-67.9258366",
    "elev_in_m": "17",
    "elev_in_ft": "56",
    "lat": 44.6072991,
    "long": -67.9258366
  },
  {
    "globaleventid": 262357878,
    "sqldate": 20130807,
    "monthyear": 201308,
    "year": 2013,
    "fractiondate": "2013.5945",
    "eventcode": 173,
    "quadclass": 4,
    "nummentions": 5,
    "numsources": 1,
    "numarticles": 5,
    "avgtone": "2.62172284644195",
    "sourceurl": "http://bangordailynews.com/2013/08/07/news/down-east/migrant-workers-who-fuel-maine-blueberry-harvest-receive-state-federal-services/",
    "feature_id": "563916",
    "feature_name": "Cherryfield",
    "state_alpha": "ME",
    "county_name": "Washington",
    "county_numeric": "029",
    "prim_lat_dec": "44.6072991",
    "prim_long_dec": "-67.9258366",
    "elev_in_m": "17",
    "elev_in_ft": "56",
    "lat": 44.6072991,
    "long": -67.9258366
  },
  {
    "globaleventid": 262357877,
    "sqldate": 20130807,
    "monthyear": 201308,
    "year": 2013,
    "fractiondate": "2013.5945",
    "eventcode": 173,
    "quadclass": 4,
    "nummentions": 4,
    "numsources": 1,
    "numarticles": 4,
    "avgtone": "1.54888673765731",
    "sourceurl": "http://www.chroniclelive.co.uk/news/north-east-news/whistleblower-calls-public-inquiry-st-5672291",
    "feature_id": "531871",
    "feature_name": "Washington",
    "state_alpha": "DC",
    "county_name": "District of Columbia",
    "county_numeric": "001",
    "prim_lat_dec": "38.8951118",
    "prim_long_dec": "-77.0363658",
    "elev_in_m": "7",
    "elev_in_ft": "23",
    "lat": 38.8951118,
    "long": -77.0363658
  },
  {
    "globaleventid": 262357876,
    "sqldate": 20130807,
    "monthyear": 201308,
    "year": 2013,
    "fractiondate": "2013.5945",
    "eventcode": 173,
    "quadclass": 4,
    "nummentions": 2,
    "numsources": 1,
    "numarticles": 2,
    "avgtone": "0.93466107617051",
    "sourceurl": "http://www.sun-sentinel.com/news/broward/fl-arrested-lobbyist-sheriff-tophat-20130807,0,6088003.story?track=rss",
    "feature_id": "287782",
    "feature_name": "North Bay Village",
    "state_alpha": "FL",
    "county_name": "Miami-Dade",
    "county_numeric": "086",
    "prim_lat_dec": "25.8462075",
    "prim_long_dec": "-80.1539351",
    "elev_in_m": "0",
    "elev_in_ft": "0",
    "lat": 25.8462075,
    "long": -80.1539351
  },
  {
    "globaleventid": 262357872,
    "sqldate": 20130807,
    "monthyear": 201308,
    "year": 2013,
    "fractiondate": "2013.5945",
    "eventcode": 173,
    "quadclass": 4,
    "nummentions": 2,
    "numsources": 2,
    "numarticles": 2,
    "avgtone": "1.71531128633635",
    "sourceurl": "http://www.globalpost.com/dispatch/news/afp/130807/suspect-deadly-venice-beach-crash-pleads-not-guilty",
    "feature_id": "1662328",
    "feature_name": "Los Angeles",
    "state_alpha": "CA",
    "county_name": "Los Angeles",
    "county_numeric": "037",
    "prim_lat_dec": "34.0522342",
    "prim_long_dec": "-118.2436849",
    "elev_in_m": "89",
    "elev_in_ft": "292",
    "lat": 34.0522342,
    "long": -118.2436849
  },
  {
    "globaleventid": 262357871,
    "sqldate": 20130807,
    "monthyear": 201308,
    "year": 2013,
    "fractiondate": "2013.5945",
    "eventcode": 173,
    "quadclass": 4,
    "nummentions": 4,
    "numsources": 2,
    "numarticles": 4,
    "avgtone": "1.71531128633635",
    "sourceurl": "http://www.globalpost.com/dispatch/news/afp/130807/suspect-deadly-venice-beach-crash-pleads-not-guilty",
    "feature_id": "1662328",
    "feature_name": "Los Angeles",
    "state_alpha": "CA",
    "county_name": "Los Angeles",
    "county_numeric": "037",
    "prim_lat_dec": "34.0522342",
    "prim_long_dec": "-118.2436849",
    "elev_in_m": "89",
    "elev_in_ft": "292",
    "lat": 34.0522342,
    "long": -118.2436849
  },
  {
    "globaleventid": 262357870,
    "sqldate": 20130807,
    "monthyear": 201308,
    "year": 2013,
    "fractiondate": "2013.5945",
    "eventcode": 173,
    "quadclass": 4,
    "nummentions": 8,
    "numsources": 1,
    "numarticles": 8,
    "avgtone": "3.73134328358209",
    "sourceurl": "http://www.post-gazette.com/stories/local/region/pittsburgh-neighborhoods-stand-against-crime-on-national-night-out-698373/",
    "feature_id": "120316",
    "feature_name": "Homewood",
    "state_alpha": "AL",
    "county_name": "Jefferson",
    "county_numeric": "073",
    "prim_lat_dec": "33.4717732",
    "prim_long_dec": "-86.8008228",
    "elev_in_m": "203",
    "elev_in_ft": "666",
    "lat": 33.4717732,
    "long": -86.8008228
  },
  {
    "globaleventid": 262357863,
    "sqldate": 20130807,
    "monthyear": 201308,
    "year": 2013,
    "fractiondate": "2013.5945",
    "eventcode": 172,
    "quadclass": 4,
    "nummentions": 6,
    "numsources": 1,
    "numarticles": 6,
    "avgtone": "3.64025695931478",
    "sourceurl": "http://www.boston.com/news/politics/blogs/the-race-for-city-hall/2013/08/07/ross-consalvo-and-walsh-back-more-restaurant-nightlife-options-boston/Tv9AI6StFoVFfQkHnf9iyO/blog.html",
    "feature_id": "617565",
    "feature_name": "Boston",
    "state_alpha": "MA",
    "county_name": "Suffolk",
    "county_numeric": "025",
    "prim_lat_dec": "42.3584308",
    "prim_long_dec": "-71.0597732",
    "elev_in_m": "14",
    "elev_in_ft": "46",
    "lat": 42.3584308,
    "long": -71.0597732
  },
  {
    "globaleventid": 262357862,
    "sqldate": 20130807,
    "monthyear": 201308,
    "year": 2013,
    "fractiondate": "2013.5945",
    "eventcode": 172,
    "quadclass": 4,
    "nummentions": 5,
    "numsources": 1,
    "numarticles": 5,
    "avgtone": "3.7410071942446",
    "sourceurl": "http://www.theguardian.com/travel/2013/apr/27/top-10-bars-in-florida",
    "feature_id": "295003",
    "feature_name": "Jacksonville",
    "state_alpha": "FL",
    "county_name": "Duval",
    "county_numeric": "031",
    "prim_lat_dec": "30.3321838",
    "prim_long_dec": "-81.655651",
    "elev_in_m": "5",
    "elev_in_ft": "16",
    "lat": 30.3321838,
    "long": -81.655651
  },
  {
    "globaleventid": 262357859,
    "sqldate": 20130807,
    "monthyear": 201308,
    "year": 2013,
    "fractiondate": "2013.5945",
    "eventcode": 172,
    "quadclass": 4,
    "nummentions": 2,
    "numsources": 1,
    "numarticles": 2,
    "avgtone": "1.67832167832168",
    "sourceurl": "http://narragansett.patch.com/groups/business-news/p/narragansett-chamber-opposes-bi-ferry-service-from-quonset_995121f4",
    "feature_id": "1217464",
    "feature_name": "Galilee",
    "state_alpha": "RI",
    "county_name": "Washington",
    "county_numeric": "009",
    "prim_lat_dec": "41.377195",
    "prim_long_dec": "-71.5102673",
    "elev_in_m": "1",
    "elev_in_ft": "3",
    "lat": 41.377195,
    "long": -71.5102673
  },
  {
    "globaleventid": 262357852,
    "sqldate": 20130807,
    "monthyear": 201308,
    "year": 2013,
    "fractiondate": "2013.5945",
    "eventcode": 141,
    "quadclass": 3,
    "nummentions": 1,
    "numsources": 1,
    "numarticles": 1,
    "avgtone": "5.88235294117647",
    "sourceurl": "http://www.parkrapidsenterprise.com/content/former-fargo-radio-personality-dies-surgery",
    "feature_id": "1029197",
    "feature_name": "Grand Forks",
    "state_alpha": "ND",
    "county_name": "Grand Forks",
    "county_numeric": "035",
    "prim_lat_dec": "47.9252568",
    "prim_long_dec": "-97.0328547",
    "elev_in_m": "253",
    "elev_in_ft": "830",
    "lat": 47.9252568,
    "long": -97.0328547
  },
  {
    "globaleventid": 262357851,
    "sqldate": 20130807,
    "monthyear": 201308,
    "year": 2013,
    "fractiondate": "2013.5945",
    "eventcode": 141,
    "quadclass": 3,
    "nummentions": 1,
    "numsources": 1,
    "numarticles": 1,
    "avgtone": "6.25",
    "sourceurl": "http://www.inforum.com/event/article/id/408369/group/News/",
    "feature_id": "1029197",
    "feature_name": "Grand Forks",
    "state_alpha": "ND",
    "county_name": "Grand Forks",
    "county_numeric": "035",
    "prim_lat_dec": "47.9252568",
    "prim_long_dec": "-97.0328547",
    "elev_in_m": "253",
    "elev_in_ft": "830",
    "lat": 47.9252568,
    "long": -97.0328547
  },
  {
    "globaleventid": 262357848,
    "sqldate": 20130807,
    "monthyear": 201308,
    "year": 2013,
    "fractiondate": "2013.5945",
    "eventcode": 128,
    "quadclass": 3,
    "nummentions": 2,
    "numsources": 1,
    "numarticles": 2,
    "avgtone": "2.36220472440945",
    "sourceurl": "http://theadanews.com/local/x125812816/City-councilors-postpone-decision-on-annexation-request",
    "feature_id": "1089694",
    "feature_name": "Arlington",
    "state_alpha": "OK",
    "county_name": "Lincoln",
    "county_numeric": "081",
    "prim_lat_dec": "35.5789583",
    "prim_long_dec": "-96.6797396",
    "elev_in_m": "278",
    "elev_in_ft": "912",
    "lat": 35.5789583,
    "long": -96.6797396
  },
  {
    "globaleventid": 262357840,
    "sqldate": 20130807,
    "monthyear": 201308,
    "year": 2013,
    "fractiondate": "2013.5945",
    "eventcode": 115,
    "quadclass": 3,
    "nummentions": 2,
    "numsources": 1,
    "numarticles": 2,
    "avgtone": "1.40845070422535",
    "sourceurl": "http://www.journal-news.net/page/content.detail/id/597404.html",
    "feature_id": "1542824",
    "feature_name": "Martinsburg",
    "state_alpha": "WV",
    "county_name": "Berkeley",
    "county_numeric": "003",
    "prim_lat_dec": "39.4562099",
    "prim_long_dec": "-77.9638869",
    "elev_in_m": "138",
    "elev_in_ft": "453",
    "lat": 39.4562099,
    "long": -77.9638869
  },
  {
    "globaleventid": 262357838,
    "sqldate": 20130807,
    "monthyear": 201308,
    "year": 2013,
    "fractiondate": "2013.5945",
    "eventcode": 114,
    "quadclass": 3,
    "nummentions": 8,
    "numsources": 1,
    "numarticles": 4,
    "avgtone": "3.44",
    "sourceurl": "http://www.news-journalonline.com/article/20130807/NEWS/130809545?Title=New-Smyrna-Beach-mayor-raises-questions-about-10-000-tourism-agreement",
    "feature_id": "287692",
    "feature_name": "New Smyrna Beach",
    "state_alpha": "FL",
    "county_name": "Volusia",
    "county_numeric": "127",
    "prim_lat_dec": "29.0258191",
    "prim_long_dec": "-80.9269984",
    "elev_in_m": "2",
    "elev_in_ft": "7",
    "lat": 29.0258191,
    "long": -80.9269984
  },
  {
    "globaleventid": 262357836,
    "sqldate": 20130807,
    "monthyear": 201308,
    "year": 2013,
    "fractiondate": "2013.5945",
    "eventcode": 1123,
    "quadclass": 3,
    "nummentions": 69,
    "numsources": 20,
    "numarticles": 69,
    "avgtone": "1.76612329027564",
    "sourceurl": "http://www.vnews.com/news/nation/world/7979917-95/yemens-government-says-it-uncovers-al-qaida-plots",
    "feature_id": "531871",
    "feature_name": "Washington",
    "state_alpha": "DC",
    "county_name": "District of Columbia",
    "county_numeric": "001",
    "prim_lat_dec": "38.8951118",
    "prim_long_dec": "-77.0363658",
    "elev_in_m": "7",
    "elev_in_ft": "23",
    "lat": 38.8951118,
    "long": -77.0363658
  },
  {
    "globaleventid": 262357832,
    "sqldate": 20130807,
    "monthyear": 201308,
    "year": 2013,
    "fractiondate": "2013.5945",
    "eventcode": 112,
    "quadclass": 3,
    "nummentions": 1,
    "numsources": 1,
    "numarticles": 1,
    "avgtone": "0.467289719626168",
    "sourceurl": "http://www.wsvn.com/news/articles/local/21011359028666/2-lobbyists-tied-to-mayors-accused-of-corruption-surrender/",
    "feature_id": "291938",
    "feature_name": "Sweetwater",
    "state_alpha": "FL",
    "county_name": "Duval",
    "county_numeric": "031",
    "prim_lat_dec": "30.2696837",
    "prim_long_dec": "-81.7642658",
    "elev_in_m": "19",
    "elev_in_ft": "62",
    "lat": 30.2696837,
    "long": -81.7642658
  },
  {
    "globaleventid": 262357831,
    "sqldate": 20130807,
    "monthyear": 201308,
    "year": 2013,
    "fractiondate": "2013.5945",
    "eventcode": 112,
    "quadclass": 3,
    "nummentions": 1,
    "numsources": 1,
    "numarticles": 1,
    "avgtone": "0.467289719626168",
    "sourceurl": "http://www.wsvn.com/news/articles/local/21011359028666/2-lobbyists-tied-to-mayors-accused-of-corruption-surrender/",
    "feature_id": "291938",
    "feature_name": "Sweetwater",
    "state_alpha": "FL",
    "county_name": "Duval",
    "county_numeric": "031",
    "prim_lat_dec": "30.2696837",
    "prim_long_dec": "-81.7642658",
    "elev_in_m": "19",
    "elev_in_ft": "62",
    "lat": 30.2696837,
    "long": -81.7642658
  },
  {
    "globaleventid": 262357830,
    "sqldate": 20130807,
    "monthyear": 201308,
    "year": 2013,
    "fractiondate": "2013.5945",
    "eventcode": 112,
    "quadclass": 3,
    "nummentions": 2,
    "numsources": 1,
    "numarticles": 2,
    "avgtone": "0.93466107617051",
    "sourceurl": "http://www.sun-sentinel.com/news/broward/fl-arrested-lobbyist-sheriff-tophat-20130807,0,6088003.story?track=rss",
    "feature_id": "287782",
    "feature_name": "North Bay Village",
    "state_alpha": "FL",
    "county_name": "Miami-Dade",
    "county_numeric": "086",
    "prim_lat_dec": "25.8462075",
    "prim_long_dec": "-80.1539351",
    "elev_in_m": "0",
    "elev_in_ft": "0",
    "lat": 25.8462075,
    "long": -80.1539351
  },
  {
    "globaleventid": 262357828,
    "sqldate": 20130807,
    "monthyear": 201308,
    "year": 2013,
    "fractiondate": "2013.5945",
    "eventcode": 112,
    "quadclass": 3,
    "nummentions": 4,
    "numsources": 1,
    "numarticles": 4,
    "avgtone": "0.0",
    "sourceurl": "http://www.adn.com/2013/08/07/3013077/stebbins-man-accused-of-biting.html",
    "feature_id": "1408977",
    "feature_name": "Saint Michael",
    "state_alpha": "AK",
    "county_name": "Nome (CA)",
    "county_numeric": "180",
    "prim_lat_dec": "63.4780556",
    "prim_long_dec": "-162.0391667",
    "elev_in_m": "11",
    "elev_in_ft": "36",
    "lat": 63.4780556,
    "long": -162.0391667
  },
  {
    "globaleventid": 262357826,
    "sqldate": 20130807,
    "monthyear": 201308,
    "year": 2013,
    "fractiondate": "2013.5945",
    "eventcode": 111,
    "quadclass": 3,
    "nummentions": 8,
    "numsources": 1,
    "numarticles": 8,
    "avgtone": "2.94906166219839",
    "sourceurl": "http://www.seattlepi.com/news/article/W-Va-shifts-juvenile-facilities-to-address-issues-4709271.php",
    "feature_id": "1546279",
    "feature_name": "Salem",
    "state_alpha": "WV",
    "county_name": "Fayette",
    "county_numeric": "019",
    "prim_lat_dec": "37.9892785",
    "prim_long_dec": "-81.1153794",
    "elev_in_m": "653",
    "elev_in_ft": "2142",
    "lat": 37.9892785,
    "long": -81.1153794
  },
  {
    "globaleventid": 262357823,
    "sqldate": 20130807,
    "monthyear": 201308,
    "year": 2013,
    "fractiondate": "2013.5945",
    "eventcode": 110,
    "quadclass": 3,
    "nummentions": 4,
    "numsources": 1,
    "numarticles": 4,
    "avgtone": "1.72910662824208",
    "sourceurl": "http://www.medicalnewstoday.com/articles/264539.php",
    "feature_id": "1658037",
    "feature_name": "Berkeley",
    "state_alpha": "CA",
    "county_name": "Alameda",
    "county_numeric": "001",
    "prim_lat_dec": "37.8715926",
    "prim_long_dec": "-122.272747",
    "elev_in_m": "52",
    "elev_in_ft": "171",
    "lat": 37.8715926,
    "long": -122.272747
  },
  {
    "globaleventid": 262357822,
    "sqldate": 20130807,
    "monthyear": 201308,
    "year": 2013,
    "fractiondate": "2013.5945",
    "eventcode": 110,
    "quadclass": 3,
    "nummentions": 16,
    "numsources": 2,
    "numarticles": 8,
    "avgtone": "3.48232942304705",
    "sourceurl": "http://delconewsnetwork.com/articles/2013/08/07/news_of_delaware_county/news/doc51fa2dd5ad328162533345.txt",
    "feature_id": "1179730",
    "feature_name": "Llanerch",
    "state_alpha": "PA",
    "county_name": "Delaware",
    "county_numeric": "045",
    "prim_lat_dec": "39.971501",
    "prim_long_dec": "-75.2990749",
    "elev_in_m": "78",
    "elev_in_ft": "256",
    "lat": 39.971501,
    "long": -75.2990749
  },
  {
    "globaleventid": 262357816,
    "sqldate": 20130807,
    "monthyear": 201308,
    "year": 2013,
    "fractiondate": "2013.5945",
    "eventcode": 100,
    "quadclass": 3,
    "nummentions": 2,
    "numsources": 1,
    "numarticles": 2,
    "avgtone": "1.30932896890344",
    "sourceurl": "http://www.alaskapublic.org/2013/08/07/alaska-news-nightly-august-7-2013/",
    "feature_id": "1865559",
    "feature_name": "Nelchina",
    "state_alpha": "AK",
    "county_name": "Valdez-Cordova (CA)",
    "county_numeric": "261",
    "prim_lat_dec": "61.9919444",
    "prim_long_dec": "-146.7686111",
    "elev_in_m": "733",
    "elev_in_ft": "2405",
    "lat": 61.9919444,
    "long": -146.7686111
  },
  {
    "globaleventid": 262357815,
    "sqldate": 20130807,
    "monthyear": 201308,
    "year": 2013,
    "fractiondate": "2013.5945",
    "eventcode": 100,
    "quadclass": 3,
    "nummentions": 2,
    "numsources": 1,
    "numarticles": 2,
    "avgtone": "2.16572504708098",
    "sourceurl": "http://triblive.com/neighborhoods/yourcarlynton/yourcarlyntonmore/4417444-74/bridgeville-john-company",
    "feature_id": "219830",
    "feature_name": "Bridgeville",
    "state_alpha": "CA",
    "county_name": "Humboldt",
    "county_numeric": "023",
    "prim_lat_dec": "40.4693064",
    "prim_long_dec": "-123.7997628",
    "elev_in_m": "193",
    "elev_in_ft": "633",
    "lat": 40.4693064,
    "long": -123.7997628
  },
  {
    "globaleventid": 262357458,
    "sqldate": 20130807,
    "monthyear": 201308,
    "year": 2013,
    "fractiondate": "2013.5945",
    "eventcode": 173,
    "quadclass": 4,
    "nummentions": 10,
    "numsources": 1,
    "numarticles": 10,
    "avgtone": "3.31564986737401",
    "sourceurl": "http://mediamatters.org/research/2013/08/07/fox-reacts-to-benghazi-indictment-with-attack-o/195279",
    "feature_id": "1662328",
    "feature_name": "Los Angeles",
    "state_alpha": "CA",
    "county_name": "Los Angeles",
    "county_numeric": "037",
    "prim_lat_dec": "34.0522342",
    "prim_long_dec": "-118.2436849",
    "elev_in_m": "89",
    "elev_in_ft": "292",
    "lat": 34.0522342,
    "long": -118.2436849
  },
  {
    "globaleventid": 262357295,
    "sqldate": 20130807,
    "monthyear": 201308,
    "year": 2013,
    "fractiondate": "2013.5945",
    "eventcode": 120,
    "quadclass": 3,
    "nummentions": 6,
    "numsources": 1,
    "numarticles": 6,
    "avgtone": "2.97601274012143",
    "sourceurl": "http://www.reformer.com/localnews/ci_23809244/vernon-voters-reject-farm-preservation",
    "feature_id": "1456556",
    "feature_name": "Brattleboro",
    "state_alpha": "VT",
    "county_name": "Windham",
    "county_numeric": "025",
    "prim_lat_dec": "42.8509152",
    "prim_long_dec": "-72.5578678",
    "elev_in_m": "73",
    "elev_in_ft": "239",
    "lat": 42.8509152,
    "long": -72.5578678
  },
  {
    "globaleventid": 262357233,
    "sqldate": 20130807,
    "monthyear": 201308,
    "year": 2013,
    "fractiondate": "2013.5945",
    "eventcode": 190,
    "quadclass": 4,
    "nummentions": 5,
    "numsources": 1,
    "numarticles": 5,
    "avgtone": "0.695249130938586",
    "sourceurl": "http://www.theday.com/article/20130806/NWS09/130809803/1017",
    "feature_id": "295004",
    "feature_name": "Miami",
    "state_alpha": "FL",
    "county_name": "Miami-Dade",
    "county_numeric": "086",
    "prim_lat_dec": "25.7742658",
    "prim_long_dec": "-80.1936589",
    "elev_in_m": "2",
    "elev_in_ft": "7",
    "lat": 25.7742658,
    "long": -80.1936589
  },
  {
    "globaleventid": 262357223,
    "sqldate": 20130807,
    "monthyear": 201308,
    "year": 2013,
    "fractiondate": "2013.5945",
    "eventcode": 173,
    "quadclass": 4,
    "nummentions": 2,
    "numsources": 1,
    "numarticles": 2,
    "avgtone": "2.17028380634391",
    "sourceurl": "http://www.thefloridacurrent.com/article.cfm?id=33970199",
    "feature_id": "308416",
    "feature_name": "Tallahassee",
    "state_alpha": "FL",
    "county_name": "Leon",
    "county_numeric": "073",
    "prim_lat_dec": "30.4382559",
    "prim_long_dec": "-84.2807329",
    "elev_in_m": "62",
    "elev_in_ft": "203",
    "lat": 30.4382559,
    "long": -84.2807329
  },
  {
    "globaleventid": 262357169,
    "sqldate": 20130807,
    "monthyear": 201308,
    "year": 2013,
    "fractiondate": "2013.5945",
    "eventcode": 120,
    "quadclass": 3,
    "nummentions": 2,
    "numsources": 1,
    "numarticles": 2,
    "avgtone": "2.06985769728331",
    "sourceurl": "http://www.demingheadlight.com/deming-news/ci_23810569/former-rep-nunez-crosses-party-line",
    "feature_id": "898770",
    "feature_name": "Elephant Butte",
    "state_alpha": "NM",
    "county_name": "Sierra",
    "county_numeric": "051",
    "prim_lat_dec": "33.1486833",
    "prim_long_dec": "-107.1847503",
    "elev_in_m": "1361",
    "elev_in_ft": "4465",
    "lat": 33.1486833,
    "long": -107.1847503
  },
  {
    "globaleventid": 262357050,
    "sqldate": 20130807,
    "monthyear": 201308,
    "year": 2013,
    "fractiondate": "2013.5945",
    "eventcode": 120,
    "quadclass": 3,
    "nummentions": 5,
    "numsources": 1,
    "numarticles": 5,
    "avgtone": "1.20481927710843",
    "sourceurl": "http://rt.com/usa/manning-leaks-chilling-effects-rejected-198/",
    "feature_id": "531871",
    "feature_name": "Washington",
    "state_alpha": "DC",
    "county_name": "District of Columbia",
    "county_numeric": "001",
    "prim_lat_dec": "38.8951118",
    "prim_long_dec": "-77.0363658",
    "elev_in_m": "7",
    "elev_in_ft": "23",
    "lat": 38.8951118,
    "long": -77.0363658
  },
  {
    "globaleventid": 262357047,
    "sqldate": 20130807,
    "monthyear": 201308,
    "year": 2013,
    "fractiondate": "2013.5945",
    "eventcode": 111,
    "quadclass": 3,
    "nummentions": 2,
    "numsources": 1,
    "numarticles": 2,
    "avgtone": "2.94906166219839",
    "sourceurl": "http://www.seattlepi.com/news/article/W-Va-shifts-juvenile-facilities-to-address-issues-4709271.php",
    "feature_id": "1546279",
    "feature_name": "Salem",
    "state_alpha": "WV",
    "county_name": "Fayette",
    "county_numeric": "019",
    "prim_lat_dec": "37.9892785",
    "prim_long_dec": "-81.1153794",
    "elev_in_m": "653",
    "elev_in_ft": "2142",
    "lat": 37.9892785,
    "long": -81.1153794
  },