[
  {
    "globaleventid": 278357362,
    "sqldate": 20131105,
    "monthyear": 201311,
    "year": 2013,
    "fractiondate": "2013.8356",
    "eventcode": 173,
    "quadclass": 4,
    "nummentions": 3,
    "numsources": 1,
    "numarticles": 3,
    "avgtone": "0.0",
    "sourceurl": "http://baltimore.cbslocal.com/2013/12/05/fbi-arrests-national-guardsman-for-aiding-baltimore-prison-gang-in-contraband-smuggling/",
    "feature_id": "597040",
    "feature_name": "Baltimore",
    "state_alpha": "MD",
    "county_name": "Baltimore (city)",
    "county_numeric": "510",
    "prim_lat_dec": "39.2903848",
    "prim_long_dec": "-76.6121893",
    "elev_in_m": "10",
    "elev_in_ft": "33",
    "lat": 39.2903848,
    "long": -76.6121893
  },
  {
    "globaleventid": 278357361,
    "sqldate": 20131105,
    "monthyear": 201311,
    "year": 2013,
    "fractiondate": "2013.8356",
    "eventcode": 173,
    "quadclass": 4,
    "nummentions": 1,
    "numsources": 1,
    "numarticles": 1,
    "avgtone": "0.0",
    "sourceurl": "http://baltimore.cbslocal.com/2013/12/05/fbi-arrests-national-guardsman-for-aiding-baltimore-prison-gang-in-contraband-smuggling/",
    "feature_id": "597040",
    "feature_name": "Baltimore",
    "state_alpha": "MD",
    "county_name": "Baltimore (city)",
    "county_numeric": "510",
    "prim_lat_dec": "39.2903848",
    "prim_long_dec": "-76.6121893",
    "elev_in_m": "10",
    "elev_in_ft": "33",
    "lat": 39.2903848,
    "long": -76.6121893
  },
  {
    "globaleventid": 278357348,
    "sqldate": 20131105,
    "monthyear": 201311,
    "year": 2013,
    "fractiondate": "2013.8356",
    "eventcode": 190,
    "quadclass": 4,
    "nummentions": 2,
    "numsources": 1,
    "numarticles": 2,
    "avgtone": "0.775193798449612",
    "sourceurl": "http://www.boston.com/news/nation/2013/12/05/person-dies-after-texas-hospital-stabbing/uZLRfKMNoNXj2fdxNMRpBK/story.html",
    "feature_id": "1374716",
    "feature_name": "Longview",
    "state_alpha": "TX",
    "county_name": "Gregg",
    "county_numeric": "183",
    "prim_lat_dec": "32.5007038",
    "prim_long_dec": "-94.7404891",
    "elev_in_m": "113",
    "elev_in_ft": "371",
    "lat": 32.5007038,
    "long": -94.7404891
  },
  {
    "globaleventid": 278357347,
    "sqldate": 20131105,
    "monthyear": 201311,
    "year": 2013,
    "fractiondate": "2013.8356",
    "eventcode": 190,
    "quadclass": 4,
    "nummentions": 16,
    "numsources": 2,
    "numarticles": 16,
    "avgtone": "0.659605704697986",
    "sourceurl": "http://www.foxnews.com/us/2013/12/05/2nd-person-dies-injuries-in-last-month-texas-hospital-stabbing-suspect-still-in/&c=9xPoDzglj-Qtu6yf0b7dV19mudI7T23KTaABs28dKO4&mkt=en-us",
    "feature_id": "1374716",
    "feature_name": "Longview",
    "state_alpha": "TX",
    "county_name": "Gregg",
    "county_numeric": "183",
    "prim_lat_dec": "32.5007038",
    "prim_long_dec": "-94.7404891",
    "elev_in_m": "113",
    "elev_in_ft": "371",
    "lat": 32.5007038,
    "long": -94.7404891
  },
  {
    "globaleventid": 278357343,
    "sqldate": 20131105,
    "monthyear": 201311,
    "year": 2013,
    "fractiondate": "2013.8356",
    "eventcode": 120,
    "quadclass": 3,
    "nummentions": 3,
    "numsources": 1,
    "numarticles": 3,
    "avgtone": "2.5390625",
    "sourceurl": "http://www.usnews.com/news/articles/2013/12/05/a-rush-to-expand-oil-drilling-in-the-arctic-",
    "feature_id": "531871",
    "feature_name": "Washington",
    "state_alpha": "DC",
    "county_name": "District of Columbia",
    "county_numeric": "001",
    "prim_lat_dec": "38.8951118",
    "prim_long_dec": "-77.0363658",
    "elev_in_m": "7",
    "elev_in_ft": "23",
    "lat": 38.8951118,
    "long": -77.0363658
  },
  {
    "globaleventid": 278357341,
    "sqldate": 20131105,
    "monthyear": 201311,
    "year": 2013,
    "fractiondate": "2013.8356",
    "eventcode": 120,
    "quadclass": 3,
    "nummentions": 2,
    "numsources": 1,
    "numarticles": 2,
    "avgtone": "2.5390625",
    "sourceurl": "http://www.usnews.com/news/articles/2013/12/05/a-rush-to-expand-oil-drilling-in-the-arctic-",
    "feature_id": "531871",
    "feature_name": "Washington",
    "state_alpha": "DC",
    "county_name": "District of Columbia",
    "county_numeric": "001",
    "prim_lat_dec": "38.8951118",
    "prim_long_dec": "-77.0363658",
    "elev_in_m": "7",
    "elev_in_ft": "23",
    "lat": 38.8951118,
    "long": -77.0363658
  },
  {
    "globaleventid": 278357338,
    "sqldate": 20131105,
    "monthyear": 201311,
    "year": 2013,
    "fractiondate": "2013.8356",
    "eventcode": 193,
    "quadclass": 4,
    "nummentions": 5,
    "numsources": 1,
    "numarticles": 5,
    "avgtone": "4.01146131805158",
    "sourceurl": "http://finance.yahoo.com/blogs/the-exchange/why-obama-will-make-a-great-ex-president-151702205.html",
    "feature_id": "531871",
    "feature_name": "Washington",
    "state_alpha": "DC",
    "county_name": "District of Columbia",
    "county_numeric": "001",
    "prim_lat_dec": "38.8951118",
    "prim_long_dec": "-77.0363658",
    "elev_in_m": "7",
    "elev_in_ft": "23",
    "lat": 38.8951118,
    "long": -77.0363658
  },
  {
    "globaleventid": 278357298,
    "sqldate": 20131105,
    "monthyear": 201311,
    "year": 2013,
    "fractiondate": "2013.8356",
    "eventcode": 173,
    "quadclass": 4,
    "nummentions": 8,
    "numsources": 1,
    "numarticles": 8,
    "avgtone": "1.6260162601626",
    "sourceurl": "http://www.poconorecord.com/apps/pbcs.dll/article?aid=/20131205/news/131209826&c=J639hPSraX_x9ehF4Cw92_nnM4kmo6TuaI_mS5Onx70&mkt=en-us",
    "feature_id": "1193317",
    "feature_name": "Selinsgrove",
    "state_alpha": "PA",
    "county_name": "Snyder",
    "county_numeric": "109",
    "prim_lat_dec": "40.7989736",
    "prim_long_dec": "-76.8621935",
    "elev_in_m": "136",
    "elev_in_ft": "446",
    "lat": 40.7989736,
    "long": -76.8621935
  },
  {
    "globaleventid": 278357285,
    "sqldate": 20131105,
    "monthyear": 201311,
    "year": 2013,
    "fractiondate": "2013.8356",
    "eventcode": 160,
    "quadclass": 4,
    "nummentions": 1,
    "numsources": 1,
    "numarticles": 1,
    "avgtone": "2.80210157618214",
    "sourceurl": "http://www.bloomberg.com/news/2013-12-05/dempsey-says-signing-afghan-pact-this-month-isn-t-urgent.html",
    "feature_id": "531871",
    "feature_name": "Washington",
    "state_alpha": "DC",
    "county_name": "District of Columbia",
    "county_numeric": "001",
    "prim_lat_dec": "38.8951118",
    "prim_long_dec": "-77.0363658",
    "elev_in_m": "7",
    "elev_in_ft": "23",
    "lat": 38.8951118,
    "long": -77.0363658
  },
  {
    "globaleventid": 278357280,
    "sqldate": 20131105,
    "monthyear": 201311,
    "year": 2013,
    "fractiondate": "2013.8356",
    "eventcode": 120,
    "quadclass": 3,
    "nummentions": 69,
    "numsources": 54,
    "numarticles": 69,
    "avgtone": "3.26995225895402",
    "sourceurl": "http://mdjonline.com/view/full_story/24174715/article-Boeing-buzz--States-vying-to-be-selected-as-new-location-of-777X-assembly?instance=lead_story_left_column",
    "feature_id": "531871",
    "feature_name": "Washington",
    "state_alpha": "DC",
    "county_name": "District of Columbia",
    "county_numeric": "001",
    "prim_lat_dec": "38.8951118",
    "prim_long_dec": "-77.0363658",
    "elev_in_m": "7",
    "elev_in_ft": "23",
    "lat": 38.8951118,
    "long": -77.0363658
  },
  {
    "globaleventid": 278357275,
    "sqldate": 20131105,
    "monthyear": 201311,
    "year": 2013,
    "fractiondate": "2013.8356",
    "eventcode": 173,
    "quadclass": 4,
    "nummentions": 8,
    "numsources": 2,
    "numarticles": 8,
    "avgtone": "0.0",
    "sourceurl": "http://www.thetimesherald.com/viewart/20131205/NEWS05/312050012/Hearing-delayed-suspect-med-student-Paul-DeWolf-s-death",
    "feature_id": "1225072",
    "feature_name": "North Charleston",
    "state_alpha": "SC",
    "county_name": "Charleston",
    "county_numeric": "019",
    "prim_lat_dec": "32.8546197",
    "prim_long_dec": "-79.9748103",
    "elev_in_m": "6",
    "elev_in_ft": "20",
    "lat": 32.8546197,
    "long": -79.9748103
  },
  {
    "globaleventid": 278357253,
    "sqldate": 20131105,
    "monthyear": 201311,
    "year": 2013,
    "fractiondate": "2013.8356",
    "eventcode": 163,
    "quadclass": 4,
    "nummentions": 4,
    "numsources": 1,
    "numarticles": 4,
    "avgtone": "2.71739130434783",
    "sourceurl": "http://www.philly.com/philly/news/politics/city/20131205_Clarke_s_vision__7_restaurants_in_LOVE_Park.html",
    "feature_id": "423587",
    "feature_name": "Chicago",
    "state_alpha": "IL",
    "county_name": "Cook",
    "county_numeric": "031",
    "prim_lat_dec": "41.850033",
    "prim_long_dec": "-87.6500523",
    "elev_in_m": "179",
    "elev_in_ft": "587",
    "lat": 41.850033,
    "long": -87.6500523
  },
  {
    "globaleventid": 278357185,
    "sqldate": 20131105,
    "monthyear": 201311,
    "year": 2013,
    "fractiondate": "2013.8356",
    "eventcode": 193,
    "quadclass": 4,
    "nummentions": 2,
    "numsources": 1,
    "numarticles": 2,
    "avgtone": "1.4745308310992",
    "sourceurl": "http://www.nationalrighttolifenews.org/news/2013/12/abortionist-steven-brigham-lied-about-having-medical-malpractice-insurance-new-jersey-prosecutor-charges/",
    "feature_id": "590150",
    "feature_name": "Elkton",
    "state_alpha": "MD",
    "county_name": "Cecil",
    "county_numeric": "015",
    "prim_lat_dec": "39.6067789",
    "prim_long_dec": "-75.8332718",
    "elev_in_m": "8",
    "elev_in_ft": "26",
    "lat": 39.6067789,
    "long": -75.8332718
  },
  {
    "globaleventid": 278357184,
    "sqldate": 20131105,
    "monthyear": 201311,
    "year": 2013,
    "fractiondate": "2013.8356",
    "eventcode": 173,
    "quadclass": 4,
    "nummentions": 2,
    "numsources": 1,
    "numarticles": 2,
    "avgtone": "1.33333333333333",
    "sourceurl": "http://www.thestate.com/2013/12/05/3140805/hearing-delayed-for-suspect-in.html",
    "feature_id": "1225072",
    "feature_name": "North Charleston",
    "state_alpha": "SC",
    "county_name": "Charleston",
    "county_numeric": "019",
    "prim_lat_dec": "32.8546197",
    "prim_long_dec": "-79.9748103",
    "elev_in_m": "6",
    "elev_in_ft": "20",
    "lat": 32.8546197,
    "long": -79.9748103
  },
  {
    "globaleventid": 278357183,
    "sqldate": 20131105,
    "monthyear": 201311,
    "year": 2013,
    "fractiondate": "2013.8356",
    "eventcode": 173,
    "quadclass": 4,
    "nummentions": 4,
    "numsources": 2,
    "numarticles": 4,
    "avgtone": "0.0",
    "sourceurl": "http://www.thetimesherald.com/viewart/20131205/NEWS05/312050012/Hearing-delayed-suspect-med-student-Paul-DeWolf-s-death",
    "feature_id": "1225072",
    "feature_name": "North Charleston",
    "state_alpha": "SC",
    "county_name": "Charleston",
    "county_numeric": "019",
    "prim_lat_dec": "32.8546197",
    "prim_long_dec": "-79.9748103",
    "elev_in_m": "6",
    "elev_in_ft": "20",
    "lat": 32.8546197,
    "long": -79.9748103
  },
  {
    "globaleventid": 278357181,
    "sqldate": 20131105,
    "monthyear": 201311,
    "year": 2013,
    "fractiondate": "2013.8356",
    "eventcode": 173,
    "quadclass": 4,
    "nummentions": 6,
    "numsources": 1,
    "numarticles": 6,
    "avgtone": "0.0",
    "sourceurl": "http://detroit.cbslocal.com/2013/12/05/hearing-delayed-for-suspect-in-u-m-med-students-death/",
    "feature_id": "627116",
    "feature_name": "Grand Valley",
    "state_alpha": "MI",
    "county_name": "Ottawa",
    "county_numeric": "139",
    "prim_lat_dec": "42.9744684",
    "prim_long_dec": "-85.8697613",
    "elev_in_m": "183",
    "elev_in_ft": "600",
    "lat": 42.9744684,
    "long": -85.8697613
  },
  {
    "globaleventid": 278357180,
    "sqldate": 20131105,
    "monthyear": 201311,
    "year": 2013,
    "fractiondate": "2013.8356",
    "eventcode": 173,
    "quadclass": 4,
    "nummentions": 2,
    "numsources": 1,
    "numarticles": 2,
    "avgtone": "1.33333333333333",
    "sourceurl": "http://www.thestate.com/2013/12/05/3140805/hearing-delayed-for-suspect-in.html",
    "feature_id": "1225072",
    "feature_name": "North Charleston",
    "state_alpha": "SC",
    "county_name": "Charleston",
    "county_numeric": "019",
    "prim_lat_dec": "32.8546197",
    "prim_long_dec": "-79.9748103",
    "elev_in_m": "6",
    "elev_in_ft": "20",
    "lat": 32.8546197,
    "long": -79.9748103
  },
  {
    "globaleventid": 278357179,
    "sqldate": 20131105,
    "monthyear": 201311,
    "year": 2013,
    "fractiondate": "2013.8356",
    "eventcode": 173,
    "quadclass": 4,
    "nummentions": 2,
    "numsources": 1,
    "numarticles": 2,
    "avgtone": "1.33333333333333",
    "sourceurl": "http://www.thestate.com/2013/12/05/3140805/hearing-delayed-for-suspect-in.html",
    "feature_id": "1225072",
    "feature_name": "North Charleston",
    "state_alpha": "SC",
    "county_name": "Charleston",
    "county_numeric": "019",
    "prim_lat_dec": "32.8546197",
    "prim_long_dec": "-79.9748103",
    "elev_in_m": "6",
    "elev_in_ft": "20",
    "lat": 32.8546197,
    "long": -79.9748103
  },
  {
    "globaleventid": 278357137,
    "sqldate": 20131105,
    "monthyear": 201311,
    "year": 2013,
    "fractiondate": "2013.8356",
    "eventcode": 120,
    "quadclass": 3,
    "nummentions": 10,
    "numsources": 1,
    "numarticles": 10,
    "avgtone": "2.42214532871972",
    "sourceurl": "http://www.miamiherald.com/2013/12/05/3798424/china-bars-banks-from-handling.html",
    "feature_id": "295004",
    "feature_name": "Miami",
    "state_alpha": "FL",
    "county_name": "Miami-Dade",
    "county_numeric": "086",
    "prim_lat_dec": "25.7742658",
    "prim_long_dec": "-80.1936589",
    "elev_in_m": "2",
    "elev_in_ft": "7",
    "lat": 25.7742658,
    "long": -80.1936589
  },
  {
    "globaleventid": 278357136,
    "sqldate": 20131105,
    "monthyear": 201311,
    "year": 2013,
    "fractiondate": "2013.8356",
    "eventcode": 120,
    "quadclass": 3,
    "nummentions": 10,
    "numsources": 1,
    "numarticles": 10,
    "avgtone": "2.36842105263158",
    "sourceurl": "http://www.chron.com/news/world/article/China-bars-banks-from-handling-bitcoins-5036867.php",
    "feature_id": "1380948",
    "feature_name": "Houston",
    "state_alpha": "TX",
    "county_name": "Harris",
    "county_numeric": "201",
    "prim_lat_dec": "29.7632836",
    "prim_long_dec": "-95.3632715",
    "elev_in_m": "11",
    "elev_in_ft": "36",
    "lat": 29.7632836,
    "long": -95.3632715
  },
  {
    "globaleventid": 278356711,
    "sqldate": 20131105,
    "monthyear": 201311,
    "year": 2013,
    "fractiondate": "2013.8356",
    "eventcode": 173,
    "quadclass": 4,
    "nummentions": 1,
    "numsources": 1,
    "numarticles": 1,
    "avgtone": "0.0",
    "sourceurl": "http://baltimore.cbslocal.com/2013/12/05/fbi-arrests-national-guardsman-for-aiding-baltimore-prison-gang-in-contraband-smuggling/",
    "feature_id": "597040",
    "feature_name": "Baltimore",
    "state_alpha": "MD",
    "county_name": "Baltimore (city)",
    "county_numeric": "510",
    "prim_lat_dec": "39.2903848",
    "prim_long_dec": "-76.6121893",
    "elev_in_m": "10",
    "elev_in_ft": "33",
    "lat": 39.2903848,
    "long": -76.6121893
  },
  {
    "globaleventid": 278356709,
    "sqldate": 20131105,
    "monthyear": 201311,
    "year": 2013,
    "fractiondate": "2013.8356",
    "eventcode": 173,
    "quadclass": 4,
    "nummentions": 1,
    "numsources": 1,
    "numarticles": 1,
    "avgtone": "0.0",
    "sourceurl": "http://baltimore.cbslocal.com/2013/12/05/fbi-arrests-national-guardsman-for-aiding-baltimore-prison-gang-in-contraband-smuggling/",
    "feature_id": "597040",
    "feature_name": "Baltimore",
    "state_alpha": "MD",
    "county_name": "Baltimore (city)",
    "county_numeric": "510",
    "prim_lat_dec": "39.2903848",
    "prim_long_dec": "-76.6121893",
    "elev_in_m": "10",
    "elev_in_ft": "33",
    "lat": 39.2903848,
    "long": -76.6121893
  },
  {
    "globaleventid": 278356678,
    "sqldate": 20131105,
    "monthyear": 201311,
    "year": 2013,
    "fractiondate": "2013.8356",
    "eventcode": 120,
    "quadclass": 3,
    "nummentions": 4,
    "numsources": 2,
    "numarticles": 4,
    "avgtone": "3.33064592173503",
    "sourceurl": "http://www.thenewstribune.com/2013/12/04/2930657/states-assemble-deals-to-attract.html",
    "feature_id": "531871",
    "feature_name": "Washington",
    "state_alpha": "DC",
    "county_name": "District of Columbia",
    "county_numeric": "001",
    "prim_lat_dec": "38.8951118",
    "prim_long_dec": "-77.0363658",
    "elev_in_m": "7",
    "elev_in_ft": "23",
    "lat": 38.8951118,
    "long": -77.0363658
  },
  {
    "globaleventid": 278356670,
    "sqldate": 20131105,
    "monthyear": 201311,
    "year": 2013,
    "fractiondate": "2013.8356",
    "eventcode": 110,
    "quadclass": 3,
    "nummentions": 8,
    "numsources": 2,
    "numarticles": 8,
    "avgtone": "2.49051690883374",
    "sourceurl": "http://www.therepublic.com/view/story/4737a2d3ca9749d082e68521d11cf1d8/WY--Juvenile-Justice&c=e3hQehSWRcX0NkUzOnOGiyN6B16NxVzpvHF1g5dC8_8&mkt=en-us",
    "feature_id": "1609077",
    "feature_name": "Cheyenne",
    "state_alpha": "WY",
    "county_name": "Laramie",
    "county_numeric": "021",
    "prim_lat_dec": "41.1399814",
    "prim_long_dec": "-104.8202462",
    "elev_in_m": "1855",
    "elev_in_ft": "6086",
    "lat": 41.1399814,
    "long": -104.8202462
  },
  {
    "globaleventid": 278356572,
    "sqldate": 20131105,
    "monthyear": 201311,
    "year": 2013,
    "fractiondate": "2013.8356",
    "eventcode": 173,
    "quadclass": 4,
    "nummentions": 1,
    "numsources": 1,
    "numarticles": 1,
    "avgtone": "1.33333333333333",
    "sourceurl": "http://www.thestate.com/2013/12/05/3140805/hearing-delayed-for-suspect-in.html",
    "feature_id": "1225072",
    "feature_name": "North Charleston",
    "state_alpha": "SC",
    "county_name": "Charleston",
    "county_numeric": "019",
    "prim_lat_dec": "32.8546197",
    "prim_long_dec": "-79.9748103",
    "elev_in_m": "6",
    "elev_in_ft": "20",
    "lat": 32.8546197,
    "long": -79.9748103
  },
  {
    "globaleventid": 278356570,
    "sqldate": 20131105,
    "monthyear": 201311,
    "year": 2013,
    "fractiondate": "2013.8356",
    "eventcode": 173,
    "quadclass": 4,
    "nummentions": 1,
    "numsources": 1,
    "numarticles": 1,
    "avgtone": "1.33333333333333",
    "sourceurl": "http://www.thestate.com/2013/12/05/3140805/hearing-delayed-for-suspect-in.html",
    "feature_id": "1225072",
    "feature_name": "North Charleston",
    "state_alpha": "SC",
    "county_name": "Charleston",
    "county_numeric": "019",
    "prim_lat_dec": "32.8546197",
    "prim_long_dec": "-79.9748103",
    "elev_in_m": "6",
    "elev_in_ft": "20",
    "lat": 32.8546197,
    "long": -79.9748103
  },
  {
    "globaleventid": 278356568,
    "sqldate": 20131105,
    "monthyear": 201311,
    "year": 2013,
    "fractiondate": "2013.8356",
    "eventcode": 173,
    "quadclass": 4,
    "nummentions": 2,
    "numsources": 2,
    "numarticles": 2,
    "avgtone": "0.0",
    "sourceurl": "http://www.thetimesherald.com/viewart/20131205/NEWS05/312050012/Hearing-delayed-suspect-med-student-Paul-DeWolf-s-death",
    "feature_id": "1225072",
    "feature_name": "North Charleston",
    "state_alpha": "SC",
    "county_name": "Charleston",
    "county_numeric": "019",
    "prim_lat_dec": "32.8546197",
    "prim_long_dec": "-79.9748103",
    "elev_in_m": "6",
    "elev_in_ft": "20",
    "lat": 32.8546197,
    "long": -79.9748103
  },
  {
    "globaleventid": 278356566,
    "sqldate": 20131105,
    "monthyear": 201311,
    "year": 2013,
    "fractiondate": "2013.8356",
    "eventcode": 173,
    "quadclass": 4,
    "nummentions": 2,
    "numsources": 2,
    "numarticles": 2,
    "avgtone": "0.0",
    "sourceurl": "http://www.thetimesherald.com/viewart/20131205/NEWS05/312050012/Hearing-delayed-suspect-med-student-Paul-DeWolf-s-death",
    "feature_id": "1225072",
    "feature_name": "North Charleston",
    "state_alpha": "SC",
    "county_name": "Charleston",
    "county_numeric": "019",
    "prim_lat_dec": "32.8546197",
    "prim_long_dec": "-79.9748103",
    "elev_in_m": "6",
    "elev_in_ft": "20",
    "lat": 32.8546197,
    "long": -79.9748103
  },
  {
    "globaleventid": 278356564,
    "sqldate": 20131105,
    "monthyear": 201311,
    "year": 2013,
    "fractiondate": "2013.8356",
    "eventcode": 173,
    "quadclass": 4,
    "nummentions": 6,
    "numsources": 3,
    "numarticles": 6,
    "avgtone": "0.444444444444443",
    "sourceurl": "http://www.thetimesherald.com/viewart/20131205/NEWS05/312050012/Hearing-delayed-suspect-med-student-Paul-DeWolf-s-death",
    "feature_id": "1225072",
    "feature_name": "North Charleston",
    "state_alpha": "SC",
    "county_name": "Charleston",
    "county_numeric": "019",
    "prim_lat_dec": "32.8546197",
    "prim_long_dec": "-79.9748103",
    "elev_in_m": "6",
    "elev_in_ft": "20",
    "lat": 32.8546197,
    "long": -79.9748103
  },
  {
    "globaleventid": 278356563,
    "sqldate": 20131105,
    "monthyear": 201311,
    "year": 2013,
    "fractiondate": "2013.8356",
    "eventcode": 120,
    "quadclass": 3,
    "nummentions": 10,
    "numsources": 1,
    "numarticles": 10,
    "avgtone": "3.60884749708964",
    "sourceurl": "http://www.mcclatchydc.com/2013/12/05/210657/politics-not-justice-in-alabama.html",
    "feature_id": "531871",
    "feature_name": "Washington",
    "state_alpha": "DC",
    "county_name": "District of Columbia",
    "county_numeric": "001",
    "prim_lat_dec": "38.8951118",
    "prim_long_dec": "-77.0363658",
    "elev_in_m": "7",
    "elev_in_ft": "23",
    "lat": 38.8951118,
    "long": -77.0363658
  },
  {
    "globaleventid": 278356127,
    "sqldate": 20131105,
    "monthyear": 201311,
    "year": 2013,
    "fractiondate": "2013.8356",
    "eventcode": 173,
    "quadclass": 4,
    "nummentions": 6,
    "numsources": 1,
    "numarticles": 6,
    "avgtone": "1.70682730923695",
    "sourceurl": "http://www.dailymail.co.uk/news/article-2519020/Bank-robbing-brother-sister-say-recruited-father.html?ITO=1490&ns_campaign=1490",
    "feature_id": "1852694",
    "feature_name": "Cinco Ranch",
    "state_alpha": "TX",
    "county_name": "Fort Bend",
    "county_numeric": "157",
    "prim_lat_dec": "29.7388418",
    "prim_long_dec": "-95.7580048",
    "elev_in_m": "34",
    "elev_in_ft": "112",
    "lat": 29.7388418,
    "long": -95.7580048
  },
  {
    "globaleventid": 278356123,
    "sqldate": 20131105,
    "monthyear": 201311,
    "year": 2013,
    "fractiondate": "2013.8356",
    "eventcode": 173,
    "quadclass": 4,
    "nummentions": 2,
    "numsources": 1,
    "numarticles": 2,
    "avgtone": "0.866551126516464",
    "sourceurl": "http://www.ledger-enquirer.com/2013/12/05/2838673/police-newly-arrested-burglary.html",
    "feature_id": "351615",
    "feature_name": "Atlanta",
    "state_alpha": "GA",
    "county_name": "Fulton",
    "county_numeric": "121",
    "prim_lat_dec": "33.7489954",
    "prim_long_dec": "-84.3879824",
    "elev_in_m": "320",
    "elev_in_ft": "1050",
    "lat": 33.7489954,
    "long": -84.3879824
  },
  {
    "globaleventid": 274575298,
    "sqldate": 20131105,
    "monthyear": 201311,
    "year": 2013,
    "fractiondate": "2013.8356",
    "eventcode": 173,
    "quadclass": 4,
    "nummentions": 3,
    "numsources": 1,
    "numarticles": 3,
    "avgtone": "4.4921875",
    "sourceurl": "http://www.eagletribune.com/newhampshire/x1909758405/N-H-Supreme-Court-upholds-convictions",
    "feature_id": "612355",
    "feature_name": "North Andover",
    "state_alpha": "MA",
    "county_name": "Essex",
    "county_numeric": "009",
    "prim_lat_dec": "42.6987024",
    "prim_long_dec": "-71.1350575",
    "elev_in_m": "30",
    "elev_in_ft": "98",
    "lat": 42.6987024,
    "long": -71.1350575
  },
  {
    "globaleventid": 274575297,
    "sqldate": 20131105,
    "monthyear": 201311,
    "year": 2013,
    "fractiondate": "2013.8356",
    "eventcode": 173,
    "quadclass": 4,
    "nummentions": 2,
    "numsources": 1,
    "numarticles": 2,
    "avgtone": "4.4921875",
    "sourceurl": "http://www.eagletribune.com/newhampshire/x1909758405/N-H-Supreme-Court-upholds-convictions",
    "feature_id": "612281",
    "feature_name": "Andover",
    "state_alpha": "MA",
    "county_name": "Essex",
    "county_numeric": "009",
    "prim_lat_dec": "42.6584254",
    "prim_long_dec": "-71.1370012",
    "elev_in_m": "56",
    "elev_in_ft": "184",
    "lat": 42.6584254,
    "long": -71.1370012
  },
  {
    "globaleventid": 274575241,
    "sqldate": 20131105,
    "monthyear": 201311,
    "year": 2013,
    "fractiondate": "2013.8356",
    "eventcode": 110,
    "quadclass": 3,
    "nummentions": 2,
    "numsources": 1,
    "numarticles": 2,
    "avgtone": "2.68987341772152",
    "sourceurl": "http://www.nonprofitquarterly.org/policysocial-context/23197-secret-dark-money-funds-one-of-the-detroit-mayoral-super-pacs.html",
    "feature_id": "1617959",
    "feature_name": "Detroit",
    "state_alpha": "MI",
    "county_name": "Wayne",
    "county_numeric": "163",
    "prim_lat_dec": "42.331427",
    "prim_long_dec": "-83.0457538",
    "elev_in_m": "182",
    "elev_in_ft": "597",
    "lat": 42.331427,
    "long": -83.0457538
  },
  {
    "globaleventid": 274574640,
    "sqldate": 20131105,
    "monthyear": 201311,
    "year": 2013,
    "fractiondate": "2013.8356",
    "eventcode": 186,
    "quadclass": 4,
    "nummentions": 6,
    "numsources": 1,
    "numarticles": 6,
    "avgtone": "2.33463035019455",
    "sourceurl": "http://www.themalaysianinsider.com/world/article/kerry-seeks-to-rescue-israeli-palestinian-peace-process",
    "feature_id": "531871",
    "feature_name": "Washington",
    "state_alpha": "DC",
    "county_name": "District of Columbia",
    "county_numeric": "001",
    "prim_lat_dec": "38.8951118",
    "prim_long_dec": "-77.0363658",
    "elev_in_m": "7",
    "elev_in_ft": "23",
    "lat": 38.8951118,
    "long": -77.0363658
  },
  {
    "globaleventid": 274574476,
    "sqldate": 20131105,
    "monthyear": 201311,
    "year": 2013,
    "fractiondate": "2013.8356",
    "eventcode": 173,
    "quadclass": 4,
    "nummentions": 8,
    "numsources": 1,
    "numarticles": 8,
    "avgtone": "0.78125",
    "sourceurl": "http://foxct.com/2013/11/06/chaos-at-ccsu-initial-911-call-released/",
    "feature_id": "209272",
    "feature_name": "Newington",
    "state_alpha": "CT",
    "county_name": "Hartford",
    "county_numeric": "003",
    "prim_lat_dec": "41.6978777",
    "prim_long_dec": "-72.7237063",
    "elev_in_m": "30",
    "elev_in_ft": "98",
    "lat": 41.6978777,
    "long": -72.7237063
  },
  {
    "globaleventid": 274569468,
    "sqldate": 20131105,
    "monthyear": 201311,
    "year": 2013,
    "fractiondate": "2013.8356",
    "eventcode": 114,
    "quadclass": 3,
    "nummentions": 4,
    "numsources": 1,
    "numarticles": 4,
    "avgtone": "2.4234693877551",
    "sourceurl": "http://www.nydailynews.com/news/election/de-blasio-battle-lack-debate-article-1.1507716",
    "feature_id": "971945",
    "feature_name": "Manhattan",
    "state_alpha": "NY",
    "county_name": "New York",
    "county_numeric": "061",
    "prim_lat_dec": "40.7834345",
    "prim_long_dec": "-73.9662495",
    "elev_in_m": "35",
    "elev_in_ft": "115",
    "lat": 40.7834345,
    "long": -73.9662495
  },
  {
    "globaleventid": 274569256,
    "sqldate": 20131105,
    "monthyear": 201311,
    "year": 2013,
    "fractiondate": "2013.8356",
    "eventcode": 173,
    "quadclass": 4,
    "nummentions": 2,
    "numsources": 1,
    "numarticles": 2,
    "avgtone": "3.99792315680166",
    "sourceurl": "http://antiquesandthearts.com/news/2013/11/05/george-catlin-s-american-buffalo-palm-springs-art/197911",
    "feature_id": "1209052",
    "feature_name": "Philadelphia",
    "state_alpha": "PA",
    "county_name": "Philadelphia",
    "county_numeric": "101",
    "prim_lat_dec": "39.952335",
    "prim_long_dec": "-75.163789",
    "elev_in_m": "14",
    "elev_in_ft": "46",
    "lat": 39.952335,
    "long": -75.163789
  },
  {
    "globaleventid": 274569238,
    "sqldate": 20131105,
    "monthyear": 201311,
    "year": 2013,
    "fractiondate": "2013.8356",
    "eventcode": 173,
    "quadclass": 4,
    "nummentions": 2,
    "numsources": 1,
    "numarticles": 2,
    "avgtone": "2.1021021021021",
    "sourceurl": "http://www.miamiherald.com/2013/11/05/3733918/guatemala-court-to-restart-ex.html",
    "feature_id": "295004",
    "feature_name": "Miami",
    "state_alpha": "FL",
    "county_name": "Miami-Dade",
    "county_numeric": "086",
    "prim_lat_dec": "25.7742658",
    "prim_long_dec": "-80.1936589",
    "elev_in_m": "2",
    "elev_in_ft": "7",
    "lat": 25.7742658,
    "long": -80.1936589
  },
  {
    "globaleventid": 274568938,
    "sqldate": 20131105,
    "monthyear": 201311,
    "year": 2013,
    "fractiondate": "2013.8356",
    "eventcode": 190,
    "quadclass": 4,
    "nummentions": 1,
    "numsources": 1,
    "numarticles": 1,
    "avgtone": "0.543478260869565",
    "sourceurl": "http://www.oklahomastar.com/index.php/sid/218210776/scat/84aeba5e9b6e1230",
    "feature_id": "1091235",
    "feature_name": "Cherokee",
    "state_alpha": "OK",
    "county_name": "Alfalfa",
    "county_numeric": "003",
    "prim_lat_dec": "36.7544746",
    "prim_long_dec": "-98.3567403",
    "elev_in_m": "360",
    "elev_in_ft": "1181",
    "lat": 36.7544746,
    "long": -98.3567403
  },
  {
    "globaleventid": 274568936,
    "sqldate": 20131105,
    "monthyear": 201311,
    "year": 2013,
    "fractiondate": "2013.8356",
    "eventcode": 190,
    "quadclass": 4,
    "nummentions": 1,
    "numsources": 1,
    "numarticles": 1,
    "avgtone": "0.543478260869565",
    "sourceurl": "http://www.oklahomastar.com/index.php/sid/218210776/scat/84aeba5e9b6e1230",
    "feature_id": "1091235",
    "feature_name": "Cherokee",
    "state_alpha": "OK",
    "county_name": "Alfalfa",
    "county_numeric": "003",
    "prim_lat_dec": "36.7544746",
    "prim_long_dec": "-98.3567403",
    "elev_in_m": "360",
    "elev_in_ft": "1181",
    "lat": 36.7544746,
    "long": -98.3567403
  },
  {
    "globaleventid": 274568934,
    "sqldate": 20131105,
    "monthyear": 201311,
    "year": 2013,
    "fractiondate": "2013.8356",
    "eventcode": 173,
    "quadclass": 4,
    "nummentions": 2,
    "numsources": 1,
    "numarticles": 2,
    "avgtone": "2.5",
    "sourceurl": "http://grandlakenews.com/news/article_cc3db123-5d91-5290-9506-bbfab7e966a0.html",
    "feature_id": "1091235",
    "feature_name": "Cherokee",
    "state_alpha": "OK",
    "county_name": "Alfalfa",
    "county_numeric": "003",
    "prim_lat_dec": "36.7544746",
    "prim_long_dec": "-98.3567403",
    "elev_in_m": "360",
    "elev_in_ft": "1181",
    "lat": 36.7544746,
    "long": -98.3567403
  },
  {
    "globaleventid": 274568933,
    "sqldate": 20131105,
    "monthyear": 201311,
    "year": 2013,
    "fractiondate": "2013.8356",
    "eventcode": 100,
    "quadclass": 3,
    "nummentions": 4,
    "numsources": 1,
    "numarticles": 2,
    "avgtone": "2.25140712945591",
    "sourceurl": "http://www.gadsdentimes.com/article/20131105/NEWS/131109901",
    "feature_id": "153101",
    "feature_name": "Rainbow City",
    "state_alpha": "AL",
    "county_name": "Etowah",
    "county_numeric": "055",
    "prim_lat_dec": "33.9548201",
    "prim_long_dec": "-86.0419169",
    "elev_in_m": "170",
    "elev_in_ft": "558",
    "lat": 33.9548201,
    "long": -86.0419169
  },
  {
    "globaleventid": 274568932,
    "sqldate": 20131105,
    "monthyear": 201311,
    "year": 2013,
    "fractiondate": "2013.8356",
    "eventcode": 100,
    "quadclass": 3,
    "nummentions": 4,
    "numsources": 1,
    "numarticles": 2,
    "avgtone": "2.25140712945591",
    "sourceurl": "http://www.gadsdentimes.com/article/20131105/NEWS/131109901",
    "feature_id": "153101",
    "feature_name": "Rainbow City",
    "state_alpha": "AL",
    "county_name": "Etowah",
    "county_numeric": "055",
    "prim_lat_dec": "33.9548201",
    "prim_long_dec": "-86.0419169",
    "elev_in_m": "170",
    "elev_in_ft": "558",
    "lat": 33.9548201,
    "long": -86.0419169
  },
  {
    "globaleventid": 274568900,
    "sqldate": 20131105,
    "monthyear": 201311,
    "year": 2013,
    "fractiondate": "2013.8356",
    "eventcode": 112,
    "quadclass": 3,
    "nummentions": 2,
    "numsources": 1,
    "numarticles": 2,
    "avgtone": "1.3840830449827",
    "sourceurl": "http://kfor.com/2013/11/05/captured-authorities-have-last-two-caddo-county-escapees-back-in-custody/",
    "feature_id": "1091277",
    "feature_name": "Chickasha",
    "state_alpha": "OK",
    "county_name": "Grady",
    "county_numeric": "051",
    "prim_lat_dec": "35.052565",
    "prim_long_dec": "-97.9364326",
    "elev_in_m": "333",
    "elev_in_ft": "1093",
    "lat": 35.052565,
    "long": -97.9364326
  },
  {
    "globaleventid": 274568830,
    "sqldate": 20131105,
    "monthyear": 201311,
    "year": 2013,
    "fractiondate": "2013.8356",
    "eventcode": 190,
    "quadclass": 4,
    "nummentions": 10,
    "numsources": 1,
    "numarticles": 10,
    "avgtone": "0.9375",
    "sourceurl": "http://news.yahoo.com/fugitive-eco-activist-eyes-anti-whale-battle-afar-143648695.html",
    "feature_id": "1662328",
    "feature_name": "Los Angeles",
    "state_alpha": "CA",
    "county_name": "Los Angeles",
    "county_numeric": "037",
    "prim_lat_dec": "34.0522342",
    "prim_long_dec": "-118.2436849",
    "elev_in_m": "89",
    "elev_in_ft": "292",
    "lat": 34.0522342,
    "long": -118.2436849
  },
  {
    "globaleventid": 274568309,
    "sqldate": 20131105,
    "monthyear": 201311,
    "year": 2013,
    "fractiondate": "2013.8356",
    "eventcode": 111,
    "quadclass": 3,
    "nummentions": 2,
    "numsources": 1,
    "numarticles": 2,
    "avgtone": "2.8391167192429",
    "sourceurl": "http://www.plenglish.com//index.php?option=com_content&task=view&id=2023991&Itemid=1",
    "feature_id": "295004",
    "feature_name": "Miami",
    "state_alpha": "FL",
    "county_name": "Miami-Dade",
    "county_numeric": "086",
    "prim_lat_dec": "25.7742658",
    "prim_long_dec": "-80.1936589",
    "elev_in_m": "2",
    "elev_in_ft": "7",
    "lat": 25.7742658,
    "long": -80.1936589
  },
  {
    "globaleventid": 274568039,
    "sqldate": 20131105,
    "monthyear": 201311,
    "year": 2013,
    "fractiondate": "2013.8356",
    "eventcode": 190,
    "quadclass": 4,
    "nummentions": 6,
    "numsources": 1,
    "numarticles": 6,
    "avgtone": "0.327153762268266",
    "sourceurl": "http://www.thenews.com.pk/Todays-News-2-212549-US-drone-have-also-hit-Yemen-and-Somalia&c=_DTFcvRZOyt58jiqDxFkjmXcEUqgVNvEdo5hX-R7mpw&mkt=en-us",
    "feature_id": "531871",
    "feature_name": "Washington",
    "state_alpha": "DC",
    "county_name": "District of Columbia",
    "county_numeric": "001",
    "prim_lat_dec": "38.8951118",
    "prim_long_dec": "-77.0363658",
    "elev_in_m": "7",
    "elev_in_ft": "23",
    "lat": 38.8951118,
    "long": -77.0363658
  },
  {
    "globaleventid": 274568010,
    "sqldate": 20131105,
    "monthyear": 201311,
    "year": 2013,
    "fractiondate": "2013.8356",
    "eventcode": 130,
    "quadclass": 3,
    "nummentions": 3,
    "numsources": 1,
    "numarticles": 3,
    "avgtone": "3.05498981670061",
    "sourceurl": "http://susris.com/2013/11/05/commentary-saudi-arabia-and-the-arab-frontline-states-cordesman/",
    "feature_id": "531871",
    "feature_name": "Washington",
    "state_alpha": "DC",
    "county_name": "District of Columbia",
    "county_numeric": "001",
    "prim_lat_dec": "38.8951118",
    "prim_long_dec": "-77.0363658",
    "elev_in_m": "7",
    "elev_in_ft": "23",
    "lat": 38.8951118,
    "long": -77.0363658
  },
  {
    "globaleventid": 274568003,
    "sqldate": 20131105,
    "monthyear": 201311,
    "year": 2013,
    "fractiondate": "2013.8356",
    "eventcode": 190,
    "quadclass": 4,
    "nummentions": 6,
    "numsources": 1,
    "numarticles": 6,
    "avgtone": "0.327153762268266",
    "sourceurl": "http://www.thenews.com.pk/Todays-News-2-212549-US-drone-have-also-hit-Yemen-and-Somalia&c=_DTFcvRZOyt58jiqDxFkjmXcEUqgVNvEdo5hX-R7mpw&mkt=en-us",
    "feature_id": "531871",
    "feature_name": "Washington",
    "state_alpha": "DC",
    "county_name": "District of Columbia",
    "county_numeric": "001",
    "prim_lat_dec": "38.8951118",
    "prim_long_dec": "-77.0363658",
    "elev_in_m": "7",
    "elev_in_ft": "23",
    "lat": 38.8951118,
    "long": -77.0363658
  },
  {
    "globaleventid": 274567825,
    "sqldate": 20131105,
    "monthyear": 201311,
    "year": 2013,
    "fractiondate": "2013.8356",
    "eventcode": 190,
    "quadclass": 4,
    "nummentions": 8,
    "numsources": 1,
    "numarticles": 8,
    "avgtone": "0.759013282732448",
    "sourceurl": "http://www.cheboygannews.com/article/20131105/NEWS/131109767",
    "feature_id": "623135",
    "feature_name": "Cheboygan",
    "state_alpha": "MI",
    "county_name": "Cheboygan",
    "county_numeric": "031",
    "prim_lat_dec": "45.6469563",
    "prim_long_dec": "-84.4744795",
    "elev_in_m": "179",
    "elev_in_ft": "587",
    "lat": 45.6469563,
    "long": -84.4744795
  },
  {
    "globaleventid": 274567812,
    "sqldate": 20131105,
    "monthyear": 201311,
    "year": 2013,
    "fractiondate": "2013.8356",
    "eventcode": 190,
    "quadclass": 4,
    "nummentions": 4,
    "numsources": 1,
    "numarticles": 4,
    "avgtone": "3.55160932297447",
    "sourceurl": "http://www.upi.com/Top_News/Analysis/Outside-View/2013/11/06/The-American-Follies/UPI-12461383714180/",
    "feature_id": "531871",
    "feature_name": "Washington",
    "state_alpha": "DC",
    "county_name": "District of Columbia",
    "county_numeric": "001",
    "prim_lat_dec": "38.8951118",
    "prim_long_dec": "-77.0363658",
    "elev_in_m": "7",
    "elev_in_ft": "23",
    "lat": 38.8951118,
    "long": -77.0363658
  },
  {
    "globaleventid": 274567454,
    "sqldate": 20131105,
    "monthyear": 201311,
    "year": 2013,
    "fractiondate": "2013.8356",
    "eventcode": 110,
    "quadclass": 3,
    "nummentions": 3,
    "numsources": 1,
    "numarticles": 3,
    "avgtone": "0.743889479277364",
    "sourceurl": "http://hosted2.ap.org/APDEFAULT/89ae8247abe8493fae24405546e9a1aa/Article_2013-11-05-Detroit%20Mayor-Election/id-2f29fcb85b424ecab7f90c04fbf360c8",
    "feature_id": "1617959",
    "feature_name": "Detroit",
    "state_alpha": "MI",
    "county_name": "Wayne",
    "county_numeric": "163",
    "prim_lat_dec": "42.331427",
    "prim_long_dec": "-83.0457538",
    "elev_in_m": "182",
    "elev_in_ft": "597",
    "lat": 42.331427,
    "long": -83.0457538
  },
  {
    "globaleventid": 274567392,
    "sqldate": 20131105,
    "monthyear": 201311,
    "year": 2013,
    "fractiondate": "2013.8356",
    "eventcode": 120,
    "quadclass": 3,
    "nummentions": 2,
    "numsources": 1,
    "numarticles": 2,
    "avgtone": "2.67857142857143",
    "sourceurl": "http://www.presstv.ir/detail/2013/11/05/333145/venezuela-us-relations-to-stay-frozen/",
    "feature_id": "531871",
    "feature_name": "Washington",
    "state_alpha": "DC",
    "county_name": "District of Columbia",
    "county_numeric": "001",
    "prim_lat_dec": "38.8951118",
    "prim_long_dec": "-77.0363658",
    "elev_in_m": "7",
    "elev_in_ft": "23",
    "lat": 38.8951118,
    "long": -77.0363658
  },
  {
    "globaleventid": 274567322,
    "sqldate": 20131105,
    "monthyear": 201311,
    "year": 2013,
    "fractiondate": "2013.8356",
    "eventcode": 174,
    "quadclass": 4,
    "nummentions": 1,
    "numsources": 1,
    "numarticles": 1,
    "avgtone": "2.67857142857143",
    "sourceurl": "http://www.presstv.ir/detail/2013/11/05/333145/venezuela-us-relations-to-stay-frozen/",
    "feature_id": "531871",
    "feature_name": "Washington",
    "state_alpha": "DC",
    "county_name": "District of Columbia",
    "county_numeric": "001",
    "prim_lat_dec": "38.8951118",
    "prim_long_dec": "-77.0363658",
    "elev_in_m": "7",
    "elev_in_ft": "23",
    "lat": 38.8951118,
    "long": -77.0363658
  },
  {
    "globaleventid": 274567196,
    "sqldate": 20131105,
    "monthyear": 201311,
    "year": 2013,
    "fractiondate": "2013.8356",
    "eventcode": 193,
    "quadclass": 4,
    "nummentions": 10,
    "numsources": 1,
    "numarticles": 10,
    "avgtone": "2.49554367201426",
    "sourceurl": "http://www.asianews.it/news-en/Mortar-fire-hits-Nunciature-in-Damascus,-no-casualties-29456.html",
    "feature_id": "1209052",
    "feature_name": "Philadelphia",
    "state_alpha": "PA",
    "county_name": "Philadelphia",
    "county_numeric": "101",
    "prim_lat_dec": "39.952335",
    "prim_long_dec": "-75.163789",
    "elev_in_m": "14",
    "elev_in_ft": "46",
    "lat": 39.952335,
    "long": -75.163789
  },
  {
    "globaleventid": 274567041,
    "sqldate": 20131105,
    "monthyear": 201311,
    "year": 2013,
    "fractiondate": "2013.8356",
    "eventcode": 173,
    "quadclass": 4,
    "nummentions": 2,
    "numsources": 1,
    "numarticles": 2,
    "avgtone": "0.815217391304348",
    "sourceurl": "http://alaska-native-news.com/general-news/9544-kaylynn-s-murderer-nyrobbie-chandler-faces-sentencing-in-fairbanks-today.html",
    "feature_id": "1401958",
    "feature_name": "Fairbanks",
    "state_alpha": "AK",
    "county_name": "Fairbanks North Star",
    "county_numeric": "090",
    "prim_lat_dec": "64.8377778",
    "prim_long_dec": "-147.7163889",
    "elev_in_m": "136",
    "elev_in_ft": "446",
    "lat": 64.8377778,
    "long": -147.7163889
  },
  {
    "globaleventid": 274566908,
    "sqldate": 20131105,
    "monthyear": 201311,
    "year": 2013,
    "fractiondate": "2013.8356",
    "eventcode": 190,
    "quadclass": 4,
    "nummentions": 3,
    "numsources": 1,
    "numarticles": 3,
    "avgtone": "6.25737898465171",
    "sourceurl": "http://www.hopestar.com/article/20131104/NEWS/131109942/1001/NEWS",
    "feature_id": "76914",
    "feature_name": "Fayetteville",
    "state_alpha": "AR",
    "county_name": "Washington",
    "county_numeric": "143",
    "prim_lat_dec": "36.0625795",
    "prim_long_dec": "-94.1574263",
    "elev_in_m": "427",
    "elev_in_ft": "1401",
    "lat": 36.0625795,
    "long": -94.1574263
  },
  {
    "globaleventid": 274566901,
    "sqldate": 20131105,
    "monthyear": 201311,
    "year": 2013,
    "fractiondate": "2013.8356",
    "eventcode": 112,
    "quadclass": 3,
    "nummentions": 2,
    "numsources": 1,
    "numarticles": 2,
    "avgtone": "0.78125",
    "sourceurl": "http://www.eyeonannapolis.net/2013/11/05/regional-recap-november-5-2013/",
    "feature_id": "595031",
    "feature_name": "Annapolis",
    "state_alpha": "MD",
    "county_name": "Anne Arundel",
    "county_numeric": "003",
    "prim_lat_dec": "38.9784453",
    "prim_long_dec": "-76.4921829",
    "elev_in_m": "13",
    "elev_in_ft": "43",
    "lat": 38.9784453,
    "long": -76.4921829
  },
  {
    "globaleventid": 274566900,
    "sqldate": 20131105,
    "monthyear": 201311,
    "year": 2013,
    "fractiondate": "2013.8356",
    "eventcode": 190,
    "quadclass": 4,
    "nummentions": 2,
    "numsources": 1,
    "numarticles": 2,
    "avgtone": "4.91071428571429",
    "sourceurl": "http://www.aspentimes.com/news/8776981-113/aspen-program-military-women",
    "feature_id": "2355591",
    "feature_name": "Aspen Meadows",
    "state_alpha": "IL",
    "county_name": "Will",
    "county_numeric": "197",
    "prim_lat_dec": "41.5625",
    "prim_long_dec": "-88.2330556",
    "elev_in_m": "188",
    "elev_in_ft": "617",
    "lat": 41.5625,
    "long": -88.2330556
  },
  {
    "globaleventid": 274566897,
    "sqldate": 20131105,
    "monthyear": 201311,
    "year": 2013,
    "fractiondate": "2013.8356",
    "eventcode": 193,
    "quadclass": 4,
    "nummentions": 7,
    "numsources": 7,
    "numarticles": 7,
    "avgtone": "1.02960567473717",
    "sourceurl": "http://www.foxnews.com/us/2013/11/05/88-year-old-oregon-man-who-killed-officer-self-had-record-quarrels-domestic/",
    "feature_id": "1136601",
    "feature_name": "Oregon City",
    "state_alpha": "OR",
    "county_name": "Clackamas",
    "county_numeric": "005",
    "prim_lat_dec": "45.3573429",
    "prim_long_dec": "-122.6067583",
    "elev_in_m": "38",
    "elev_in_ft": "125",
    "lat": 45.3573429,
    "long": -122.6067583
  },
  {
    "globaleventid": 274566894,
    "sqldate": 20131105,
    "monthyear": 201311,
    "year": 2013,
    "fractiondate": "2013.8356",
    "eventcode": 190,
    "quadclass": 4,
    "nummentions": 2,
    "numsources": 1,
    "numarticles": 2,
    "avgtone": "4.91071428571429",
    "sourceurl": "http://www.aspentimes.com/news/8776981-113/aspen-program-military-women",
    "feature_id": "2355591",
    "feature_name": "Aspen Meadows",
    "state_alpha": "IL",
    "county_name": "Will",
    "county_numeric": "197",
    "prim_lat_dec": "41.5625",
    "prim_long_dec": "-88.2330556",
    "elev_in_m": "188",
    "elev_in_ft": "617",
    "lat": 41.5625,
    "long": -88.2330556
  },
  {
    "globaleventid": 274566891,
    "sqldate": 20131105,
    "monthyear": 201311,
    "year": 2013,
    "fractiondate": "2013.8356",
    "eventcode": 173,
    "quadclass": 4,
    "nummentions": 2,
    "numsources": 1,
    "numarticles": 2,
    "avgtone": "1.98163363943934",
    "sourceurl": "http://www.spyghana.com/terry-mcknight-discussed-west-african-challenges/",
    "feature_id": "1477420",
    "feature_name": "Hollywood",
    "state_alpha": "VA",
    "county_name": "Pittsylvania",
    "county_numeric": "143",
    "prim_lat_dec": "36.8337509",
    "prim_long_dec": "-79.4961392",
    "elev_in_m": "270",
    "elev_in_ft": "886",
    "lat": 36.8337509,
    "long": -79.4961392
  },
  {
    "globaleventid": 274566831,
    "sqldate": 20131105,
    "monthyear": 201311,
    "year": 2013,
    "fractiondate": "2013.8356",
    "eventcode": 190,
    "quadclass": 4,
    "nummentions": 2,
    "numsources": 1,
    "numarticles": 2,
    "avgtone": "1.98163363943934",
    "sourceurl": "http://www.spyghana.com/terry-mcknight-discussed-west-african-challenges/",
    "feature_id": "1477420",
    "feature_name": "Hollywood",
    "state_alpha": "VA",
    "county_name": "Pittsylvania",
    "county_numeric": "143",
    "prim_lat_dec": "36.8337509",
    "prim_long_dec": "-79.4961392",
    "elev_in_m": "270",
    "elev_in_ft": "886",
    "lat": 36.8337509,
    "long": -79.4961392
  },
  {
    "globaleventid": 274566829,
    "sqldate": 20131105,
    "monthyear": 201311,
    "year": 2013,
    "fractiondate": "2013.8356",
    "eventcode": 130,
    "quadclass": 3,
    "nummentions": 5,
    "numsources": 1,
    "numarticles": 5,
    "avgtone": "2.75590551181102",
    "sourceurl": "http://www.standard.net/stories/2013/11/05/hagel-warns-defense-cuts-mean-trade-offs",
    "feature_id": "531871",
    "feature_name": "Washington",
    "state_alpha": "DC",
    "county_name": "District of Columbia",
    "county_numeric": "001",
    "prim_lat_dec": "38.8951118",
    "prim_long_dec": "-77.0363658",
    "elev_in_m": "7",
    "elev_in_ft": "23",
    "lat": 38.8951118,
    "long": -77.0363658
  },
  {
    "globaleventid": 274566789,
    "sqldate": 20131105,
    "monthyear": 201311,
    "year": 2013,
    "fractiondate": "2013.8356",
    "eventcode": 112,
    "quadclass": 3,
    "nummentions": 2,
    "numsources": 1,
    "numarticles": 2,
    "avgtone": "0.78125",
    "sourceurl": "http://www.eyeonannapolis.net/2013/11/05/regional-recap-november-5-2013/",
    "feature_id": "595031",
    "feature_name": "Annapolis",
    "state_alpha": "MD",
    "county_name": "Anne Arundel",
    "county_numeric": "003",
    "prim_lat_dec": "38.9784453",
    "prim_long_dec": "-76.4921829",
    "elev_in_m": "13",
    "elev_in_ft": "43",
    "lat": 38.9784453,
    "long": -76.4921829
  },
  {
    "globaleventid": 274566786,
    "sqldate": 20131105,
    "monthyear": 201311,
    "year": 2013,
    "fractiondate": "2013.8356",
    "eventcode": 111,
    "quadclass": 3,
    "nummentions": 6,
    "numsources": 1,
    "numarticles": 6,
    "avgtone": "1.8140589569161",
    "sourceurl": "http://www.orlandosentinel.com/news/blogs/political-pulse/os-negron-wants-state-takeover-of-lake-o-discharges-20131105,0,4592078.post",
    "feature_id": "288240",
    "feature_name": "Orlando",
    "state_alpha": "FL",
    "county_name": "Orange",
    "county_numeric": "095",
    "prim_lat_dec": "28.5383355",
    "prim_long_dec": "-81.3792365",
    "elev_in_m": "31",
    "elev_in_ft": "102",
    "lat": 28.5383355,
    "long": -81.3792365
  },
  {
    "globaleventid": 274566704,
    "sqldate": 20131105,
    "monthyear": 201311,
    "year": 2013,
    "fractiondate": "2013.8356",
    "eventcode": 141,
    "quadclass": 3,
    "nummentions": 1,
    "numsources": 1,
    "numarticles": 1,
    "avgtone": "2.10970464135021",
    "sourceurl": "http://www.trivalleycentral.com/casa_grande_dispatch/world_news/at-rally-iranians-shake-fists-at-president-s-outreach-us/article_ecfceb8c-4636-11e3-8ea7-001a4bcf887a.html",
    "feature_id": "531871",
    "feature_name": "Washington",
    "state_alpha": "DC",
    "county_name": "District of Columbia",
    "county_numeric": "001",
    "prim_lat_dec": "38.8951118",
    "prim_long_dec": "-77.0363658",
    "elev_in_m": "7",
    "elev_in_ft": "23",
    "lat": 38.8951118,
    "long": -77.0363658
  },
  {
    "globaleventid": 274566677,
    "sqldate": 20131105,
    "monthyear": 201311,
    "year": 2013,
    "fractiondate": "2013.8356",
    "eventcode": 173,
    "quadclass": 4,
    "nummentions": 2,
    "numsources": 1,
    "numarticles": 2,
    "avgtone": "0.93167701863354",
    "sourceurl": "http://www.pressherald.com/news/Press_seeks_documents_in_Mass__teacher_killing_.html",
    "feature_id": "617565",
    "feature_name": "Boston",
    "state_alpha": "MA",
    "county_name": "Suffolk",
    "county_numeric": "025",
    "prim_lat_dec": "42.3584308",
    "prim_long_dec": "-71.0597732",
    "elev_in_m": "14",
    "elev_in_ft": "46",
    "lat": 42.3584308,
    "long": -71.0597732
  },
  {
    "globaleventid": 274566675,
    "sqldate": 20131105,
    "monthyear": 201311,
    "year": 2013,
    "fractiondate": "2013.8356",
    "eventcode": 120,
    "quadclass": 3,
    "nummentions": 2,
    "numsources": 1,
    "numarticles": 2,
    "avgtone": "1.12044817927171",
    "sourceurl": "http://www.njherald.com/story/23888661/ken-thompson-elected-district-attorney-in-brooklyn",
    "feature_id": "944840",
    "feature_name": "Brooklyn",
    "state_alpha": "NY",
    "county_name": "Delaware",
    "county_numeric": "025",
    "prim_lat_dec": "42.3442482",
    "prim_long_dec": "-75.1704468",
    "elev_in_m": "366",
    "elev_in_ft": "1201",
    "lat": 42.3442482,
    "long": -75.1704468
  },
  {
    "globaleventid": 274566669,
    "sqldate": 20131105,
    "monthyear": 201311,
    "year": 2013,
    "fractiondate": "2013.8356",
    "eventcode": 110,
    "quadclass": 3,
    "nummentions": 2,
    "numsources": 1,
    "numarticles": 2,
    "avgtone": "2.06052801030264",
    "sourceurl": "http://www.newyorker.com/online/blogs/johncassidy/2013/11/the-politics-of-obama-and-obamacare.html",
    "feature_id": "531871",
    "feature_name": "Washington",
    "state_alpha": "DC",
    "county_name": "District of Columbia",
    "county_numeric": "001",
    "prim_lat_dec": "38.8951118",
    "prim_long_dec": "-77.0363658",
    "elev_in_m": "7",
    "elev_in_ft": "23",
    "lat": 38.8951118,
    "long": -77.0363658
  },
  {
    "globaleventid": 274566650,
    "sqldate": 20131105,
    "monthyear": 201311,
    "year": 2013,
    "fractiondate": "2013.8356",
    "eventcode": 141,
    "quadclass": 3,
    "nummentions": 20,
    "numsources": 1,
    "numarticles": 2,
    "avgtone": "1.62241887905605",
    "sourceurl": "http://www.utsandiego.com/news/2013/nov/03/iran-protesters-swarm-former-us-embassy-in-tehran/",
    "feature_id": "531871",
    "feature_name": "Washington",
    "state_alpha": "DC",
    "county_name": "District of Columbia",
    "county_numeric": "001",
    "prim_lat_dec": "38.8951118",
    "prim_long_dec": "-77.0363658",
    "elev_in_m": "7",
    "elev_in_ft": "23",
    "lat": 38.8951118,
    "long": -77.0363658
  },
  {
    "globaleventid": 274566647,
    "sqldate": 20131105,
    "monthyear": 201311,
    "year": 2013,
    "fractiondate": "2013.8356",
    "eventcode": 112,
    "quadclass": 3,
    "nummentions": 8,
    "numsources": 1,
    "numarticles": 8,
    "avgtone": "0.645161290322581",
    "sourceurl": "http://www.myfoxphoenix.com/story/23885693/former-tempe-police-detective-may-be-prosecuted",
    "feature_id": "12233",
    "feature_name": "Tempe",
    "state_alpha": "AZ",
    "county_name": "Maricopa",
    "county_numeric": "013",
    "prim_lat_dec": "33.414768",
    "prim_long_dec": "-111.9093095",
    "elev_in_m": "360",
    "elev_in_ft": "1181",
    "lat": 33.414768,
    "long": -111.9093095
  },
  {
    "globaleventid": 274566645,
    "sqldate": 20131105,
    "monthyear": 201311,
    "year": 2013,
    "fractiondate": "2013.8356",
    "eventcode": 110,
    "quadclass": 3,
    "nummentions": 8,
    "numsources": 1,
    "numarticles": 8,
    "avgtone": "1.0752688172043",
    "sourceurl": "http://www.star-telegram.com/2013/11/05/5309644/neighbors-man-who-killed-officer.html",
    "feature_id": "1136601",
    "feature_name": "Oregon City",
    "state_alpha": "OR",
    "county_name": "Clackamas",
    "county_numeric": "005",
    "prim_lat_dec": "45.3573429",
    "prim_long_dec": "-122.6067583",
    "elev_in_m": "38",
    "elev_in_ft": "125",
    "lat": 45.3573429,
    "long": -122.6067583
  },
  {
    "globaleventid": 274566641,
    "sqldate": 20131105,
    "monthyear": 201311,
    "year": 2013,
    "fractiondate": "2013.8356",
    "eventcode": 193,
    "quadclass": 4,
    "nummentions": 4,
    "numsources": 1,
    "numarticles": 4,
    "avgtone": "1.0752688172043",
    "sourceurl": "http://www.star-telegram.com/2013/11/05/5309644/neighbors-man-who-killed-officer.html",
    "feature_id": "1136601",
    "feature_name": "Oregon City",
    "state_alpha": "OR",
    "county_name": "Clackamas",
    "county_numeric": "005",
    "prim_lat_dec": "45.3573429",
    "prim_long_dec": "-122.6067583",
    "elev_in_m": "38",
    "elev_in_ft": "125",
    "lat": 45.3573429,
    "long": -122.6067583
  },
  {
    "globaleventid": 274566635,
    "sqldate": 20131105,
    "monthyear": 201311,
    "year": 2013,
    "fractiondate": "2013.8356",
    "eventcode": 190,
    "quadclass": 4,
    "nummentions": 12,
    "numsources": 2,
    "numarticles": 12,
    "avgtone": "0.403225806451613",
    "sourceurl": "http://www.bostonstar.com/index.php/sid/218209310/scat/141778e5a055112e",
    "feature_id": "617597",
    "feature_name": "Chicopee",
    "state_alpha": "MA",
    "county_name": "Hampden",
    "county_numeric": "013",
    "prim_lat_dec": "42.1487043",
    "prim_long_dec": "-72.6078672",
    "elev_in_m": "26",
    "elev_in_ft": "85",
    "lat": 42.1487043,
    "long": -72.6078672
  },
  {
    "globaleventid": 274566633,
    "sqldate": 20131105,
    "monthyear": 201311,
    "year": 2013,
    "fractiondate": "2013.8356",
    "eventcode": 190,
    "quadclass": 4,
    "nummentions": 3,
    "numsources": 1,
    "numarticles": 3,
    "avgtone": "1.43112701252236",
    "sourceurl": "http://www.dailymail.co.uk/news/article-2487257/Fewer-Americans-believe-JKFs-assassination-conspiracy-point-history.html?ITO=1490&ns_campaign=1490",
    "feature_id": "531871",
    "feature_name": "Washington",
    "state_alpha": "DC",
    "county_name": "District of Columbia",
    "county_numeric": "001",
    "prim_lat_dec": "38.8951118",
    "prim_long_dec": "-77.0363658",
    "elev_in_m": "7",
    "elev_in_ft": "23",
    "lat": 38.8951118,
    "long": -77.0363658
  },
  {
    "globaleventid": 274566629,
    "sqldate": 20131105,
    "monthyear": 201311,
    "year": 2013,
    "fractiondate": "2013.8356",
    "eventcode": 180,
    "quadclass": 4,
    "nummentions": 14,
    "numsources": 11,
    "numarticles": 12,
    "avgtone": "0.349826441393611",
    "sourceurl": "http://www.ctpost.com/news/article/Oakland-bus-passenger-set-on-fire-4956173.php",
    "feature_id": "1096148",
    "feature_name": "Oakland",
    "state_alpha": "OK",
    "county_name": "Marshall",
    "county_numeric": "095",
    "prim_lat_dec": "34.1000972",
    "prim_long_dec": "-96.7938923",
    "elev_in_m": "246",
    "elev_in_ft": "807",
    "lat": 34.1000972,
    "long": -96.7938923
  },
  {
    "globaleventid": 274566624,
    "sqldate": 20131105,
    "monthyear": 201311,
    "year": 2013,
    "fractiondate": "2013.8356",
    "eventcode": 173,
    "quadclass": 4,
    "nummentions": 10,
    "numsources": 1,
    "numarticles": 10,
    "avgtone": "0.0",
    "sourceurl": "http://blogs.seattletimes.com/today/2013/11/bellingham-fugitive-arrested-in-alaska/",
    "feature_id": "531871",
    "feature_name": "Washington",
    "state_alpha": "DC",
    "county_name": "District of Columbia",
    "county_numeric": "001",
    "prim_lat_dec": "38.8951118",
    "prim_long_dec": "-77.0363658",
    "elev_in_m": "7",
    "elev_in_ft": "23",
    "lat": 38.8951118,
    "long": -77.0363658
  },
  {
    "globaleventid": 274566616,
    "sqldate": 20131105,
    "monthyear": 201311,
    "year": 2013,
    "fractiondate": "2013.8356",
    "eventcode": 129,
    "quadclass": 3,
    "nummentions": 2,
    "numsources": 1,
    "numarticles": 2,
    "avgtone": "5.76323987538941",
    "sourceurl": "http://www.washingtonpost.com/national/illinois-lawmakers-send-governor-bill-making-state-largest-in-heartland-to-allow-gay-marriage/2013/11/05/50bbd174-467d-11e3-95a9-3f15b5618ba8_story.html",
    "feature_id": "426595",
    "feature_name": "Springfield",
    "state_alpha": "IL",
    "county_name": "Sangamon",
    "county_numeric": "167",
    "prim_lat_dec": "39.8017171",
    "prim_long_dec": "-89.6437107",
    "elev_in_m": "183",
    "elev_in_ft": "600",
    "lat": 39.8017171,
    "long": -89.6437107
  },
  {
    "globaleventid": 274566614,
    "sqldate": 20131105,
    "monthyear": 201311,
    "year": 2013,
    "fractiondate": "2013.8356",
    "eventcode": 120,
    "quadclass": 3,
    "nummentions": 1,
    "numsources": 1,
    "numarticles": 1,
    "avgtone": "1.12044817927171",
    "sourceurl": "http://www.njherald.com/story/23888661/ken-thompson-elected-district-attorney-in-brooklyn",
    "feature_id": "944840",
    "feature_name": "Brooklyn",
    "state_alpha": "NY",
    "county_name": "Delaware",
    "county_numeric": "025",
    "prim_lat_dec": "42.3442482",
    "prim_long_dec": "-75.1704468",
    "elev_in_m": "366",
    "elev_in_ft": "1201",
    "lat": 42.3442482,
    "long": -75.1704468
  },
  {
    "globaleventid": 274566613,
    "sqldate": 20131105,
    "monthyear": 201311,
    "year": 2013,
    "fractiondate": "2013.8356",
    "eventcode": 120,
    "quadclass": 3,
    "nummentions": 8,
    "numsources": 1,
    "numarticles": 8,
    "avgtone": "2.87081339712919",
    "sourceurl": "http://www.kob.com/article/stories/s3209768.shtml",
    "feature_id": "899715",
    "feature_name": "Las Cruces",
    "state_alpha": "NM",
    "county_name": "Doa Ana",
    "county_numeric": "013",
    "prim_lat_dec": "32.3123157",
    "prim_long_dec": "-106.7783374",
    "elev_in_m": "1191",
    "elev_in_ft": "3907",
    "lat": 32.3123157,
    "long": -106.7783374
  },
  {
    "globaleventid": 274566611,
    "sqldate": 20131105,
    "monthyear": 201311,
    "year": 2013,
    "fractiondate": "2013.8356",
    "eventcode": 120,
    "quadclass": 3,
    "nummentions": 10,
    "numsources": 1,
    "numarticles": 10,
    "avgtone": "0.628930817610063",
    "sourceurl": "http://www.kltv.com/story/23876810/fate-of-iconic-houston-astrodome-up-to-voters",
    "feature_id": "1380948",
    "feature_name": "Houston",
    "state_alpha": "TX",
    "county_name": "Harris",
    "county_numeric": "201",
    "prim_lat_dec": "29.7632836",
    "prim_long_dec": "-95.3632715",
    "elev_in_m": "11",
    "elev_in_ft": "36",
    "lat": 29.7632836,
    "long": -95.3632715
  },
  {
    "globaleventid": 274566599,
    "sqldate": 20131105,
    "monthyear": 201311,
    "year": 2013,
    "fractiondate": "2013.8356",
    "eventcode": 110,
    "quadclass": 3,
    "nummentions": 2,
    "numsources": 2,
    "numarticles": 2,
    "avgtone": "3.63087063993409",
    "sourceurl": "http://www.kltv.com/story/23866083/in-final-day-va-governor-hopefuls-meet-voters?t=2013-11-04T22:31:21Z",
    "feature_id": "531871",
    "feature_name": "Washington",
    "state_alpha": "DC",
    "county_name": "District of Columbia",
    "county_numeric": "001",
    "prim_lat_dec": "38.8951118",
    "prim_long_dec": "-77.0363658",
    "elev_in_m": "7",
    "elev_in_ft": "23",
    "lat": 38.8951118,
    "long": -77.0363658
  },
  {
    "globaleventid": 274566345,
    "sqldate": 20131105,
    "monthyear": 201311,
    "year": 2013,
    "fractiondate": "2013.8356",
    "eventcode": 140,
    "quadclass": 3,
    "nummentions": 10,
    "numsources": 1,
    "numarticles": 10,
    "avgtone": "1.74825174825175",
    "sourceurl": "http://www.pressherald.com/news/nationworld/Anti-America_rally_aims_to_affect_Iran_leadership.html",
    "feature_id": "531871",
    "feature_name": "Washington",
    "state_alpha": "DC",
    "county_name": "District of Columbia",
    "county_numeric": "001",
    "prim_lat_dec": "38.8951118",
    "prim_long_dec": "-77.0363658",
    "elev_in_m": "7",
    "elev_in_ft": "23",
    "lat": 38.8951118,
    "long": -77.0363658
  },
  {
    "globaleventid": 274566321,
    "sqldate": 20131105,
    "monthyear": 201311,
    "year": 2013,
    "fractiondate": "2013.8356",
    "eventcode": 130,
    "quadclass": 3,
    "nummentions": 40,
    "numsources": 1,
    "numarticles": 40,
    "avgtone": "3.35376869427272",
    "sourceurl": "http://in.reuters.com/article/2013/11/05/usa-defense-hagel-idINDEE9A40BZ20131105?feedType=RSS&feedName=worldNews",
    "feature_id": "531871",
    "feature_name": "Washington",
    "state_alpha": "DC",
    "county_name": "District of Columbia",
    "county_numeric": "001",
    "prim_lat_dec": "38.8951118",
    "prim_long_dec": "-77.0363658",
    "elev_in_m": "7",
    "elev_in_ft": "23",
    "lat": 38.8951118,
    "long": -77.0363658
  },
  {
    "globaleventid": 274566295,
    "sqldate": 20131105,
    "monthyear": 201311,
    "year": 2013,
    "fractiondate": "2013.8356",
    "eventcode": 120,
    "quadclass": 3,
    "nummentions": 1,
    "numsources": 1,
    "numarticles": 1,
    "avgtone": "1.12044817927171",
    "sourceurl": "http://www.njherald.com/story/23888661/ken-thompson-elected-district-attorney-in-brooklyn",
    "feature_id": "944840",
    "feature_name": "Brooklyn",
    "state_alpha": "NY",
    "county_name": "Delaware",
    "county_numeric": "025",
    "prim_lat_dec": "42.3442482",
    "prim_long_dec": "-75.1704468",
    "elev_in_m": "366",
    "elev_in_ft": "1201",
    "lat": 42.3442482,
    "long": -75.1704468
  },
  {
    "globaleventid": 274566261,
    "sqldate": 20131105,
    "monthyear": 201311,
    "year": 2013,
    "fractiondate": "2013.8356",
    "eventcode": 193,
    "quadclass": 4,
    "nummentions": 40,
    "numsources": 3,
    "numarticles": 40,
    "avgtone": "0.750648810947109",
    "sourceurl": "http://www.kolotv.com/news/headlines/Second-Cannonball-Found-in-Carson-City-230710981.html",
    "feature_id": "861100",
    "feature_name": "Reno",
    "state_alpha": "NV",
    "county_name": "Washoe",
    "county_numeric": "031",
    "prim_lat_dec": "39.5296329",
    "prim_long_dec": "-119.8138027",
    "elev_in_m": "1373",
    "elev_in_ft": "4505",
    "lat": 39.5296329,
    "long": -119.8138027
  },
  {
    "globaleventid": 274566260,
    "sqldate": 20131105,
    "monthyear": 201311,
    "year": 2013,
    "fractiondate": "2013.8356",
    "eventcode": 173,
    "quadclass": 4,
    "nummentions": 10,
    "numsources": 1,
    "numarticles": 10,
    "avgtone": "2.0",
    "sourceurl": "http://www.star-telegram.com/2013/11/05/5307939/court-skeptical-of-anti-chemical.html",
    "feature_id": "531871",
    "feature_name": "Washington",
    "state_alpha": "DC",
    "county_name": "District of Columbia",
    "county_numeric": "001",
    "prim_lat_dec": "38.8951118",
    "prim_long_dec": "-77.0363658",
    "elev_in_m": "7",
    "elev_in_ft": "23",
    "lat": 38.8951118,
    "long": -77.0363658
  },
  {
    "globaleventid": 274566226,
    "sqldate": 20131105,
    "monthyear": 201311,
    "year": 2013,
    "fractiondate": "2013.8356",
    "eventcode": 164,
    "quadclass": 4,
    "nummentions": 3,
    "numsources": 1,
    "numarticles": 3,
    "avgtone": "3.84114583333333",
    "sourceurl": "http://www.charlotteobserver.com/2013/11/05/4441854/north-carolina-editorial-roundup.html",
    "feature_id": "1019610",
    "feature_name": "Charlotte",
    "state_alpha": "NC",
    "county_name": "Mecklenburg",
    "county_numeric": "119",
    "prim_lat_dec": "35.2270869",
    "prim_long_dec": "-80.8431268",
    "elev_in_m": "232",
    "elev_in_ft": "761",
    "lat": 35.2270869,
    "long": -80.8431268
  },
  {
    "globaleventid": 274566188,
    "sqldate": 20131105,
    "monthyear": 201311,
    "year": 2013,
    "fractiondate": "2013.8356",
    "eventcode": 190,
    "quadclass": 4,
    "nummentions": 8,
    "numsources": 1,
    "numarticles": 8,
    "avgtone": "0.0",
    "sourceurl": "http://www.whig.com/story/23879311/arrest-made-in-n-calif-bus-passenger-set-on-fire",
    "feature_id": "277566",
    "feature_name": "Oakland",
    "state_alpha": "CA",
    "county_name": "Alameda",
    "county_numeric": "001",
    "prim_lat_dec": "37.8043722",
    "prim_long_dec": "-122.2708026",
    "elev_in_m": "13",
    "elev_in_ft": "43",
    "lat": 37.8043722,
    "long": -122.2708026
  },
  {
    "globaleventid": 274566187,
    "sqldate": 20131105,
    "monthyear": 201311,
    "year": 2013,
    "fractiondate": "2013.8356",
    "eventcode": 190,
    "quadclass": 4,
    "nummentions": 2,
    "numsources": 1,
    "numarticles": 2,
    "avgtone": "0.0",
    "sourceurl": "http://www.whig.com/story/23879311/arrest-made-in-n-calif-bus-passenger-set-on-fire",
    "feature_id": "277566",
    "feature_name": "Oakland",
    "state_alpha": "CA",
    "county_name": "Alameda",
    "county_numeric": "001",
    "prim_lat_dec": "37.8043722",
    "prim_long_dec": "-122.2708026",
    "elev_in_m": "13",
    "elev_in_ft": "43",
    "lat": 37.8043722,
    "long": -122.2708026
  },
  {
    "globaleventid": 274566185,
    "sqldate": 20131105,
    "monthyear": 201311,
    "year": 2013,
    "fractiondate": "2013.8356",
    "eventcode": 173,
    "quadclass": 4,
    "nummentions": 1,
    "numsources": 1,
    "numarticles": 1,
    "avgtone": "3.38345864661654",
    "sourceurl": "http://www.telegram.com/article/20131105/NEWS/311059985/1312",
    "feature_id": "971739",
    "feature_name": "Worcester",
    "state_alpha": "NY",
    "county_name": "Otsego",
    "county_numeric": "077",
    "prim_lat_dec": "42.5914649",
    "prim_long_dec": "-74.7504284",
    "elev_in_m": "407",
    "elev_in_ft": "1335",
    "lat": 42.5914649,
    "long": -74.7504284
  },
  {
    "globaleventid": 274566183,
    "sqldate": 20131105,
    "monthyear": 201311,
    "year": 2013,
    "fractiondate": "2013.8356",
    "eventcode": 173,
    "quadclass": 4,
    "nummentions": 2,
    "numsources": 1,
    "numarticles": 2,
    "avgtone": "0.797872340425532",
    "sourceurl": "http://www.twincities.com/crime/ci_24457689/wisconsin-sheriff-confident-remains-fire-pit-are-teens",
    "feature_id": "1565032",
    "feature_name": "Fitchburg",
    "state_alpha": "WI",
    "county_name": "Dane",
    "county_numeric": "025",
    "prim_lat_dec": "42.9608322",
    "prim_long_dec": "-89.469843",
    "elev_in_m": "311",
    "elev_in_ft": "1020",
    "lat": 42.9608322,
    "long": -89.469843
  },
  {
    "globaleventid": 274566182,
    "sqldate": 20131105,
    "monthyear": 201311,
    "year": 2013,
    "fractiondate": "2013.8356",
    "eventcode": 173,
    "quadclass": 4,
    "nummentions": 2,
    "numsources": 1,
    "numarticles": 2,
    "avgtone": "0.923076923076923",
    "sourceurl": "http://www.thenorthwestern.com/viewart/20131105/OSH0101/311050328/Sheriff-confident-remains-Fitchburg-teen",
    "feature_id": "1567100",
    "feature_name": "Janesville",
    "state_alpha": "WI",
    "county_name": "Rock",
    "county_numeric": "105",
    "prim_lat_dec": "42.6827885",
    "prim_long_dec": "-89.0187223",
    "elev_in_m": "255",
    "elev_in_ft": "837",
    "lat": 42.6827885,
    "long": -89.0187223
  },
  {
    "globaleventid": 274566181,
    "sqldate": 20131105,
    "monthyear": 201311,
    "year": 2013,
    "fractiondate": "2013.8356",
    "eventcode": 173,
    "quadclass": 4,
    "nummentions": 4,
    "numsources": 1,
    "numarticles": 4,
    "avgtone": "1.23456790123457",
    "sourceurl": "http://www.startribune.com/politics/national/230633371.html",
    "feature_id": "1567100",
    "feature_name": "Janesville",
    "state_alpha": "WI",
    "county_name": "Rock",
    "county_numeric": "105",
    "prim_lat_dec": "42.6827885",
    "prim_long_dec": "-89.0187223",
    "elev_in_m": "255",
    "elev_in_ft": "837",
    "lat": 42.6827885,
    "long": -89.0187223
  },
  {
    "globaleventid": 274566180,
    "sqldate": 20131105,
    "monthyear": 201311,
    "year": 2013,
    "fractiondate": "2013.8356",
    "eventcode": 173,
    "quadclass": 4,
    "nummentions": 33,
    "numsources": 4,
    "numarticles": 33,
    "avgtone": "0.890209453858609",
    "sourceurl": "http://www.startribune.com/politics/national/230633371.html",
    "feature_id": "1565032",
    "feature_name": "Fitchburg",
    "state_alpha": "WI",
    "county_name": "Dane",
    "county_numeric": "025",
    "prim_lat_dec": "42.9608322",
    "prim_long_dec": "-89.469843",
    "elev_in_m": "311",
    "elev_in_ft": "1020",
    "lat": 42.9608322,
    "long": -89.469843
  },
  {
    "globaleventid": 274566178,
    "sqldate": 20131105,
    "monthyear": 201311,
    "year": 2013,
    "fractiondate": "2013.8356",
    "eventcode": 112,
    "quadclass": 3,
    "nummentions": 2,
    "numsources": 1,
    "numarticles": 2,
    "avgtone": "0.645161290322581",
    "sourceurl": "http://www.myfoxphoenix.com/story/23885693/former-tempe-police-detective-may-be-prosecuted",
    "feature_id": "12233",
    "feature_name": "Tempe",
    "state_alpha": "AZ",
    "county_name": "Maricopa",
    "county_numeric": "013",
    "prim_lat_dec": "33.414768",
    "prim_long_dec": "-111.9093095",
    "elev_in_m": "360",
    "elev_in_ft": "1181",
    "lat": 33.414768,
    "long": -111.9093095
  },
  {
    "globaleventid": 274566117,
    "sqldate": 20131105,
    "monthyear": 201311,
    "year": 2013,
    "fractiondate": "2013.8356",
    "eventcode": 111,
    "quadclass": 3,
    "nummentions": 8,
    "numsources": 1,
    "numarticles": 8,
    "avgtone": "2.90964777947933",
    "sourceurl": "http://www.dailyherald.com/article/20131105/news/711059814/",
    "feature_id": "531871",
    "feature_name": "Washington",
    "state_alpha": "DC",
    "county_name": "District of Columbia",
    "county_numeric": "001",
    "prim_lat_dec": "38.8951118",
    "prim_long_dec": "-77.0363658",
    "elev_in_m": "7",
    "elev_in_ft": "23",
    "lat": 38.8951118,
    "long": -77.0363658
  },
  {
    "globaleventid": 274566092,
    "sqldate": 20131105,
    "monthyear": 201311,
    "year": 2013,
    "fractiondate": "2013.8356",
    "eventcode": 190,
    "quadclass": 4,
    "nummentions": 1,
    "numsources": 1,
    "numarticles": 1,
    "avgtone": "1.64835164835165",
    "sourceurl": "http://www.politico.com/morningdefense/1113/morningdefense12115.html?hp=rh_b2",
    "feature_id": "531871",
    "feature_name": "Washington",
    "state_alpha": "DC",
    "county_name": "District of Columbia",
    "county_numeric": "001",
    "prim_lat_dec": "38.8951118",
    "prim_long_dec": "-77.0363658",
    "elev_in_m": "7",
    "elev_in_ft": "23",
    "lat": 38.8951118,
    "long": -77.0363658
  },
  {
    "globaleventid": 274565901,
    "sqldate": 20131105,
    "monthyear": 201311,
    "year": 2013,
    "fractiondate": "2013.8356",
    "eventcode": 120,
    "quadclass": 3,
    "nummentions": 2,
    "numsources": 1,
    "numarticles": 2,
    "avgtone": "2.06896551724138",
    "sourceurl": "http://www.emporiagazette.com/news/state/article_308bd3f4-21da-55b7-ba7f-e40ca3229e09.html",
    "feature_id": "485477",
    "feature_name": "Topeka",
    "state_alpha": "KS",
    "county_name": "Shawnee",
    "county_numeric": "177",
    "prim_lat_dec": "39.0483336",
    "prim_long_dec": "-95.6780371",
    "elev_in_m": "289",
    "elev_in_ft": "948",
    "lat": 39.0483336,
    "long": -95.6780371
  },
  {
    "globaleventid": 274565886,
    "sqldate": 20131105,
    "monthyear": 201311,
    "year": 2013,
    "fractiondate": "2013.8356",
    "eventcode": 120,
    "quadclass": 3,
    "nummentions": 2,
    "numsources": 1,
    "numarticles": 2,
    "avgtone": "2.65957446808511",
    "sourceurl": "http://nwpr.org/post/deal-place-build-boeing-777x-washington",
    "feature_id": "531871",
    "feature_name": "Washington",
    "state_alpha": "DC",
    "county_name": "District of Columbia",
    "county_numeric": "001",
    "prim_lat_dec": "38.8951118",
    "prim_long_dec": "-77.0363658",
    "elev_in_m": "7",
    "elev_in_ft": "23",
    "lat": 38.8951118,
    "long": -77.0363658
  },
  {
    "globaleventid": 274565884,
    "sqldate": 20131105,
    "monthyear": 201311,
    "year": 2013,
    "fractiondate": "2013.8356",
    "eventcode": 120,
    "quadclass": 3,
    "nummentions": 2,
    "numsources": 1,
    "numarticles": 2,
    "avgtone": "2.05479452054794",
    "sourceurl": "http://www.ctpost.com/news/article/Most-of-tardy-Kan-lawmaker-s-claim-is-rejected-4957844.php",
    "feature_id": "485477",
    "feature_name": "Topeka",
    "state_alpha": "KS",
    "county_name": "Shawnee",
    "county_numeric": "177",
    "prim_lat_dec": "39.0483336",
    "prim_long_dec": "-95.6780371",
    "elev_in_m": "289",
    "elev_in_ft": "948",
    "lat": 39.0483336,
    "long": -95.6780371
  },
  {
    "globaleventid": 274565883,
    "sqldate": 20131105,
    "monthyear": 201311,
    "year": 2013,
    "fractiondate": "2013.8356",
    "eventcode": 120,
    "quadclass": 3,
    "nummentions": 2,
    "numsources": 1,
    "numarticles": 2,
    "avgtone": "2.05479452054794",
    "sourceurl": "http://www.ctpost.com/news/article/Most-of-tardy-Kan-lawmaker-s-claim-is-rejected-4957844.php",
    "feature_id": "485477",
    "feature_name": "Topeka",
    "state_alpha": "KS",
    "county_name": "Shawnee",
    "county_numeric": "177",
    "prim_lat_dec": "39.0483336",
    "prim_long_dec": "-95.6780371",
    "elev_in_m": "289",
    "elev_in_ft": "948",
    "lat": 39.0483336,
    "long": -95.6780371
  },
  {
    "globaleventid": 274565881,
    "sqldate": 20131105,
    "monthyear": 201311,
    "year": 2013,
    "fractiondate": "2013.8356",
    "eventcode": 111,
    "quadclass": 3,
    "nummentions": 2,
    "numsources": 1,
    "numarticles": 2,
    "avgtone": "2.94117647058824",
    "sourceurl": "http://news.xinhuanet.com/english/world/2013-11/05/c_132861915.htm",
    "feature_id": "531871",
    "feature_name": "Washington",
    "state_alpha": "DC",
    "county_name": "District of Columbia",
    "county_numeric": "001",
    "prim_lat_dec": "38.8951118",
    "prim_long_dec": "-77.0363658",
    "elev_in_m": "7",
    "elev_in_ft": "23",
    "lat": 38.8951118,
    "long": -77.0363658
  },
  {
    "globaleventid": 274565788,
    "sqldate": 20131105,
    "monthyear": 201311,
    "year": 2013,
    "fractiondate": "2013.8356",
    "eventcode": 120,
    "quadclass": 3,
    "nummentions": 2,
    "numsources": 1,
    "numarticles": 2,
    "avgtone": "2.06896551724138",
    "sourceurl": "http://www.emporiagazette.com/news/state/article_308bd3f4-21da-55b7-ba7f-e40ca3229e09.html",
    "feature_id": "485477",
    "feature_name": "Topeka",
    "state_alpha": "KS",
    "county_name": "Shawnee",
    "county_numeric": "177",
    "prim_lat_dec": "39.0483336",
    "prim_long_dec": "-95.6780371",
    "elev_in_m": "289",
    "elev_in_ft": "948",
    "lat": 39.0483336,
    "long": -95.6780371
  },
  {
    "globaleventid": 274565784,
    "sqldate": 20131105,
    "monthyear": 201311,
    "year": 2013,
    "fractiondate": "2013.8356",
    "eventcode": 110,
    "quadclass": 3,
    "nummentions": 5,
    "numsources": 1,
    "numarticles": 5,
    "avgtone": "3.6697247706422",
    "sourceurl": "http://blogs.rollcall.com/beltway-insiders/ideology-isnt-source-of-all-partisanship-procedural-politics/",
    "feature_id": "531871",
    "feature_name": "Washington",
    "state_alpha": "DC",
    "county_name": "District of Columbia",
    "county_numeric": "001",
    "prim_lat_dec": "38.8951118",
    "prim_long_dec": "-77.0363658",
    "elev_in_m": "7",
    "elev_in_ft": "23",
    "lat": 38.8951118,
    "long": -77.0363658
  },
  {
    "globaleventid": 274565768,
    "sqldate": 20131105,
    "monthyear": 201311,
    "year": 2013,
    "fractiondate": "2013.8356",
    "eventcode": 100,
    "quadclass": 3,
    "nummentions": 6,
    "numsources": 1,
    "numarticles": 6,
    "avgtone": "3.97830018083183",
    "sourceurl": "http://www.indianexpress.com/news/how-to-talk-to-iran/1190965/",
    "feature_id": "531871",
    "feature_name": "Washington",
    "state_alpha": "DC",
    "county_name": "District of Columbia",
    "county_numeric": "001",
    "prim_lat_dec": "38.8951118",
    "prim_long_dec": "-77.0363658",
    "elev_in_m": "7",
    "elev_in_ft": "23",
    "lat": 38.8951118,
    "long": -77.0363658
  },
  {
    "globaleventid": 274565733,
    "sqldate": 20131105,
    "monthyear": 201311,
    "year": 2013,
    "fractiondate": "2013.8356",
    "eventcode": 120,
    "quadclass": 3,
    "nummentions": 2,
    "numsources": 1,
    "numarticles": 2,
    "avgtone": "2.65957446808511",
    "sourceurl": "http://nwpr.org/post/deal-place-build-boeing-777x-washington",
    "feature_id": "531871",
    "feature_name": "Washington",
    "state_alpha": "DC",
    "county_name": "District of Columbia",
    "county_numeric": "001",
    "prim_lat_dec": "38.8951118",
    "prim_long_dec": "-77.0363658",
    "elev_in_m": "7",
    "elev_in_ft": "23",
    "lat": 38.8951118,
    "long": -77.0363658
  },
  {
    "globaleventid": 274565625,
    "sqldate": 20131105,
    "monthyear": 201311,
    "year": 2013,
    "fractiondate": "2013.8356",
    "eventcode": 112,
    "quadclass": 3,
    "nummentions": 2,
    "numsources": 1,
    "numarticles": 2,
    "avgtone": "4.30839002267574",
    "sourceurl": "http://abcnews.go.com/US/tsa-officer-wounded-lax-shooting-protect-people/story?id=20785327",
    "feature_id": "879219",
    "feature_name": "Pennsville",
    "state_alpha": "NJ",
    "county_name": "Salem",
    "county_numeric": "033",
    "prim_lat_dec": "39.6534464",
    "prim_long_dec": "-75.5165881",
    "elev_in_m": "2",
    "elev_in_ft": "7",
    "lat": 39.6534464,
    "long": -75.5165881
  },
  {
    "globaleventid": 274565584,
    "sqldate": 20131105,
    "monthyear": 201311,
    "year": 2013,
    "fractiondate": "2013.8356",
    "eventcode": 173,
    "quadclass": 4,
    "nummentions": 2,
    "numsources": 2,
    "numarticles": 2,
    "avgtone": "2.86458333333333",
    "sourceurl": "http://www.newyorkstatesman.com/index.php/sid/218184530/scat/e8d88d4b9a8be96b",
    "feature_id": "971945",
    "feature_name": "Manhattan",
    "state_alpha": "NY",
    "county_name": "New York",
    "county_numeric": "061",
    "prim_lat_dec": "40.7834345",
    "prim_long_dec": "-73.9662495",
    "elev_in_m": "35",
    "elev_in_ft": "115",
    "lat": 40.7834345,
    "long": -73.9662495
  },
  {
    "globaleventid": 274565575,
    "sqldate": 20131105,
    "monthyear": 201311,
    "year": 2013,
    "fractiondate": "2013.8356",
    "eventcode": 100,
    "quadclass": 3,
    "nummentions": 4,
    "numsources": 1,
    "numarticles": 4,
    "avgtone": "1.5625",
    "sourceurl": "http://www.kansas.com/2013/11/05/3098147/challenge-to-kan-voter-law-moves.html",
    "feature_id": "473862",
    "feature_name": "Wichita",
    "state_alpha": "KS",
    "county_name": "Sedgwick",
    "county_numeric": "173",
    "prim_lat_dec": "37.6922361",
    "prim_long_dec": "-97.3375448",
    "elev_in_m": "397",
    "elev_in_ft": "1302",
    "lat": 37.6922361,
    "long": -97.3375448
  },
  {
    "globaleventid": 274565574,
    "sqldate": 20131105,
    "monthyear": 201311,
    "year": 2013,
    "fractiondate": "2013.8356",
    "eventcode": 193,
    "quadclass": 4,
    "nummentions": 54,
    "numsources": 9,
    "numarticles": 54,
    "avgtone": "0.855266054571878",
    "sourceurl": "http://mynorthwest.com/?nid=15&sid=2387184",
    "feature_id": "1662328",
    "feature_name": "Los Angeles",
    "state_alpha": "CA",
    "county_name": "Los Angeles",
    "county_numeric": "037",
    "prim_lat_dec": "34.0522342",
    "prim_long_dec": "-118.2436849",
    "elev_in_m": "89",
    "elev_in_ft": "292",
    "lat": 34.0522342,
    "long": -118.2436849
  },
  {
    "globaleventid": 274565571,
    "sqldate": 20131105,
    "monthyear": 201311,
    "year": 2013,
    "fractiondate": "2013.8356",
    "eventcode": 100,
    "quadclass": 3,
    "nummentions": 1,
    "numsources": 1,
    "numarticles": 1,
    "avgtone": "0.50251256281407",
    "sourceurl": "http://www.duluthnewstribune.com/event/article/id/282752/",
    "feature_id": "661145",
    "feature_name": "Duluth",
    "state_alpha": "MN",
    "county_name": "St. Louis",
    "county_numeric": "137",
    "prim_lat_dec": "46.7832731",
    "prim_long_dec": "-92.1065787",
    "elev_in_m": "214",
    "elev_in_ft": "702",
    "lat": 46.7832731,
    "long": -92.1065787
  },
  {
    "globaleventid": 274565569,
    "sqldate": 20131105,
    "monthyear": 201311,
    "year": 2013,
    "fractiondate": "2013.8356",
    "eventcode": 193,
    "quadclass": 4,
    "nummentions": 5,
    "numsources": 1,
    "numarticles": 5,
    "avgtone": "3.53535353535354",
    "sourceurl": "http://www.eenews.net/greenwire/stories/1059989978/feed",
    "feature_id": "928679",
    "feature_name": "Albuquerque",
    "state_alpha": "NM",
    "county_name": "Bernalillo",
    "county_numeric": "001",
    "prim_lat_dec": "35.0844909",
    "prim_long_dec": "-106.6511367",
    "elev_in_m": "1510",
    "elev_in_ft": "4954",
    "lat": 35.0844909,
    "long": -106.6511367
  },
  {
    "globaleventid": 274565564,
    "sqldate": 20131105,
    "monthyear": 201311,
    "year": 2013,
    "fractiondate": "2013.8356",
    "eventcode": 190,
    "quadclass": 4,
    "nummentions": 6,
    "numsources": 1,
    "numarticles": 6,
    "avgtone": "3.25047801147228",
    "sourceurl": "http://theadvocate.com/news/7503738-123/la-supreme-court-decides-convicted",
    "feature_id": "1629985",
    "feature_name": "New Orleans",
    "state_alpha": "LA",
    "county_name": "Orleans",
    "county_numeric": "071",
    "prim_lat_dec": "29.9546482",
    "prim_long_dec": "-90.075072",
    "elev_in_m": "0",
    "elev_in_ft": "0",
    "lat": 29.9546482,
    "long": -90.075072
  },
  {
    "globaleventid": 274565560,
    "sqldate": 20131105,
    "monthyear": 201311,
    "year": 2013,
    "fractiondate": "2013.8356",
    "eventcode": 190,
    "quadclass": 4,
    "nummentions": 2,
    "numsources": 1,
    "numarticles": 2,
    "avgtone": "0.961538461538462",
    "sourceurl": "http://abclocal.go.com/ktrk/story?section=news/state&id=9313122",
    "feature_id": "1380944",
    "feature_name": "Dallas",
    "state_alpha": "TX",
    "county_name": "Dallas",
    "county_numeric": "113",
    "prim_lat_dec": "32.7830556",
    "prim_long_dec": "-96.8066667",
    "elev_in_m": "128",
    "elev_in_ft": "420",
    "lat": 32.7830556,
    "long": -96.8066667
  },
  {
    "globaleventid": 274565559,
    "sqldate": 20131105,
    "monthyear": 201311,
    "year": 2013,
    "fractiondate": "2013.8356",
    "eventcode": 190,
    "quadclass": 4,
    "nummentions": 10,
    "numsources": 1,
    "numarticles": 10,
    "avgtone": "0.900900900900901",
    "sourceurl": "http://news.providencejournal.com/breaking-news/2013/11/judge-to-resentence-texas-gas-company-for-environmental-crime-in-ri.html",
    "feature_id": "1218926",
    "feature_name": "Pawtucket",
    "state_alpha": "RI",
    "county_name": "Providence",
    "county_numeric": "007",
    "prim_lat_dec": "41.878711",
    "prim_long_dec": "-71.3825558",
    "elev_in_m": "12",
    "elev_in_ft": "39",
    "lat": 41.878711,
    "long": -71.3825558
  },
  {
    "globaleventid": 274565550,
    "sqldate": 20131105,
    "monthyear": 201311,
    "year": 2013,
    "fractiondate": "2013.8356",
    "eventcode": 173,
    "quadclass": 4,
    "nummentions": 2,
    "numsources": 1,
    "numarticles": 2,
    "avgtone": "0.719424460431655",
    "sourceurl": "http://www.bendbulletin.com/apps/pbcs.dll/article?AID=/20131105/NEWS0107/311050335/1001/NEWS01&nav_category=NEWS01",
    "feature_id": "1167861",
    "feature_name": "Salem",
    "state_alpha": "OR",
    "county_name": "Marion",
    "county_numeric": "047",
    "prim_lat_dec": "44.9428975",
    "prim_long_dec": "-123.0350963",
    "elev_in_m": "48",
    "elev_in_ft": "157",
    "lat": 44.9428975,
    "long": -123.0350963
  },
  {
    "globaleventid": 274565546,
    "sqldate": 20131105,
    "monthyear": 201311,
    "year": 2013,
    "fractiondate": "2013.8356",
    "eventcode": 173,
    "quadclass": 4,
    "nummentions": 6,
    "numsources": 1,
    "numarticles": 6,
    "avgtone": "3.25047801147228",
    "sourceurl": "http://theadvocate.com/news/7503738-123/la-supreme-court-decides-convicted",
    "feature_id": "1629985",
    "feature_name": "New Orleans",
    "state_alpha": "LA",
    "county_name": "Orleans",
    "county_numeric": "071",
    "prim_lat_dec": "29.9546482",
    "prim_long_dec": "-90.075072",
    "elev_in_m": "0",
    "elev_in_ft": "0",
    "lat": 29.9546482,
    "long": -90.075072
  },
  {
    "globaleventid": 274565544,
    "sqldate": 20131105,
    "monthyear": 201311,
    "year": 2013,
    "fractiondate": "2013.8356",
    "eventcode": 173,
    "quadclass": 4,
    "nummentions": 6,
    "numsources": 2,
    "numarticles": 6,
    "avgtone": "2.93684309309309",
    "sourceurl": "http://www.newyorkstatesman.com/index.php/sid/218184527/scat/e8d88d4b9a8be96b",
    "feature_id": "971945",
    "feature_name": "Manhattan",
    "state_alpha": "NY",
    "county_name": "New York",
    "county_numeric": "061",
    "prim_lat_dec": "40.7834345",
    "prim_long_dec": "-73.9662495",
    "elev_in_m": "35",
    "elev_in_ft": "115",
    "lat": 40.7834345,
    "long": -73.9662495
  },
  {
    "globaleventid": 274565543,
    "sqldate": 20131105,
    "monthyear": 201311,
    "year": 2013,
    "fractiondate": "2013.8356",
    "eventcode": 173,
    "quadclass": 4,
    "nummentions": 2,
    "numsources": 1,
    "numarticles": 2,
    "avgtone": "1.35135135135135",
    "sourceurl": "http://www.steubencourier.com/article/20131105/NEWS/311059999",
    "feature_id": "969052",
    "feature_name": "Wellsville",
    "state_alpha": "NY",
    "county_name": "Montgomery",
    "county_numeric": "057",
    "prim_lat_dec": "42.8759077",
    "prim_long_dec": "-74.2723535",
    "elev_in_m": "116",
    "elev_in_ft": "381",
    "lat": 42.8759077,
    "long": -74.2723535
  },
  {
    "globaleventid": 274565542,
    "sqldate": 20131105,
    "monthyear": 201311,
    "year": 2013,
    "fractiondate": "2013.8356",
    "eventcode": 173,
    "quadclass": 4,
    "nummentions": 2,
    "numsources": 1,
    "numarticles": 2,
    "avgtone": "4.38247011952191",
    "sourceurl": "http://www.ny1.com/content/news/195906/voters-to-decide-winner-in-heated-brooklyn-da-race",
    "feature_id": "944840",
    "feature_name": "Brooklyn",
    "state_alpha": "NY",
    "county_name": "Delaware",
    "county_numeric": "025",
    "prim_lat_dec": "42.3442482",
    "prim_long_dec": "-75.1704468",
    "elev_in_m": "366",
    "elev_in_ft": "1201",
    "lat": 42.3442482,
    "long": -75.1704468
  },
  {
    "globaleventid": 274565541,
    "sqldate": 20131105,
    "monthyear": 201311,
    "year": 2013,
    "fractiondate": "2013.8356",
    "eventcode": 173,
    "quadclass": 4,
    "nummentions": 2,
    "numsources": 1,
    "numarticles": 2,
    "avgtone": "0.0",
    "sourceurl": "http://www.mlive.com/news/kalamazoo/index.ssf/2013/11/suspect_in_oshtemo_chemical_ba.html",
    "feature_id": "627105",
    "feature_name": "Grand Rapids",
    "state_alpha": "MI",
    "county_name": "Kent",
    "county_numeric": "081",
    "prim_lat_dec": "42.9633599",
    "prim_long_dec": "-85.6680863",
    "elev_in_m": "195",
    "elev_in_ft": "640",
    "lat": 42.9633599,
    "long": -85.6680863
  },
  {
    "globaleventid": 274565539,
    "sqldate": 20131105,
    "monthyear": 201311,
    "year": 2013,
    "fractiondate": "2013.8356",
    "eventcode": 173,
    "quadclass": 4,
    "nummentions": 10,
    "numsources": 1,
    "numarticles": 6,
    "avgtone": "2.33281493001555",
    "sourceurl": "http://www.milforddailynews.com/news/x825427652/Milford-Judge-to-rule-on-Guaman-competency",
    "feature_id": "617867",
    "feature_name": "Worcester",
    "state_alpha": "MA",
    "county_name": "Worcester",
    "county_numeric": "027",
    "prim_lat_dec": "42.2625932",
    "prim_long_dec": "-71.8022934",
    "elev_in_m": "146",
    "elev_in_ft": "479",
    "lat": 42.2625932,
    "long": -71.8022934
  },
  {
    "globaleventid": 274565538,
    "sqldate": 20131105,
    "monthyear": 201311,
    "year": 2013,
    "fractiondate": "2013.8356",
    "eventcode": 173,
    "quadclass": 4,
    "nummentions": 1,
    "numsources": 1,
    "numarticles": 1,
    "avgtone": "0.847457627118644",
    "sourceurl": "http://times-news.com/local/x862201100/Woman-gets-10-years-in-pepper-spray-robbery-at-pharmacy",
    "feature_id": "591532",
    "feature_name": "Westernport",
    "state_alpha": "MD",
    "county_name": "Allegany",
    "county_numeric": "001",
    "prim_lat_dec": "39.4853703",
    "prim_long_dec": "-79.0447516",
    "elev_in_m": "280",
    "elev_in_ft": "919",
    "lat": 39.4853703,
    "long": -79.0447516
  },
  {
    "globaleventid": 274565534,
    "sqldate": 20131105,
    "monthyear": 201311,
    "year": 2013,
    "fractiondate": "2013.8356",
    "eventcode": 173,
    "quadclass": 4,
    "nummentions": 4,
    "numsources": 1,
    "numarticles": 4,
    "avgtone": "2.40343347639485",
    "sourceurl": "http://www.ibj.com/how-the-brizzi-public-corruption-case-unraveled/PARAMS/article/44425",
    "feature_id": "452796",
    "feature_name": "South Bend",
    "state_alpha": "IN",
    "county_name": "St. Joseph",
    "county_numeric": "141",
    "prim_lat_dec": "41.6833813",
    "prim_long_dec": "-86.2500066",
    "elev_in_m": "211",
    "elev_in_ft": "692",
    "lat": 41.6833813,
    "long": -86.2500066
  },
  {
    "globaleventid": 274565533,
    "sqldate": 20131105,
    "monthyear": 201311,
    "year": 2013,
    "fractiondate": "2013.8356",
    "eventcode": 173,
    "quadclass": 4,
    "nummentions": 1,
    "numsources": 1,
    "numarticles": 1,
    "avgtone": "0.25706940874036",
    "sourceurl": "http://www.suntimes.com/news/crime/23546262-418/no-bond-for-lookout-in-pilsen-double-murder.html",
    "feature_id": "1764315",
    "feature_name": "Pilsen",
    "state_alpha": "IL",
    "county_name": "Cook",
    "county_numeric": "031",
    "prim_lat_dec": "41.8575329",
    "prim_long_dec": "-87.6575528",
    "elev_in_m": "182",
    "elev_in_ft": "597",
    "lat": 41.8575329,
    "long": -87.6575528
  },
  {
    "globaleventid": 274565532,
    "sqldate": 20131105,
    "monthyear": 201311,
    "year": 2013,
    "fractiondate": "2013.8356",
    "eventcode": 173,
    "quadclass": 4,
    "nummentions": 2,
    "numsources": 1,
    "numarticles": 2,
    "avgtone": "0.432900432900433",
    "sourceurl": "http://members.jacksonville.com/news/crime/2013-11-05/story/law-disorder-officer-hit-fleeing-car-pair-arrested",
    "feature_id": "2484276",
    "feature_name": "Mill Point",
    "state_alpha": "FL",
    "county_name": "Hillsborough",
    "county_numeric": "057",
    "prim_lat_dec": "27.8623",
    "prim_long_dec": "-82.3727",
    "elev_in_m": "3",
    "elev_in_ft": "10",
    "lat": 27.8623,
    "long": -82.3727
  },
  {
    "globaleventid": 274565531,
    "sqldate": 20131105,
    "monthyear": 201311,
    "year": 2013,
    "fractiondate": "2013.8356",
    "eventcode": 173,
    "quadclass": 4,
    "nummentions": 2,
    "numsources": 1,
    "numarticles": 2,
    "avgtone": "1.69491525423729",
    "sourceurl": "http://www.paloaltoonline.com/news/2013/11/05/former-49er-found-guilty-of-misdemeanors-in-domestic-violence-case",
    "feature_id": "277593",
    "feature_name": "San Francisco",
    "state_alpha": "CA",
    "county_name": "San Francisco",
    "county_numeric": "075",
    "prim_lat_dec": "37.775",
    "prim_long_dec": "-122.4194444",
    "elev_in_m": "16",
    "elev_in_ft": "52",
    "lat": 37.775,
    "long": -122.4194444
  },
  {
    "globaleventid": 274565529,
    "sqldate": 20131105,
    "monthyear": 201311,
    "year": 2013,
    "fractiondate": "2013.8356",
    "eventcode": 173,
    "quadclass": 4,
    "nummentions": 22,
    "numsources": 9,
    "numarticles": 22,
    "avgtone": "1.35603542672252",
    "sourceurl": "http://www.newschannel10.com/story/23885139/texas-contractor-guilty-of-duping-katrina-victims",
    "feature_id": "1629985",
    "feature_name": "New Orleans",
    "state_alpha": "LA",
    "county_name": "Orleans",
    "county_numeric": "071",
    "prim_lat_dec": "29.9546482",
    "prim_long_dec": "-90.075072",
    "elev_in_m": "0",
    "elev_in_ft": "0",
    "lat": 29.9546482,
    "long": -90.075072
  },
  {
    "globaleventid": 274565527,
    "sqldate": 20131105,
    "monthyear": 201311,
    "year": 2013,
    "fractiondate": "2013.8356",
    "eventcode": 173,
    "quadclass": 4,
    "nummentions": 4,
    "numsources": 1,
    "numarticles": 4,
    "avgtone": "2.52873563218391",
    "sourceurl": "http://www.alaskapublic.org/2013/11/04/metlakatla-man-receives-60-years-to-serve-for-murder/",
    "feature_id": "1423039",
    "feature_name": "Ketchikan",
    "state_alpha": "AK",
    "county_name": "Ketchikan Gateway",
    "county_numeric": "130",
    "prim_lat_dec": "55.3422222",
    "prim_long_dec": "-131.6461111",
    "elev_in_m": "6",
    "elev_in_ft": "20",
    "lat": 55.3422222,
    "long": -131.6461111
  },
  {
    "globaleventid": 274565524,
    "sqldate": 20131105,
    "monthyear": 201311,
    "year": 2013,
    "fractiondate": "2013.8356",
    "eventcode": 172,
    "quadclass": 4,
    "nummentions": 2,
    "numsources": 1,
    "numarticles": 2,
    "avgtone": "5.8974358974359",
    "sourceurl": "http://www.statesman.com/news/news/texas-court-takes-on-same-sex-divorce/nbhz7/",
    "feature_id": "1380944",
    "feature_name": "Dallas",
    "state_alpha": "TX",
    "county_name": "Dallas",
    "county_numeric": "113",
    "prim_lat_dec": "32.7830556",
    "prim_long_dec": "-96.8066667",
    "elev_in_m": "128",
    "elev_in_ft": "420",
    "lat": 32.7830556,
    "long": -96.8066667
  },
  {
    "globaleventid": 274565523,
    "sqldate": 20131105,
    "monthyear": 201311,
    "year": 2013,
    "fractiondate": "2013.8356",
    "eventcode": 172,
    "quadclass": 4,
    "nummentions": 2,
    "numsources": 1,
    "numarticles": 2,
    "avgtone": "5.8974358974359",
    "sourceurl": "http://www.statesman.com/news/news/texas-court-takes-on-same-sex-divorce/nbhz7/",
    "feature_id": "1380944",
    "feature_name": "Dallas",
    "state_alpha": "TX",
    "county_name": "Dallas",
    "county_numeric": "113",
    "prim_lat_dec": "32.7830556",
    "prim_long_dec": "-96.8066667",
    "elev_in_m": "128",
    "elev_in_ft": "420",
    "lat": 32.7830556,
    "long": -96.8066667
  },
  {
    "globaleventid": 274565509,
    "sqldate": 20131105,
    "monthyear": 201311,
    "year": 2013,
    "fractiondate": "2013.8356",
    "eventcode": 120,
    "quadclass": 3,
    "nummentions": 2,
    "numsources": 1,
    "numarticles": 2,
    "avgtone": "0.757575757575758",
    "sourceurl": "http://www.coloradostar.com/index.php/sid/218188229/scat/c5561a463525350d",
    "feature_id": "201738",
    "feature_name": "Denver",
    "state_alpha": "CO",
    "county_name": "Denver",
    "county_numeric": "031",
    "prim_lat_dec": "39.7391536",
    "prim_long_dec": "-104.9847034",
    "elev_in_m": "1609",
    "elev_in_ft": "5279",
    "lat": 39.7391536,
    "long": -104.9847034
  },
  {
    "globaleventid": 274565508,
    "sqldate": 20131105,
    "monthyear": 201311,
    "year": 2013,
    "fractiondate": "2013.8356",
    "eventcode": 120,
    "quadclass": 3,
    "nummentions": 4,
    "numsources": 1,
    "numarticles": 4,
    "avgtone": "0.757575757575758",
    "sourceurl": "http://www.coloradostar.com/index.php/sid/218188229/scat/c5561a463525350d",
    "feature_id": "201738",
    "feature_name": "Denver",
    "state_alpha": "CO",
    "county_name": "Denver",
    "county_numeric": "031",
    "prim_lat_dec": "39.7391536",
    "prim_long_dec": "-104.9847034",
    "elev_in_m": "1609",
    "elev_in_ft": "5279",
    "lat": 39.7391536,
    "long": -104.9847034
  },
  {
    "globaleventid": 274565505,
    "sqldate": 20131105,
    "monthyear": 201311,
    "year": 2013,
    "fractiondate": "2013.8356",
    "eventcode": 120,
    "quadclass": 3,
    "nummentions": 14,
    "numsources": 5,
    "numarticles": 14,
    "avgtone": "0.153609831029186",
    "sourceurl": "http://www.therepublic.com/view/story/f308982afdfe421cbdde8e02787f58b6/ID--Toddler-Death",
    "feature_id": "1454997",
    "feature_name": "Salt Lake City",
    "state_alpha": "UT",
    "county_name": "Salt Lake",
    "county_numeric": "035",
    "prim_lat_dec": "40.7607794",
    "prim_long_dec": "-111.8910474",
    "elev_in_m": "1300",
    "elev_in_ft": "4265",
    "lat": 40.7607794,
    "long": -111.8910474
  },
  {
    "globaleventid": 274565504,
    "sqldate": 20131105,
    "monthyear": 201311,
    "year": 2013,
    "fractiondate": "2013.8356",
    "eventcode": 120,
    "quadclass": 3,
    "nummentions": 6,
    "numsources": 1,
    "numarticles": 6,
    "avgtone": "5.8974358974359",
    "sourceurl": "http://www.statesman.com/news/news/texas-court-takes-on-same-sex-divorce/nbhz7/",
    "feature_id": "1380944",
    "feature_name": "Dallas",
    "state_alpha": "TX",
    "county_name": "Dallas",
    "county_numeric": "113",
    "prim_lat_dec": "32.7830556",
    "prim_long_dec": "-96.8066667",
    "elev_in_m": "128",
    "elev_in_ft": "420",
    "lat": 32.7830556,
    "long": -96.8066667
  },
  {
    "globaleventid": 274565503,
    "sqldate": 20131105,
    "monthyear": 201311,
    "year": 2013,
    "fractiondate": "2013.8356",
    "eventcode": 120,
    "quadclass": 3,
    "nummentions": 2,
    "numsources": 1,
    "numarticles": 2,
    "avgtone": "5.8974358974359",
    "sourceurl": "http://www.statesman.com/news/news/texas-court-takes-on-same-sex-divorce/nbhz7/",
    "feature_id": "1380944",
    "feature_name": "Dallas",
    "state_alpha": "TX",
    "county_name": "Dallas",
    "county_numeric": "113",
    "prim_lat_dec": "32.7830556",
    "prim_long_dec": "-96.8066667",
    "elev_in_m": "128",
    "elev_in_ft": "420",
    "lat": 32.7830556,
    "long": -96.8066667
  },