[
  {
    "globaleventid": 258178945,
    "sqldate": 20130702,
    "monthyear": 201307,
    "year": 2013,
    "fractiondate": "2013.4986",
    "eventcode": 114,
    "quadclass": 3,
    "nummentions": 8,
    "numsources": 2,
    "numarticles": 8,
    "avgtone": "0.707798256703706",
    "sourceurl": "http://qctimes.com/news/state-and-regional/illinois/new-hispanic-chief-judge-need-more-jury-diversity/article_e92ad2bf-4b02-50e1-8e46-3f994a916e5f.html",
    "feature_id": "423587",
    "feature_name": "Chicago",
    "state_alpha": "IL",
    "county_name": "Cook",
    "county_numeric": "031",
    "prim_lat_dec": "41.850033",
    "prim_long_dec": "-87.6500523",
    "elev_in_m": "179",
    "elev_in_ft": "587",
    "lat": 41.850033,
    "long": -87.6500523
  },
  {
    "globaleventid": 258178936,
    "sqldate": 20130702,
    "monthyear": 201307,
    "year": 2013,
    "fractiondate": "2013.4986",
    "eventcode": 112,
    "quadclass": 3,
    "nummentions": 8,
    "numsources": 1,
    "numarticles": 8,
    "avgtone": "2.48380129589633",
    "sourceurl": "http://www.timesfreepress.com/news/2013/jul/02/0702a01-state-to-see-more-dui-convictions/",
    "feature_id": "485363",
    "feature_name": "Dodge City",
    "state_alpha": "KS",
    "county_name": "Ford",
    "county_numeric": "057",
    "prim_lat_dec": "37.7527982",
    "prim_long_dec": "-100.0170787",
    "elev_in_m": "760",
    "elev_in_ft": "2493",
    "lat": 37.7527982,
    "long": -100.0170787
  },
  {
    "globaleventid": 258178935,
    "sqldate": 20130702,
    "monthyear": 201307,
    "year": 2013,
    "fractiondate": "2013.4986",
    "eventcode": 112,
    "quadclass": 3,
    "nummentions": 10,
    "numsources": 1,
    "numarticles": 10,
    "avgtone": "0.492610837438424",
    "sourceurl": "http://www.ctpost.com/news/crime/article/Trial-for-Kalamazoo-area-man-in-wife-nurse-killing-4643773.php",
    "feature_id": "629439",
    "feature_name": "Kalamazoo",
    "state_alpha": "MI",
    "county_name": "Kalamazoo",
    "county_numeric": "077",
    "prim_lat_dec": "42.2917069",
    "prim_long_dec": "-85.5872286",
    "elev_in_m": "240",
    "elev_in_ft": "787",
    "lat": 42.2917069,
    "long": -85.5872286
  },
  {
    "globaleventid": 258178933,
    "sqldate": 20130702,
    "monthyear": 201307,
    "year": 2013,
    "fractiondate": "2013.4986",
    "eventcode": 112,
    "quadclass": 3,
    "nummentions": 8,
    "numsources": 1,
    "numarticles": 8,
    "avgtone": "2.48380129589633",
    "sourceurl": "http://www.timesfreepress.com/news/2013/jul/02/0702a01-state-to-see-more-dui-convictions/",
    "feature_id": "485363",
    "feature_name": "Dodge City",
    "state_alpha": "KS",
    "county_name": "Ford",
    "county_numeric": "057",
    "prim_lat_dec": "37.7527982",
    "prim_long_dec": "-100.0170787",
    "elev_in_m": "760",
    "elev_in_ft": "2493",
    "lat": 37.7527982,
    "long": -100.0170787
  },
  {
    "globaleventid": 258178931,
    "sqldate": 20130702,
    "monthyear": 201307,
    "year": 2013,
    "fractiondate": "2013.4986",
    "eventcode": 112,
    "quadclass": 3,
    "nummentions": 2,
    "numsources": 1,
    "numarticles": 2,
    "avgtone": "1.5625",
    "sourceurl": "http://www.deseretnews.com/article/765633238/Racism-strategies-are-useless-in-the-George-Zimmerman-trial.html",
    "feature_id": "290826",
    "feature_name": "Seminole",
    "state_alpha": "FL",
    "county_name": "Pinellas",
    "county_numeric": "103",
    "prim_lat_dec": "27.8397466",
    "prim_long_dec": "-82.7912134",
    "elev_in_m": "11",
    "elev_in_ft": "36",
    "lat": 27.8397466,
    "long": -82.7912134
  },
  {
    "globaleventid": 258178930,
    "sqldate": 20130702,
    "monthyear": 201307,
    "year": 2013,
    "fractiondate": "2013.4986",
    "eventcode": 112,
    "quadclass": 3,
    "nummentions": 4,
    "numsources": 1,
    "numarticles": 4,
    "avgtone": "3.3271719038817",
    "sourceurl": "http://www.mercurynews.com/news/ci_23578237/not-guilty-verdict-san-diego-chalk-protester",
    "feature_id": "1661377",
    "feature_name": "San Diego",
    "state_alpha": "CA",
    "county_name": "San Diego",
    "county_numeric": "073",
    "prim_lat_dec": "32.7153292",
    "prim_long_dec": "-117.1572551",
    "elev_in_m": "19",
    "elev_in_ft": "62",
    "lat": 32.7153292,
    "long": -117.1572551
  },
  {
    "globaleventid": 258178929,
    "sqldate": 20130702,
    "monthyear": 201307,
    "year": 2013,
    "fractiondate": "2013.4986",
    "eventcode": 112,
    "quadclass": 3,
    "nummentions": 4,
    "numsources": 1,
    "numarticles": 4,
    "avgtone": "2.67174954674955",
    "sourceurl": "http://www.newsminer.com/news/local_news/judge-man-mentally-competent-to-face-charges-of-shooting-at/article_85f57572-e2ee-11e2-ba7c-001a4bcf6878.html",
    "feature_id": "1401958",
    "feature_name": "Fairbanks",
    "state_alpha": "AK",
    "county_name": "Fairbanks North Star",
    "county_numeric": "090",
    "prim_lat_dec": "64.8377778",
    "prim_long_dec": "-147.7163889",
    "elev_in_m": "136",
    "elev_in_ft": "446",
    "lat": 64.8377778,
    "long": -147.7163889
  },
  {
    "globaleventid": 258178923,
    "sqldate": 20130702,
    "monthyear": 201307,
    "year": 2013,
    "fractiondate": "2013.4986",
    "eventcode": 111,
    "quadclass": 3,
    "nummentions": 16,
    "numsources": 4,
    "numarticles": 16,
    "avgtone": "2.37470329340609",
    "sourceurl": "http://www.chron.com/news/medical/article/APNewsBreak-Calif-to-move-inmates-over-illness-4643185.php",
    "feature_id": "277593",
    "feature_name": "San Francisco",
    "state_alpha": "CA",
    "county_name": "San Francisco",
    "county_numeric": "075",
    "prim_lat_dec": "37.775",
    "prim_long_dec": "-122.4194444",
    "elev_in_m": "16",
    "elev_in_ft": "52",
    "lat": 37.775,
    "long": -122.4194444
  },
  {
    "globaleventid": 258178921,
    "sqldate": 20130702,
    "monthyear": 201307,
    "year": 2013,
    "fractiondate": "2013.4986",
    "eventcode": 111,
    "quadclass": 3,
    "nummentions": 4,
    "numsources": 1,
    "numarticles": 4,
    "avgtone": "0.873362445414847",
    "sourceurl": "http://www.dailymail.co.uk/news/article-2353478/Barber-attacks-trainee-beer-bottle-opening-new-salon-door-stealing-customer.html?ITO=1490&ns_mchannel=rss&ns_campaign=1490",
    "feature_id": "1095863",
    "feature_name": "Newport",
    "state_alpha": "OK",
    "county_name": "Carter",
    "county_numeric": "019",
    "prim_lat_dec": "34.2528694",
    "prim_long_dec": "-97.2747398",
    "elev_in_m": "265",
    "elev_in_ft": "869",
    "lat": 34.2528694,
    "long": -97.2747398
  },
  {
    "globaleventid": 258178911,
    "sqldate": 20130702,
    "monthyear": 201307,
    "year": 2013,
    "fractiondate": "2013.4986",
    "eventcode": 100,
    "quadclass": 3,
    "nummentions": 8,
    "numsources": 1,
    "numarticles": 8,
    "avgtone": "5.09181969949917",
    "sourceurl": "http://americablog.com/2013/07/a-beautiful-story-of-love-and-marriage-in-the-wake-of-prop-8s-demise.html",
    "feature_id": "675114",
    "feature_name": "Oakland",
    "state_alpha": "MS",
    "county_name": "Yalobusha",
    "county_numeric": "161",
    "prim_lat_dec": "34.0556679",
    "prim_long_dec": "-89.9164781",
    "elev_in_m": "107",
    "elev_in_ft": "351",
    "lat": 34.0556679,
    "long": -89.9164781
  },
  {
    "globaleventid": 258178910,
    "sqldate": 20130702,
    "monthyear": 201307,
    "year": 2013,
    "fractiondate": "2013.4986",
    "eventcode": 100,
    "quadclass": 3,
    "nummentions": 4,
    "numsources": 1,
    "numarticles": 4,
    "avgtone": "2.32908040442947",
    "sourceurl": "http://www.denverpost.com/breakingnews/ci_23586590/ex-fbi-director-freeh-review-bp-settlement-program",
    "feature_id": "201738",
    "feature_name": "Denver",
    "state_alpha": "CO",
    "county_name": "Denver",
    "county_numeric": "031",
    "prim_lat_dec": "39.7391536",
    "prim_long_dec": "-104.9847034",
    "elev_in_m": "1609",
    "elev_in_ft": "5279",
    "lat": 39.7391536,
    "long": -104.9847034
  },
  {
    "globaleventid": 258178909,
    "sqldate": 20130702,
    "monthyear": 201307,
    "year": 2013,
    "fractiondate": "2013.4986",
    "eventcode": 100,
    "quadclass": 3,
    "nummentions": 8,
    "numsources": 1,
    "numarticles": 8,
    "avgtone": "1.35135135135135",
    "sourceurl": "http://www.mysanantonio.com/news/energy/article/Former-FBI-director-to-investigate-lawyer-4643954.php",
    "feature_id": "1380951",
    "feature_name": "San Antonio",
    "state_alpha": "TX",
    "county_name": "Bexar",
    "county_numeric": "029",
    "prim_lat_dec": "29.4241219",
    "prim_long_dec": "-98.4936282",
    "elev_in_m": "198",
    "elev_in_ft": "650",
    "lat": 29.4241219,
    "long": -98.4936282
  },
  {
    "globaleventid": 258178642,
    "sqldate": 20130702,
    "monthyear": 201307,
    "year": 2013,
    "fractiondate": "2013.4986",
    "eventcode": 190,
    "quadclass": 4,
    "nummentions": 6,
    "numsources": 1,
    "numarticles": 6,
    "avgtone": "2.29782933441976",
    "sourceurl": "http://www.menafn.com/7731b807-7d25-4eed-b611-c83b4bbb8184/The-Olympian-Olympia-Wash-Soundings-column?src=main",
    "feature_id": "531871",
    "feature_name": "Washington",
    "state_alpha": "DC",
    "county_name": "District of Columbia",
    "county_numeric": "001",
    "prim_lat_dec": "38.8951118",
    "prim_long_dec": "-77.0363658",
    "elev_in_m": "7",
    "elev_in_ft": "23",
    "lat": 38.8951118,
    "long": -77.0363658
  },
  {
    "globaleventid": 258178639,
    "sqldate": 20130702,
    "monthyear": 201307,
    "year": 2013,
    "fractiondate": "2013.4986",
    "eventcode": 190,
    "quadclass": 4,
    "nummentions": 3,
    "numsources": 2,
    "numarticles": 3,
    "avgtone": "2.31113949629785",
    "sourceurl": "http://www.menafn.com/281ae6bf-929c-4cfd-927d-e884d96fd86b/Wash-vet-returning-Okinawa-battle-flag-to-Japan?src=main",
    "feature_id": "1511244",
    "feature_name": "Puget",
    "state_alpha": "WA",
    "county_name": "Thurston",
    "county_numeric": "067",
    "prim_lat_dec": "47.146485",
    "prim_long_dec": "-122.793746",
    "elev_in_m": "18",
    "elev_in_ft": "59",
    "lat": 47.146485,
    "long": -122.793746
  },
  {
    "globaleventid": 258178547,
    "sqldate": 20130702,
    "monthyear": 201307,
    "year": 2013,
    "fractiondate": "2013.4986",
    "eventcode": 120,
    "quadclass": 3,
    "nummentions": 8,
    "numsources": 1,
    "numarticles": 8,
    "avgtone": "2.49415432579891",
    "sourceurl": "http://iranian.com/posts/view/post/16745/jumpto/idcomment-27321",
    "feature_id": "531871",
    "feature_name": "Washington",
    "state_alpha": "DC",
    "county_name": "District of Columbia",
    "county_numeric": "001",
    "prim_lat_dec": "38.8951118",
    "prim_long_dec": "-77.0363658",
    "elev_in_m": "7",
    "elev_in_ft": "23",
    "lat": 38.8951118,
    "long": -77.0363658
  },
  {
    "globaleventid": 258178522,
    "sqldate": 20130702,
    "monthyear": 201307,
    "year": 2013,
    "fractiondate": "2013.4986",
    "eventcode": 182,
    "quadclass": 4,
    "nummentions": 10,
    "numsources": 1,
    "numarticles": 10,
    "avgtone": "0.938967136150235",
    "sourceurl": "http://www.thejewishweek.com/news/national-news/three-kids-injured-lightning-jewish-camp-indiana-one-leaves-hospital",
    "feature_id": "452890",
    "feature_name": "Indianapolis",
    "state_alpha": "IN",
    "county_name": "Marion",
    "county_numeric": "097",
    "prim_lat_dec": "39.7683765",
    "prim_long_dec": "-86.1580423",
    "elev_in_m": "219",
    "elev_in_ft": "718",
    "lat": 39.7683765,
    "long": -86.1580423
  },
  {
    "globaleventid": 258178517,
    "sqldate": 20130702,
    "monthyear": 201307,
    "year": 2013,
    "fractiondate": "2013.4986",
    "eventcode": 173,
    "quadclass": 4,
    "nummentions": 2,
    "numsources": 1,
    "numarticles": 2,
    "avgtone": "0.319488817891374",
    "sourceurl": "http://www.boston.com/yourtown/news/braintree/2013/07/braintree_scanner_tales_braintree_woman_charged_with_oui_men.html",
    "feature_id": "612943",
    "feature_name": "Jamaica Plain",
    "state_alpha": "MA",
    "county_name": "Suffolk",
    "county_numeric": "025",
    "prim_lat_dec": "42.3098201",
    "prim_long_dec": "-71.1203299",
    "elev_in_m": "21",
    "elev_in_ft": "69",
    "lat": 42.3098201,
    "long": -71.1203299
  },
  {
    "globaleventid": 258178516,
    "sqldate": 20130702,
    "monthyear": 201307,
    "year": 2013,
    "fractiondate": "2013.4986",
    "eventcode": 173,
    "quadclass": 4,
    "nummentions": 2,
    "numsources": 1,
    "numarticles": 2,
    "avgtone": "0.319488817891374",
    "sourceurl": "http://www.boston.com/yourtown/news/braintree/2013/07/braintree_scanner_tales_braintree_woman_charged_with_oui_men.html",
    "feature_id": "612876",
    "feature_name": "Braintree",
    "state_alpha": "MA",
    "county_name": "Norfolk",
    "county_numeric": "021",
    "prim_lat_dec": "42.2223218",
    "prim_long_dec": "-70.999492",
    "elev_in_m": "18",
    "elev_in_ft": "59",
    "lat": 42.2223218,
    "long": -70.999492
  },
  {
    "globaleventid": 258178355,
    "sqldate": 20130702,
    "monthyear": 201307,
    "year": 2013,
    "fractiondate": "2013.4986",
    "eventcode": 192,
    "quadclass": 4,
    "nummentions": 8,
    "numsources": 1,
    "numarticles": 8,
    "avgtone": "1.66666666666667",
    "sourceurl": "http://news.yahoo.com/special-report-return-baghdad-epicenter-islams-growing-divide-070400605.html",
    "feature_id": "531871",
    "feature_name": "Washington",
    "state_alpha": "DC",
    "county_name": "District of Columbia",
    "county_numeric": "001",
    "prim_lat_dec": "38.8951118",
    "prim_long_dec": "-77.0363658",
    "elev_in_m": "7",
    "elev_in_ft": "23",
    "lat": 38.8951118,
    "long": -77.0363658
  },
  {
    "globaleventid": 258178337,
    "sqldate": 20130702,
    "monthyear": 201307,
    "year": 2013,
    "fractiondate": "2013.4986",
    "eventcode": 120,
    "quadclass": 3,
    "nummentions": 4,
    "numsources": 1,
    "numarticles": 4,
    "avgtone": "1.61290322580645",
    "sourceurl": "http://www.washingtonpost.com/world/national-security/prosecutors-in-bradley-manning-trial-rest-their-case/2013/07/02/fdacd8c2-e35b-11e2-aef3-339619eab080_story.html?wprss=rss_national",
    "feature_id": "531871",
    "feature_name": "Washington",
    "state_alpha": "DC",
    "county_name": "District of Columbia",
    "county_numeric": "001",
    "prim_lat_dec": "38.8951118",
    "prim_long_dec": "-77.0363658",
    "elev_in_m": "7",
    "elev_in_ft": "23",
    "lat": 38.8951118,
    "long": -77.0363658
  },
  {
    "globaleventid": 258178299,
    "sqldate": 20130702,
    "monthyear": 201307,
    "year": 2013,
    "fractiondate": "2013.4986",
    "eventcode": 128,
    "quadclass": 3,
    "nummentions": 10,
    "numsources": 1,
    "numarticles": 10,
    "avgtone": "1.31291028446389",
    "sourceurl": "http://www.lakewyliepilot.com/2013/06/28/1961868/ore-jury-convicts-doctor-of-breaking.html",
    "feature_id": "1233775",
    "feature_name": "Lake Wylie",
    "state_alpha": "SC",
    "county_name": "York",
    "county_numeric": "091",
    "prim_lat_dec": "35.108476",
    "prim_long_dec": "-81.0428538",
    "elev_in_m": "179",
    "elev_in_ft": "587",
    "lat": 35.108476,
    "long": -81.0428538
  },
  {
    "globaleventid": 258178292,
    "sqldate": 20130702,
    "monthyear": 201307,
    "year": 2013,
    "fractiondate": "2013.4986",
    "eventcode": 112,
    "quadclass": 3,
    "nummentions": 18,
    "numsources": 9,
    "numarticles": 18,
    "avgtone": "1.83554150252443",
    "sourceurl": "http://www.mercurynews.com/business/ci_23583622/silicon-valley-at-heart-u-s-snooping-experts&c=Izn5PyZ8HNRgqHFLn149B2XKWtODCD0CLKioF0O-KYo&mkt=en-us",
    "feature_id": "531871",
    "feature_name": "Washington",
    "state_alpha": "DC",
    "county_name": "District of Columbia",
    "county_numeric": "001",
    "prim_lat_dec": "38.8951118",
    "prim_long_dec": "-77.0363658",
    "elev_in_m": "7",
    "elev_in_ft": "23",
    "lat": 38.8951118,
    "long": -77.0363658
  },
  {
    "globaleventid": 258178235,
    "sqldate": 20130702,
    "monthyear": 201307,
    "year": 2013,
    "fractiondate": "2013.4986",
    "eventcode": 173,
    "quadclass": 4,
    "nummentions": 1,
    "numsources": 1,
    "numarticles": 1,
    "avgtone": "0.628930817610063",
    "sourceurl": "http://www.contracostatimes.com/breaking-news/ci_23587551/oakland-parolee-charged-21-felonies-june-crime-spree",
    "feature_id": "1659598",
    "feature_name": "Santa Rita",
    "state_alpha": "CA",
    "county_name": "Monterey",
    "county_numeric": "053",
    "prim_lat_dec": "36.7238477",
    "prim_long_dec": "-121.6560572",
    "elev_in_m": "24",
    "elev_in_ft": "79",
    "lat": 36.7238477,
    "long": -121.6560572
  },
  {
    "globaleventid": 258178232,
    "sqldate": 20130702,
    "monthyear": 201307,
    "year": 2013,
    "fractiondate": "2013.4986",
    "eventcode": 172,
    "quadclass": 4,
    "nummentions": 6,
    "numsources": 1,
    "numarticles": 6,
    "avgtone": "3.05343511450382",
    "sourceurl": "http://www.irishsun.com/index.php/sid/215564930/scat/b8de8e630faf3631",
    "feature_id": "1661377",
    "feature_name": "San Diego",
    "state_alpha": "CA",
    "county_name": "San Diego",
    "county_numeric": "073",
    "prim_lat_dec": "32.7153292",
    "prim_long_dec": "-117.1572551",
    "elev_in_m": "19",
    "elev_in_ft": "62",
    "lat": 32.7153292,
    "long": -117.1572551
  },
  {
    "globaleventid": 258178170,
    "sqldate": 20130702,
    "monthyear": 201307,
    "year": 2013,
    "fractiondate": "2013.4986",
    "eventcode": 173,
    "quadclass": 4,
    "nummentions": 6,
    "numsources": 1,
    "numarticles": 6,
    "avgtone": "5.77367205542725",
    "sourceurl": "http://www.investorideas.com/news/2013/renewable-energy/07022.asp",
    "feature_id": "531871",
    "feature_name": "Washington",
    "state_alpha": "DC",
    "county_name": "District of Columbia",
    "county_numeric": "001",
    "prim_lat_dec": "38.8951118",
    "prim_long_dec": "-77.0363658",
    "elev_in_m": "7",
    "elev_in_ft": "23",
    "lat": 38.8951118,
    "long": -77.0363658
  },
  {
    "globaleventid": 258178070,
    "sqldate": 20130702,
    "monthyear": 201307,
    "year": 2013,
    "fractiondate": "2013.4986",
    "eventcode": 101,
    "quadclass": 3,
    "nummentions": 13,
    "numsources": 4,
    "numarticles": 13,
    "avgtone": "3.02778863923392",
    "sourceurl": "http://www.worldbulletin.net/?aType=haber&ArticleID=112239",
    "feature_id": "531871",
    "feature_name": "Washington",
    "state_alpha": "DC",
    "county_name": "District of Columbia",
    "county_numeric": "001",
    "prim_lat_dec": "38.8951118",
    "prim_long_dec": "-77.0363658",
    "elev_in_m": "7",
    "elev_in_ft": "23",
    "lat": 38.8951118,
    "long": -77.0363658
  },
  {
    "globaleventid": 258177975,
    "sqldate": 20130702,
    "monthyear": 201307,
    "year": 2013,
    "fractiondate": "2013.4986",
    "eventcode": 193,
    "quadclass": 4,
    "nummentions": 8,
    "numsources": 1,
    "numarticles": 8,
    "avgtone": "2.1630615640599",
    "sourceurl": "http://www.policeone.com/Officer-Safety/articles/6303919-Texas-officer-shot-by-cop-killer-released-from-hospital/",
    "feature_id": "1336797",
    "feature_name": "Granbury",
    "state_alpha": "TX",
    "county_name": "Hood",
    "county_numeric": "221",
    "prim_lat_dec": "32.4420826",
    "prim_long_dec": "-97.7941967",
    "elev_in_m": "224",
    "elev_in_ft": "735",
    "lat": 32.4420826,
    "long": -97.7941967
  },
  {
    "globaleventid": 258177973,
    "sqldate": 20130702,
    "monthyear": 201307,
    "year": 2013,
    "fractiondate": "2013.4986",
    "eventcode": 190,
    "quadclass": 4,
    "nummentions": 4,
    "numsources": 1,
    "numarticles": 4,
    "avgtone": "1.48148148148148",
    "sourceurl": "http://www.dailymail.co.uk/news/article-2353386/Dipak-Desai-Doctor-Las-Vegas-Hep-C-outbreak-guilty-second-degree-murder.html?ITO=1490&ns_campaign=1490",
    "feature_id": "847388",
    "feature_name": "Las Vegas",
    "state_alpha": "NV",
    "county_name": "Clark",
    "county_numeric": "003",
    "prim_lat_dec": "36.1749705",
    "prim_long_dec": "-115.137223",
    "elev_in_m": "610",
    "elev_in_ft": "2001",
    "lat": 36.1749705,
    "long": -115.137223
  },
  {
    "globaleventid": 258177970,
    "sqldate": 20130702,
    "monthyear": 201307,
    "year": 2013,
    "fractiondate": "2013.4986",
    "eventcode": 186,
    "quadclass": 4,
    "nummentions": 1,
    "numsources": 1,
    "numarticles": 1,
    "avgtone": "5.53191489361702",
    "sourceurl": "http://www.globalpost.com/dispatch/news/regions/europe/130702/john-paul-ii-miracles-confirmed-report",
    "feature_id": "531871",
    "feature_name": "Washington",
    "state_alpha": "DC",
    "county_name": "District of Columbia",
    "county_numeric": "001",
    "prim_lat_dec": "38.8951118",
    "prim_long_dec": "-77.0363658",
    "elev_in_m": "7",
    "elev_in_ft": "23",
    "lat": 38.8951118,
    "long": -77.0363658
  },
  {
    "globaleventid": 258177963,
    "sqldate": 20130702,
    "monthyear": 201307,
    "year": 2013,
    "fractiondate": "2013.4986",
    "eventcode": 173,
    "quadclass": 4,
    "nummentions": 16,
    "numsources": 2,
    "numarticles": 13,
    "avgtone": "1.77104519774011",
    "sourceurl": "http://www.komonews.com/news/national/Doctor-convicted-of-murder-in-hepatitis-C-outbreak-213976801.html",
    "feature_id": "847388",
    "feature_name": "Las Vegas",
    "state_alpha": "NV",
    "county_name": "Clark",
    "county_numeric": "003",
    "prim_lat_dec": "36.1749705",
    "prim_long_dec": "-115.137223",
    "elev_in_m": "610",
    "elev_in_ft": "2001",
    "lat": 36.1749705,
    "long": -115.137223
  },
  {
    "globaleventid": 258177960,
    "sqldate": 20130702,
    "monthyear": 201307,
    "year": 2013,
    "fractiondate": "2013.4986",
    "eventcode": 172,
    "quadclass": 4,
    "nummentions": 12,
    "numsources": 1,
    "numarticles": 12,
    "avgtone": "5.40540540540541",
    "sourceurl": "http://minnesota.publicradio.org/display/web/2013/07/02/health/soda-sales-duluth-health-care-system?refid=0&utm_source=feedburner&utm_medium=feed&utm_campaign=Feed%3A+MPR_NewsFeatures+%28News+%26+Features+from+Minnesota+Public+Radio%29",
    "feature_id": "661145",
    "feature_name": "Duluth",
    "state_alpha": "MN",
    "county_name": "St. Louis",
    "county_numeric": "137",
    "prim_lat_dec": "46.7832731",
    "prim_long_dec": "-92.1065787",
    "elev_in_m": "214",
    "elev_in_ft": "702",
    "lat": 46.7832731,
    "long": -92.1065787
  },
  {
    "globaleventid": 258177959,
    "sqldate": 20130702,
    "monthyear": 201307,
    "year": 2013,
    "fractiondate": "2013.4986",
    "eventcode": 172,
    "quadclass": 4,
    "nummentions": 4,
    "numsources": 1,
    "numarticles": 4,
    "avgtone": "5.40540540540541",
    "sourceurl": "http://minnesota.publicradio.org/display/web/2013/07/02/health/soda-sales-duluth-health-care-system?refid=0&utm_source=feedburner&utm_medium=feed&utm_campaign=Feed%3A+MPR_NewsFeatures+%28News+%26+Features+from+Minnesota+Public+Radio%29",
    "feature_id": "661145",
    "feature_name": "Duluth",
    "state_alpha": "MN",
    "county_name": "St. Louis",
    "county_numeric": "137",
    "prim_lat_dec": "46.7832731",
    "prim_long_dec": "-92.1065787",
    "elev_in_m": "214",
    "elev_in_ft": "702",
    "lat": 46.7832731,
    "long": -92.1065787
  },
  {
    "globaleventid": 258177956,
    "sqldate": 20130702,
    "monthyear": 201307,
    "year": 2013,
    "fractiondate": "2013.4986",
    "eventcode": 120,
    "quadclass": 3,
    "nummentions": 1,
    "numsources": 1,
    "numarticles": 1,
    "avgtone": "4.56747404844291",
    "sourceurl": "http://www.everydayhealth.com/heart-health/digital-health-revolution-in-blood-pressure-control-3208.aspx",
    "feature_id": "617565",
    "feature_name": "Boston",
    "state_alpha": "MA",
    "county_name": "Suffolk",
    "county_numeric": "025",
    "prim_lat_dec": "42.3584308",
    "prim_long_dec": "-71.0597732",
    "elev_in_m": "14",
    "elev_in_ft": "46",
    "lat": 42.3584308,
    "long": -71.0597732
  },
  {
    "globaleventid": 258177952,
    "sqldate": 20130702,
    "monthyear": 201307,
    "year": 2013,
    "fractiondate": "2013.4986",
    "eventcode": 111,
    "quadclass": 3,
    "nummentions": 1,
    "numsources": 1,
    "numarticles": 1,
    "avgtone": "4.78896103896104",
    "sourceurl": "http://news.nurse.com/article/20130702/DC01/130701005",
    "feature_id": "597934",
    "feature_name": "Queen Anne",
    "state_alpha": "MD",
    "county_name": "Queen Anne's",
    "county_numeric": "035",
    "prim_lat_dec": "38.9209467",
    "prim_long_dec": "-75.9552162",
    "elev_in_m": "11",
    "elev_in_ft": "36",
    "lat": 38.9209467,
    "long": -75.9552162
  },
  {
    "globaleventid": 258177951,
    "sqldate": 20130702,
    "monthyear": 201307,
    "year": 2013,
    "fractiondate": "2013.4986",
    "eventcode": 111,
    "quadclass": 3,
    "nummentions": 1,
    "numsources": 1,
    "numarticles": 1,
    "avgtone": "4.78896103896104",
    "sourceurl": "http://news.nurse.com/article/20130702/DC01/130701005",
    "feature_id": "597934",
    "feature_name": "Queen Anne",
    "state_alpha": "MD",
    "county_name": "Queen Anne's",
    "county_numeric": "035",
    "prim_lat_dec": "38.9209467",
    "prim_long_dec": "-75.9552162",
    "elev_in_m": "11",
    "elev_in_ft": "36",
    "lat": 38.9209467,
    "long": -75.9552162
  },
  {
    "globaleventid": 258177808,
    "sqldate": 20130702,
    "monthyear": 201307,
    "year": 2013,
    "fractiondate": "2013.4986",
    "eventcode": 193,
    "quadclass": 4,
    "nummentions": 6,
    "numsources": 1,
    "numarticles": 6,
    "avgtone": "1.33971291866029",
    "sourceurl": "http://www.cbc.ca/news/world/story/2013/07/02/zimmerman-trial-tuesday.html",
    "feature_id": "288240",
    "feature_name": "Orlando",
    "state_alpha": "FL",
    "county_name": "Orange",
    "county_numeric": "095",
    "prim_lat_dec": "28.5383355",
    "prim_long_dec": "-81.3792365",
    "elev_in_m": "31",
    "elev_in_ft": "102",
    "lat": 28.5383355,
    "long": -81.3792365
  },
  {
    "globaleventid": 258177784,
    "sqldate": 20130702,
    "monthyear": 201307,
    "year": 2013,
    "fractiondate": "2013.4986",
    "eventcode": 111,
    "quadclass": 3,
    "nummentions": 4,
    "numsources": 1,
    "numarticles": 4,
    "avgtone": "2.77382645803698",
    "sourceurl": "http://www.wral.com/excerpts-from-recent-wisconsin-editorials/12621084/",
    "feature_id": "1565801",
    "feature_name": "Green Bay",
    "state_alpha": "WI",
    "county_name": "Brown",
    "county_numeric": "009",
    "prim_lat_dec": "44.519159",
    "prim_long_dec": "-88.019826",
    "elev_in_m": "181",
    "elev_in_ft": "594",
    "lat": 44.519159,
    "long": -88.019826
  },
  {
    "globaleventid": 258177760,
    "sqldate": 20130702,
    "monthyear": 201307,
    "year": 2013,
    "fractiondate": "2013.4986",
    "eventcode": 193,
    "quadclass": 4,
    "nummentions": 2,
    "numsources": 1,
    "numarticles": 2,
    "avgtone": "0.0",
    "sourceurl": "http://www.ctpost.com/news/crime/article/Fourth-man-arrested-in-Ga-jewelry-store-robbery-4642862.php",
    "feature_id": "333333",
    "feature_name": "Villa Rica",
    "state_alpha": "GA",
    "county_name": "Carroll",
    "county_numeric": "045",
    "prim_lat_dec": "33.732052",
    "prim_long_dec": "-84.9191081",
    "elev_in_m": "347",
    "elev_in_ft": "1138",
    "lat": 33.732052,
    "long": -84.9191081
  },
  {
    "globaleventid": 258177759,
    "sqldate": 20130702,
    "monthyear": 201307,
    "year": 2013,
    "fractiondate": "2013.4986",
    "eventcode": 193,
    "quadclass": 4,
    "nummentions": 2,
    "numsources": 1,
    "numarticles": 2,
    "avgtone": "0.0",
    "sourceurl": "http://www.ctpost.com/news/crime/article/Fourth-man-arrested-in-Ga-jewelry-store-robbery-4642862.php",
    "feature_id": "333333",
    "feature_name": "Villa Rica",
    "state_alpha": "GA",
    "county_name": "Carroll",
    "county_numeric": "045",
    "prim_lat_dec": "33.732052",
    "prim_long_dec": "-84.9191081",
    "elev_in_m": "347",
    "elev_in_ft": "1138",
    "lat": 33.732052,
    "long": -84.9191081
  },
  {
    "globaleventid": 258177755,
    "sqldate": 20130702,
    "monthyear": 201307,
    "year": 2013,
    "fractiondate": "2013.4986",
    "eventcode": 193,
    "quadclass": 4,
    "nummentions": 2,
    "numsources": 1,
    "numarticles": 2,
    "avgtone": "1.08108108108108",
    "sourceurl": "http://www.ctpost.com/news/crime/article/DA-Mass-man-shot-by-officer-in-arrest-attempt-4643712.php",
    "feature_id": "617384",
    "feature_name": "Ashland",
    "state_alpha": "MA",
    "county_name": "Middlesex",
    "county_numeric": "017",
    "prim_lat_dec": "42.2612067",
    "prim_long_dec": "-71.4633956",
    "elev_in_m": "55",
    "elev_in_ft": "180",
    "lat": 42.2612067,
    "long": -71.4633956
  },
  {
    "globaleventid": 258177754,
    "sqldate": 20130702,
    "monthyear": 201307,
    "year": 2013,
    "fractiondate": "2013.4986",
    "eventcode": 193,
    "quadclass": 4,
    "nummentions": 8,
    "numsources": 1,
    "numarticles": 8,
    "avgtone": "0.0",
    "sourceurl": "http://www.thecoastalsource.com/2013/07/02/fourth-man-arrested-in-ga-jewelry-store-robbery/",
    "feature_id": "333333",
    "feature_name": "Villa Rica",
    "state_alpha": "GA",
    "county_name": "Carroll",
    "county_numeric": "045",
    "prim_lat_dec": "33.732052",
    "prim_long_dec": "-84.9191081",
    "elev_in_m": "347",
    "elev_in_ft": "1138",
    "lat": 33.732052,
    "long": -84.9191081
  },
  {
    "globaleventid": 258177753,
    "sqldate": 20130702,
    "monthyear": 201307,
    "year": 2013,
    "fractiondate": "2013.4986",
    "eventcode": 193,
    "quadclass": 4,
    "nummentions": 1,
    "numsources": 1,
    "numarticles": 1,
    "avgtone": "0.0",
    "sourceurl": "http://www.suntimes.com/news/metro/21090318-418/man-running-away-from-gunman-killed-on-south-side.html",
    "feature_id": "1802403",
    "feature_name": "Morgan Park",
    "state_alpha": "IL",
    "county_name": "Cook",
    "county_numeric": "031",
    "prim_lat_dec": "41.6903117",
    "prim_long_dec": "-87.6667156",
    "elev_in_m": "190",
    "elev_in_ft": "623",
    "lat": 41.6903117,
    "long": -87.6667156
  },
  {
    "globaleventid": 258177750,
    "sqldate": 20130702,
    "monthyear": 201307,
    "year": 2013,
    "fractiondate": "2013.4986",
    "eventcode": 192,
    "quadclass": 4,
    "nummentions": 17,
    "numsources": 16,
    "numarticles": 17,
    "avgtone": "2.93801135510613",
    "sourceurl": "http://www.fox10tv.com/dpp/news/national/US-wades-into-Egypt-turmoil-fearing-implosion_81280141",
    "feature_id": "531871",
    "feature_name": "Washington",
    "state_alpha": "DC",
    "county_name": "District of Columbia",
    "county_numeric": "001",
    "prim_lat_dec": "38.8951118",
    "prim_long_dec": "-77.0363658",
    "elev_in_m": "7",
    "elev_in_ft": "23",
    "lat": 38.8951118,
    "long": -77.0363658
  },
  {
    "globaleventid": 258177746,
    "sqldate": 20130702,
    "monthyear": 201307,
    "year": 2013,
    "fractiondate": "2013.4986",
    "eventcode": 192,
    "quadclass": 4,
    "nummentions": 1,
    "numsources": 1,
    "numarticles": 1,
    "avgtone": "2.23463687150838",
    "sourceurl": "http://www.phillyburbs.com/news/local/burlington_county_times_news/opinion/editorials/battle-anniversary-a-solemn-reminder/article_273e5955-3813-5633-ba75-be7a7de2c959.html",
    "feature_id": "1213625",
    "feature_name": "Gettysburg",
    "state_alpha": "PA",
    "county_name": "Adams",
    "county_numeric": "001",
    "prim_lat_dec": "39.8309293",
    "prim_long_dec": "-77.2310955",
    "elev_in_m": "163",
    "elev_in_ft": "535",
    "lat": 39.8309293,
    "long": -77.2310955
  },
  {
    "globaleventid": 258177745,
    "sqldate": 20130702,
    "monthyear": 201307,
    "year": 2013,
    "fractiondate": "2013.4986",
    "eventcode": 192,
    "quadclass": 4,
    "nummentions": 40,
    "numsources": 4,
    "numarticles": 40,
    "avgtone": "2.48858842494728",
    "sourceurl": "http://charlotte.cbslocal.com/2013/07/02/9th-moral-monday-focuses-on-unemployment-cuts-75-arrested/",
    "feature_id": "1005554",
    "feature_name": "Carolina",
    "state_alpha": "NC",
    "county_name": "Gaston",
    "county_numeric": "071",
    "prim_lat_dec": "35.3884665",
    "prim_long_dec": "-81.3714737",
    "elev_in_m": "284",
    "elev_in_ft": "932",
    "lat": 35.3884665,
    "long": -81.3714737
  },
  {
    "globaleventid": 258177735,
    "sqldate": 20130702,
    "monthyear": 201307,
    "year": 2013,
    "fractiondate": "2013.4986",
    "eventcode": 190,
    "quadclass": 4,
    "nummentions": 1,
    "numsources": 1,
    "numarticles": 1,
    "avgtone": "0.45662100456621",
    "sourceurl": "http://www.wral.com/nc-guard-on-standby-to-help-fight-ariz-wildfires/12619854/",
    "feature_id": "1005554",
    "feature_name": "Carolina",
    "state_alpha": "NC",
    "county_name": "Gaston",
    "county_numeric": "071",
    "prim_lat_dec": "35.3884665",
    "prim_long_dec": "-81.3714737",
    "elev_in_m": "284",
    "elev_in_ft": "932",
    "lat": 35.3884665,
    "long": -81.3714737
  },
  {
    "globaleventid": 258177713,
    "sqldate": 20130702,
    "monthyear": 201307,
    "year": 2013,
    "fractiondate": "2013.4986",
    "eventcode": 190,
    "quadclass": 4,
    "nummentions": 2,
    "numsources": 1,
    "numarticles": 2,
    "avgtone": "2.06896551724138",
    "sourceurl": "http://www.dailyjournal.net/view/story/3032c3fe85dd4aa799a5914c0ac67799/CO--Hickenlooper-Fire-Preparedness/",
    "feature_id": "201738",
    "feature_name": "Denver",
    "state_alpha": "CO",
    "county_name": "Denver",
    "county_numeric": "031",
    "prim_lat_dec": "39.7391536",
    "prim_long_dec": "-104.9847034",
    "elev_in_m": "1609",
    "elev_in_ft": "5279",
    "lat": 39.7391536,
    "long": -104.9847034
  },
  {
    "globaleventid": 258177712,
    "sqldate": 20130702,
    "monthyear": 201307,
    "year": 2013,
    "fractiondate": "2013.4986",
    "eventcode": 190,
    "quadclass": 4,
    "nummentions": 2,
    "numsources": 1,
    "numarticles": 2,
    "avgtone": "1.78041543026706",
    "sourceurl": "http://www.huffingtonpost.com/2013/07/02/west-fork-complex-fire_n_3535998.html?utm_hp_ref=denver",
    "feature_id": "190444",
    "feature_name": "Creede",
    "state_alpha": "CO",
    "county_name": "Mineral",
    "county_numeric": "079",
    "prim_lat_dec": "37.8491662",
    "prim_long_dec": "-106.9264345",
    "elev_in_m": "2682",
    "elev_in_ft": "8799",
    "lat": 37.8491662,
    "long": -106.9264345
  },
  {
    "globaleventid": 258177696,
    "sqldate": 20130702,
    "monthyear": 201307,
    "year": 2013,
    "fractiondate": "2013.4986",
    "eventcode": 190,
    "quadclass": 4,
    "nummentions": 2,
    "numsources": 1,
    "numarticles": 2,
    "avgtone": "1.8348623853211",
    "sourceurl": "http://www.whiotv.com/ap/ap/top-news/town-mourns-19-firefighters-killed-in-ariz-blaze/nYbg9/",
    "feature_id": "44784",
    "feature_name": "Phoenix",
    "state_alpha": "AZ",
    "county_name": "Maricopa",
    "county_numeric": "013",
    "prim_lat_dec": "33.4483771",
    "prim_long_dec": "-112.0740373",
    "elev_in_m": "331",
    "elev_in_ft": "1086",
    "lat": 33.4483771,
    "long": -112.0740373
  },
  {
    "globaleventid": 258177695,
    "sqldate": 20130702,
    "monthyear": 201307,
    "year": 2013,
    "fractiondate": "2013.4986",
    "eventcode": 190,
    "quadclass": 4,
    "nummentions": 47,
    "numsources": 10,
    "numarticles": 47,
    "avgtone": "1.35755639148006",
    "sourceurl": "http://www.citynews.ca/2013/07/02/community-mourns-19-firefighters-killed-in-arizona/",
    "feature_id": "1662328",
    "feature_name": "Los Angeles",
    "state_alpha": "CA",
    "county_name": "Los Angeles",
    "county_numeric": "037",
    "prim_lat_dec": "34.0522342",
    "prim_long_dec": "-118.2436849",
    "elev_in_m": "89",
    "elev_in_ft": "292",
    "lat": 34.0522342,
    "long": -118.2436849
  },
  {
    "globaleventid": 258177691,
    "sqldate": 20130702,
    "monthyear": 201307,
    "year": 2013,
    "fractiondate": "2013.4986",
    "eventcode": 190,
    "quadclass": 4,
    "nummentions": 2,
    "numsources": 1,
    "numarticles": 2,
    "avgtone": "1.8348623853211",
    "sourceurl": "http://www.whiotv.com/ap/ap/top-news/town-mourns-19-firefighters-killed-in-ariz-blaze/nYbg9/",
    "feature_id": "44784",
    "feature_name": "Phoenix",
    "state_alpha": "AZ",
    "county_name": "Maricopa",
    "county_numeric": "013",
    "prim_lat_dec": "33.4483771",
    "prim_long_dec": "-112.0740373",
    "elev_in_m": "331",
    "elev_in_ft": "1086",
    "lat": 33.4483771,
    "long": -112.0740373
  },
  {
    "globaleventid": 258177690,
    "sqldate": 20130702,
    "monthyear": 201307,
    "year": 2013,
    "fractiondate": "2013.4986",
    "eventcode": 190,
    "quadclass": 4,
    "nummentions": 3,
    "numsources": 1,
    "numarticles": 3,
    "avgtone": "0.624609618988132",
    "sourceurl": "http://www.torontosun.com/2013/07/02/firefighters-look-to-make-headway-against-deadly-arizona-wildfire",
    "feature_id": "44784",
    "feature_name": "Phoenix",
    "state_alpha": "AZ",
    "county_name": "Maricopa",
    "county_numeric": "013",
    "prim_lat_dec": "33.4483771",
    "prim_long_dec": "-112.0740373",
    "elev_in_m": "331",
    "elev_in_ft": "1086",
    "lat": 33.4483771,
    "long": -112.0740373
  },
  {
    "globaleventid": 258177688,
    "sqldate": 20130702,
    "monthyear": 201307,
    "year": 2013,
    "fractiondate": "2013.4986",
    "eventcode": 190,
    "quadclass": 4,
    "nummentions": 3,
    "numsources": 1,
    "numarticles": 3,
    "avgtone": "2.0",
    "sourceurl": "http://www.cbs12.com/news/top-stories/stories/vid_8475.shtml",
    "feature_id": "307964",
    "feature_name": "Fort Pierce",
    "state_alpha": "FL",
    "county_name": "St. Lucie",
    "county_numeric": "111",
    "prim_lat_dec": "27.4467056",
    "prim_long_dec": "-80.3256056",
    "elev_in_m": "5",
    "elev_in_ft": "16",
    "lat": 27.4467056,
    "long": -80.3256056
  },
  {
    "globaleventid": 258177686,
    "sqldate": 20130702,
    "monthyear": 201307,
    "year": 2013,
    "fractiondate": "2013.4986",
    "eventcode": 190,
    "quadclass": 4,
    "nummentions": 2,
    "numsources": 2,
    "numarticles": 2,
    "avgtone": "1.7061835915961",
    "sourceurl": "http://www.bignewsnetwork.com/index.php/sid/215567503/scat/a1e025da3c02ca7c/ht/Firefighters-killed-in-Yarnell-Hill-fire-identified",
    "feature_id": "1662328",
    "feature_name": "Los Angeles",
    "state_alpha": "CA",
    "county_name": "Los Angeles",
    "county_numeric": "037",
    "prim_lat_dec": "34.0522342",
    "prim_long_dec": "-118.2436849",
    "elev_in_m": "89",
    "elev_in_ft": "292",
    "lat": 34.0522342,
    "long": -118.2436849
  },
  {
    "globaleventid": 258177682,
    "sqldate": 20130702,
    "monthyear": 201307,
    "year": 2013,
    "fractiondate": "2013.4986",
    "eventcode": 190,
    "quadclass": 4,
    "nummentions": 1,
    "numsources": 1,
    "numarticles": 1,
    "avgtone": "0.45662100456621",
    "sourceurl": "http://www.wral.com/nc-guard-on-standby-to-help-fight-ariz-wildfires/12619854/",
    "feature_id": "1005554",
    "feature_name": "Carolina",
    "state_alpha": "NC",
    "county_name": "Gaston",
    "county_numeric": "071",
    "prim_lat_dec": "35.3884665",
    "prim_long_dec": "-81.3714737",
    "elev_in_m": "284",
    "elev_in_ft": "932",
    "lat": 35.3884665,
    "long": -81.3714737
  },
  {
    "globaleventid": 258177677,
    "sqldate": 20130702,
    "monthyear": 201307,
    "year": 2013,
    "fractiondate": "2013.4986",
    "eventcode": 190,
    "quadclass": 4,
    "nummentions": 14,
    "numsources": 1,
    "numarticles": 10,
    "avgtone": "1.51828847481021",
    "sourceurl": "http://www.pbs.org/newshour/bb/weather/july-dec13/fire2_07-01.html",
    "feature_id": "617565",
    "feature_name": "Boston",
    "state_alpha": "MA",
    "county_name": "Suffolk",
    "county_numeric": "025",
    "prim_lat_dec": "42.3584308",
    "prim_long_dec": "-71.0597732",
    "elev_in_m": "14",
    "elev_in_ft": "46",
    "lat": 42.3584308,
    "long": -71.0597732
  },
  {
    "globaleventid": 258177676,
    "sqldate": 20130702,
    "monthyear": 201307,
    "year": 2013,
    "fractiondate": "2013.4986",
    "eventcode": 190,
    "quadclass": 4,
    "nummentions": 2,
    "numsources": 1,
    "numarticles": 2,
    "avgtone": "1.41921397379913",
    "sourceurl": "http://hosted.ap.org/dynamic/stories/U/US_WILDFIRES_ARIZONA?SITE=AP&SECTION=HOME&TEMPLATE=DEFAULT&CTIME=2013-06-30-23-19-19",
    "feature_id": "531871",
    "feature_name": "Washington",
    "state_alpha": "DC",
    "county_name": "District of Columbia",
    "county_numeric": "001",
    "prim_lat_dec": "38.8951118",
    "prim_long_dec": "-77.0363658",
    "elev_in_m": "7",
    "elev_in_ft": "23",
    "lat": 38.8951118,
    "long": -77.0363658
  },
  {
    "globaleventid": 258177669,
    "sqldate": 20130702,
    "monthyear": 201307,
    "year": 2013,
    "fractiondate": "2013.4986",
    "eventcode": 190,
    "quadclass": 4,
    "nummentions": 18,
    "numsources": 5,
    "numarticles": 18,
    "avgtone": "1.46849719130003",
    "sourceurl": "http://uk.news.yahoo.com/arizona-wildire-photo-killed-firefighters-013147279.html",
    "feature_id": "44784",
    "feature_name": "Phoenix",
    "state_alpha": "AZ",
    "county_name": "Maricopa",
    "county_numeric": "013",
    "prim_lat_dec": "33.4483771",
    "prim_long_dec": "-112.0740373",
    "elev_in_m": "331",
    "elev_in_ft": "1086",
    "lat": 33.4483771,
    "long": -112.0740373
  },
  {
    "globaleventid": 258177668,
    "sqldate": 20130702,
    "monthyear": 201307,
    "year": 2013,
    "fractiondate": "2013.4986",
    "eventcode": 190,
    "quadclass": 4,
    "nummentions": 58,
    "numsources": 8,
    "numarticles": 58,
    "avgtone": "1.79765099101442",
    "sourceurl": "http://www.washingtontimes.com/news/2013/jul/2/no-taming-the-western-wildfires/",
    "feature_id": "44784",
    "feature_name": "Phoenix",
    "state_alpha": "AZ",
    "county_name": "Maricopa",
    "county_numeric": "013",
    "prim_lat_dec": "33.4483771",
    "prim_long_dec": "-112.0740373",
    "elev_in_m": "331",
    "elev_in_ft": "1086",
    "lat": 33.4483771,
    "long": -112.0740373
  },
  {
    "globaleventid": 258177665,
    "sqldate": 20130702,
    "monthyear": 201307,
    "year": 2013,
    "fractiondate": "2013.4986",
    "eventcode": 190,
    "quadclass": 4,
    "nummentions": 8,
    "numsources": 1,
    "numarticles": 8,
    "avgtone": "1.45392683012382",
    "sourceurl": "http://www.suntimes.com/news/metro/21092812-418/firefighters-battle-three-alarm-blaze-at-bronzeville-building.html",
    "feature_id": "1825920",
    "feature_name": "Bronzeville",
    "state_alpha": "IL",
    "county_name": "Cook",
    "county_numeric": "031",
    "prim_lat_dec": "41.8308667",
    "prim_long_dec": "-87.6264399",
    "elev_in_m": "181",
    "elev_in_ft": "594",
    "lat": 41.8308667,
    "long": -87.6264399
  },
  {
    "globaleventid": 258177664,
    "sqldate": 20130702,
    "monthyear": 201307,
    "year": 2013,
    "fractiondate": "2013.4986",
    "eventcode": 190,
    "quadclass": 4,
    "nummentions": 5,
    "numsources": 1,
    "numarticles": 5,
    "avgtone": "2.0",
    "sourceurl": "http://www.cbs12.com/news/top-stories/stories/vid_8475.shtml",
    "feature_id": "307964",
    "feature_name": "Fort Pierce",
    "state_alpha": "FL",
    "county_name": "St. Lucie",
    "county_numeric": "111",
    "prim_lat_dec": "27.4467056",
    "prim_long_dec": "-80.3256056",
    "elev_in_m": "5",
    "elev_in_ft": "16",
    "lat": 27.4467056,
    "long": -80.3256056
  },
  {
    "globaleventid": 258177663,
    "sqldate": 20130702,
    "monthyear": 201307,
    "year": 2013,
    "fractiondate": "2013.4986",
    "eventcode": 190,
    "quadclass": 4,
    "nummentions": 5,
    "numsources": 1,
    "numarticles": 5,
    "avgtone": "1.52284263959391",
    "sourceurl": "http://www.accessnorthga.com/detail.php?n=263149",
    "feature_id": "28197",
    "feature_name": "Crown King",
    "state_alpha": "AZ",
    "county_name": "Yavapai",
    "county_numeric": "025",
    "prim_lat_dec": "34.2055857",
    "prim_long_dec": "-112.3384991",
    "elev_in_m": "1759",
    "elev_in_ft": "5771",
    "lat": 34.2055857,
    "long": -112.3384991
  },
  {
    "globaleventid": 258174756,
    "sqldate": 20130702,
    "monthyear": 201307,
    "year": 2013,
    "fractiondate": "2013.4986",
    "eventcode": 190,
    "quadclass": 4,
    "nummentions": 2,
    "numsources": 1,
    "numarticles": 2,
    "avgtone": "0.900900900900901",
    "sourceurl": "http://www.providencejournal.com/breaking-news/content/20130702-rhode-island-man-sentenced-to-two-life-sentences-in-connection-with-2004-killing.ece",
    "feature_id": "1218721",
    "feature_name": "Olneyville",
    "state_alpha": "RI",
    "county_name": "Providence",
    "county_numeric": "007",
    "prim_lat_dec": "41.8148223",
    "prim_long_dec": "-71.4464469",
    "elev_in_m": "13",
    "elev_in_ft": "43",
    "lat": 41.8148223,
    "long": -71.4464469
  },
  {
    "globaleventid": 258174754,
    "sqldate": 20130702,
    "monthyear": 201307,
    "year": 2013,
    "fractiondate": "2013.4986",
    "eventcode": 190,
    "quadclass": 4,
    "nummentions": 2,
    "numsources": 1,
    "numarticles": 2,
    "avgtone": "4.30711610486891",
    "sourceurl": "http://www.pinknews.co.uk/2013/06/28/maria-miller-i-want-pinknews-readers-to-tell-me-the-biggest-issues-facing-the-lgbt-community/",
    "feature_id": "951781",
    "feature_name": "Greenwich Village",
    "state_alpha": "NY",
    "county_name": "New York",
    "county_numeric": "061",
    "prim_lat_dec": "40.7284354",
    "prim_long_dec": "-74.0029173",
    "elev_in_m": "6",
    "elev_in_ft": "20",
    "lat": 40.7284354,
    "long": -74.0029173
  },
  {
    "globaleventid": 258174752,
    "sqldate": 20130702,
    "monthyear": 201307,
    "year": 2013,
    "fractiondate": "2013.4986",
    "eventcode": 190,
    "quadclass": 4,
    "nummentions": 6,
    "numsources": 1,
    "numarticles": 6,
    "avgtone": "1.74825174825175",
    "sourceurl": "http://www.timesdispatch.com/opinion/our-opinion/columnists-blogs/bart-hinkle/hinkle-commit-any-felonies-lately/article_58344fc1-7d4f-584a-8d16-36a1b1f2cdc0.html",
    "feature_id": "531871",
    "feature_name": "Washington",
    "state_alpha": "DC",
    "county_name": "District of Columbia",
    "county_numeric": "001",
    "prim_lat_dec": "38.8951118",
    "prim_long_dec": "-77.0363658",
    "elev_in_m": "7",
    "elev_in_ft": "23",
    "lat": 38.8951118,
    "long": -77.0363658
  },
  {
    "globaleventid": 258174749,
    "sqldate": 20130702,
    "monthyear": 201307,
    "year": 2013,
    "fractiondate": "2013.4986",
    "eventcode": 190,
    "quadclass": 4,
    "nummentions": 4,
    "numsources": 1,
    "numarticles": 4,
    "avgtone": "1.60427807486631",
    "sourceurl": "http://tbo.com/news/breaking-news/judge-strikes-detective-statements-on-zimmerman-20130702/",
    "feature_id": "292005",
    "feature_name": "Tampa",
    "state_alpha": "FL",
    "county_name": "Hillsborough",
    "county_numeric": "057",
    "prim_lat_dec": "27.9475216",
    "prim_long_dec": "-82.4584279",
    "elev_in_m": "5",
    "elev_in_ft": "16",
    "lat": 27.9475216,
    "long": -82.4584279
  },
  {
    "globaleventid": 258174747,
    "sqldate": 20130702,
    "monthyear": 201307,
    "year": 2013,
    "fractiondate": "2013.4986",
    "eventcode": 190,
    "quadclass": 4,
    "nummentions": 10,
    "numsources": 3,
    "numarticles": 10,
    "avgtone": "1.26353023104294",
    "sourceurl": "http://www.huffingtonpost.com/2013/07/02/george-zimmerman-trial-judge-sanford-detective-serino_n_3536387.html",
    "feature_id": "290826",
    "feature_name": "Seminole",
    "state_alpha": "FL",
    "county_name": "Pinellas",
    "county_numeric": "103",
    "prim_lat_dec": "27.8397466",
    "prim_long_dec": "-82.7912134",
    "elev_in_m": "11",
    "elev_in_ft": "36",
    "lat": 27.8397466,
    "long": -82.7912134
  },
  {
    "globaleventid": 258174741,
    "sqldate": 20130702,
    "monthyear": 201307,
    "year": 2013,
    "fractiondate": "2013.4986",
    "eventcode": 190,
    "quadclass": 4,
    "nummentions": 2,
    "numsources": 1,
    "numarticles": 2,
    "avgtone": "1.34228187919463",
    "sourceurl": "http://m.peninsulaclarion.com/news/2013-06-30/nikiski-man-charged-with-attempted-murder",
    "feature_id": "1416651",
    "feature_name": "Nikiski",
    "state_alpha": "AK",
    "county_name": "Kenai Peninsula",
    "county_numeric": "122",
    "prim_lat_dec": "60.6902778",
    "prim_long_dec": "-151.2888889",
    "elev_in_m": "41",
    "elev_in_ft": "135",
    "lat": 60.6902778,
    "long": -151.2888889
  },
  {
    "globaleventid": 258174739,
    "sqldate": 20130702,
    "monthyear": 201307,
    "year": 2013,
    "fractiondate": "2013.4986",
    "eventcode": 190,
    "quadclass": 4,
    "nummentions": 2,
    "numsources": 1,
    "numarticles": 2,
    "avgtone": "1.81818181818182",
    "sourceurl": "http://homernews.com/homer-news/local-news/2013-07-02/highway-shooter-accepts-plea-agreement",
    "feature_id": "1413299",
    "feature_name": "Kenai",
    "state_alpha": "AK",
    "county_name": "Kenai Peninsula",
    "county_numeric": "122",
    "prim_lat_dec": "60.5544444",
    "prim_long_dec": "-151.2583333",
    "elev_in_m": "26",
    "elev_in_ft": "85",
    "lat": 60.5544444,
    "long": -151.2583333
  },
  {
    "globaleventid": 258174738,
    "sqldate": 20130702,
    "monthyear": 201307,
    "year": 2013,
    "fractiondate": "2013.4986",
    "eventcode": 190,
    "quadclass": 4,
    "nummentions": 5,
    "numsources": 1,
    "numarticles": 5,
    "avgtone": "1.49253731343284",
    "sourceurl": "http://www.upi.com/Top_News/US/2013/07/02/Store-in-Atlantic-Citys-Borgata-Casino-loses-500K-to-thieves/UPI-13391372742820/",
    "feature_id": "1209052",
    "feature_name": "Philadelphia",
    "state_alpha": "PA",
    "county_name": "Philadelphia",
    "county_numeric": "101",
    "prim_lat_dec": "39.952335",
    "prim_long_dec": "-75.163789",
    "elev_in_m": "14",
    "elev_in_ft": "46",
    "lat": 39.952335,
    "long": -75.163789
  },
  {
    "globaleventid": 258174737,
    "sqldate": 20130702,
    "monthyear": 201307,
    "year": 2013,
    "fractiondate": "2013.4986",
    "eventcode": 190,
    "quadclass": 4,
    "nummentions": 2,
    "numsources": 1,
    "numarticles": 2,
    "avgtone": "0.0",
    "sourceurl": "http://www.wfmj.com/story/22747586/man-accused-of-triple-homicide-faces-judge",
    "feature_id": "1080996",
    "feature_name": "Columbus",
    "state_alpha": "OH",
    "county_name": "Franklin",
    "county_numeric": "049",
    "prim_lat_dec": "39.9611755",
    "prim_long_dec": "-82.9987942",
    "elev_in_m": "238",
    "elev_in_ft": "781",
    "lat": 39.9611755,
    "long": -82.9987942
  },
  {
    "globaleventid": 258174736,
    "sqldate": 20130702,
    "monthyear": 201307,
    "year": 2013,
    "fractiondate": "2013.4986",
    "eventcode": 190,
    "quadclass": 4,
    "nummentions": 4,
    "numsources": 1,
    "numarticles": 4,
    "avgtone": "0.0",
    "sourceurl": "http://www.wfmj.com/story/22747586/man-accused-of-triple-homicide-faces-judge",
    "feature_id": "1080996",
    "feature_name": "Columbus",
    "state_alpha": "OH",
    "county_name": "Franklin",
    "county_numeric": "049",
    "prim_lat_dec": "39.9611755",
    "prim_long_dec": "-82.9987942",
    "elev_in_m": "238",
    "elev_in_ft": "781",
    "lat": 39.9611755,
    "long": -82.9987942
  },
  {
    "globaleventid": 258174735,
    "sqldate": 20130702,
    "monthyear": 201307,
    "year": 2013,
    "fractiondate": "2013.4986",
    "eventcode": 190,
    "quadclass": 4,
    "nummentions": 4,
    "numsources": 1,
    "numarticles": 4,
    "avgtone": "0.0",
    "sourceurl": "http://www.wfmj.com/story/22747586/man-accused-of-triple-homicide-faces-judge",
    "feature_id": "1080996",
    "feature_name": "Columbus",
    "state_alpha": "OH",
    "county_name": "Franklin",
    "county_numeric": "049",
    "prim_lat_dec": "39.9611755",
    "prim_long_dec": "-82.9987942",
    "elev_in_m": "238",
    "elev_in_ft": "781",
    "lat": 39.9611755,
    "long": -82.9987942
  },
  {
    "globaleventid": 258174731,
    "sqldate": 20130702,
    "monthyear": 201307,
    "year": 2013,
    "fractiondate": "2013.4986",
    "eventcode": 1821,
    "quadclass": 4,
    "nummentions": 3,
    "numsources": 1,
    "numarticles": 3,
    "avgtone": "0.904977375565611",
    "sourceurl": "http://www.upi.com/Top_News/US/2013/07/02/Alleged-rapist-arrested-outside-police-station/UPI-55831372791412/?spt=hs&or=tn",
    "feature_id": "609092",
    "feature_name": "Springfield",
    "state_alpha": "MA",
    "county_name": "Hampden",
    "county_numeric": "013",
    "prim_lat_dec": "42.1014831",
    "prim_long_dec": "-72.589811",
    "elev_in_m": "19",
    "elev_in_ft": "62",
    "lat": 42.1014831,
    "long": -72.589811
  },
  {
    "globaleventid": 258174729,
    "sqldate": 20130702,
    "monthyear": 201307,
    "year": 2013,
    "fractiondate": "2013.4986",
    "eventcode": 182,
    "quadclass": 4,
    "nummentions": 6,
    "numsources": 1,
    "numarticles": 6,
    "avgtone": "0.923076923076923",
    "sourceurl": "http://www.star-telegram.com/2013/07/02/4977697/body-of-young-girl-found-in-saginaw.html",
    "feature_id": "1366966",
    "feature_name": "Round Rock",
    "state_alpha": "TX",
    "county_name": "Williamson",
    "county_numeric": "491",
    "prim_lat_dec": "30.5082551",
    "prim_long_dec": "-97.678896",
    "elev_in_m": "224",
    "elev_in_ft": "735",
    "lat": 30.5082551,
    "long": -97.678896
  },
  {
    "globaleventid": 258174722,
    "sqldate": 20130702,
    "monthyear": 201307,
    "year": 2013,
    "fractiondate": "2013.4986",
    "eventcode": 180,
    "quadclass": 4,
    "nummentions": 12,
    "numsources": 3,
    "numarticles": 12,
    "avgtone": "0.865832268480543",
    "sourceurl": "http://www.telegram.com/article/20130702/NEWS/130709948/1052",
    "feature_id": "868703",
    "feature_name": "New Durham",
    "state_alpha": "NH",
    "county_name": "Strafford",
    "county_numeric": "017",
    "prim_lat_dec": "43.4367466",
    "prim_long_dec": "-71.1722886",
    "elev_in_m": "163",
    "elev_in_ft": "535",
    "lat": 43.4367466,
    "long": -71.1722886
  },
  {
    "globaleventid": 258174717,
    "sqldate": 20130702,
    "monthyear": 201307,
    "year": 2013,
    "fractiondate": "2013.4986",
    "eventcode": 173,
    "quadclass": 4,
    "nummentions": 6,
    "numsources": 2,
    "numarticles": 4,
    "avgtone": "0.596314392336398",
    "sourceurl": "http://www.greenwichtime.com/news/crime/article/2-teens-woman-arrested-after-fight-in-Vt-4642136.php",
    "feature_id": "1456663",
    "feature_name": "Burlington",
    "state_alpha": "VT",
    "county_name": "Chittenden",
    "county_numeric": "007",
    "prim_lat_dec": "44.4758825",
    "prim_long_dec": "-73.212072",
    "elev_in_m": "60",
    "elev_in_ft": "197",
    "lat": 44.4758825,
    "long": -73.212072
  },
  {
    "globaleventid": 258174716,
    "sqldate": 20130702,
    "monthyear": 201307,
    "year": 2013,
    "fractiondate": "2013.4986",
    "eventcode": 173,
    "quadclass": 4,
    "nummentions": 4,
    "numsources": 1,
    "numarticles": 2,
    "avgtone": "0.4149377593361",
    "sourceurl": "http://www.chron.com/news/crime/article/2-teens-woman-arrested-after-fight-in-Vt-4642136.php",
    "feature_id": "1353333",
    "feature_name": "Burlington",
    "state_alpha": "TX",
    "county_name": "Milam",
    "county_numeric": "331",
    "prim_lat_dec": "31.0151845",
    "prim_long_dec": "-96.996655",
    "elev_in_m": "131",
    "elev_in_ft": "430",
    "lat": 31.0151845,
    "long": -96.996655
  },
  {
    "globaleventid": 258174713,
    "sqldate": 20130702,
    "monthyear": 201307,
    "year": 2013,
    "fractiondate": "2013.4986",
    "eventcode": 173,
    "quadclass": 4,
    "nummentions": 10,
    "numsources": 1,
    "numarticles": 10,
    "avgtone": "0.0",
    "sourceurl": "http://www.heraldextra.com/news/state-and-regional/utah/man-to-prison-in-fatal-distracted-driving-crash/article_f93e6fb6-8f46-5b7d-babb-e415f8d345b8.html",
    "feature_id": "1427343",
    "feature_name": "Deseret",
    "state_alpha": "UT",
    "county_name": "Millard",
    "county_numeric": "027",
    "prim_lat_dec": "39.286901",
    "prim_long_dec": "-112.652727",
    "elev_in_m": "1399",
    "elev_in_ft": "4590",
    "lat": 39.286901,
    "long": -112.652727
  },
  {
    "globaleventid": 258174704,
    "sqldate": 20130702,
    "monthyear": 201307,
    "year": 2013,
    "fractiondate": "2013.4986",
    "eventcode": 173,
    "quadclass": 4,
    "nummentions": 2,
    "numsources": 1,
    "numarticles": 1,
    "avgtone": "2.17391304347826",
    "sourceurl": "http://www.ctpost.com/news/crime/article/Ex-caretaker-gets-6-years-in-1-5-million-theft-4642077.php",
    "feature_id": "1065144",
    "feature_name": "Newark",
    "state_alpha": "OH",
    "county_name": "Licking",
    "county_numeric": "089",
    "prim_lat_dec": "40.0581205",
    "prim_long_dec": "-82.4012643",
    "elev_in_m": "254",
    "elev_in_ft": "833",
    "lat": 40.0581205,
    "long": -82.4012643
  },
  {
    "globaleventid": 258174703,
    "sqldate": 20130702,
    "monthyear": 201307,
    "year": 2013,
    "fractiondate": "2013.4986",
    "eventcode": 173,
    "quadclass": 4,
    "nummentions": 4,
    "numsources": 1,
    "numarticles": 4,
    "avgtone": "2.91970802919708",
    "sourceurl": "http://www.times-gazette.com/ap%20state/2013/07/02/ex-caretaker-gets-6-years-in-1-5-million-theft",
    "feature_id": "1049066",
    "feature_name": "Pataskala",
    "state_alpha": "OH",
    "county_name": "Licking",
    "county_numeric": "089",
    "prim_lat_dec": "39.9956193",
    "prim_long_dec": "-82.6743341",
    "elev_in_m": "305",
    "elev_in_ft": "1001",
    "lat": 39.9956193,
    "long": -82.6743341
  },
  {
    "globaleventid": 258174697,
    "sqldate": 20130702,
    "monthyear": 201307,
    "year": 2013,
    "fractiondate": "2013.4986",
    "eventcode": 173,
    "quadclass": 4,
    "nummentions": 20,
    "numsources": 5,
    "numarticles": 20,
    "avgtone": "0.731702445631836",
    "sourceurl": "http://www.telegram.com/article/20130702/NEWS/130709948/1052",
    "feature_id": "868703",
    "feature_name": "New Durham",
    "state_alpha": "NH",
    "county_name": "Strafford",
    "county_numeric": "017",
    "prim_lat_dec": "43.4367466",
    "prim_long_dec": "-71.1722886",
    "elev_in_m": "163",
    "elev_in_ft": "535",
    "lat": 43.4367466,
    "long": -71.1722886
  },
  {
    "globaleventid": 258174685,
    "sqldate": 20130702,
    "monthyear": 201307,
    "year": 2013,
    "fractiondate": "2013.4986",
    "eventcode": 173,
    "quadclass": 4,
    "nummentions": 2,
    "numsources": 1,
    "numarticles": 2,
    "avgtone": "2.12765957446809",
    "sourceurl": "http://www.kpua.net/news.php?id=27789",
    "feature_id": "366212",
    "feature_name": "Honolulu",
    "state_alpha": "HI",
    "county_name": "Honolulu",
    "county_numeric": "003",
    "prim_lat_dec": "21.3069444",
    "prim_long_dec": "-157.8583333",
    "elev_in_m": "5",
    "elev_in_ft": "16",
    "lat": 21.3069444,
    "long": -157.8583333
  },
  {
    "globaleventid": 258174679,
    "sqldate": 20130702,
    "monthyear": 201307,
    "year": 2013,
    "fractiondate": "2013.4986",
    "eventcode": 173,
    "quadclass": 4,
    "nummentions": 2,
    "numsources": 1,
    "numarticles": 2,
    "avgtone": "1.04712041884817",
    "sourceurl": "http://www.ctpost.com/news/crime/article/Financial-planner-sentenced-in-Sun-City-fraud-case-4643996.php",
    "feature_id": "44784",
    "feature_name": "Phoenix",
    "state_alpha": "AZ",
    "county_name": "Maricopa",
    "county_numeric": "013",
    "prim_lat_dec": "33.4483771",
    "prim_long_dec": "-112.0740373",
    "elev_in_m": "331",
    "elev_in_ft": "1086",
    "lat": 33.4483771,
    "long": -112.0740373
  },
  {
    "globaleventid": 258174673,
    "sqldate": 20130702,
    "monthyear": 201307,
    "year": 2013,
    "fractiondate": "2013.4986",
    "eventcode": 173,
    "quadclass": 4,
    "nummentions": 16,
    "numsources": 1,
    "numarticles": 16,
    "avgtone": "2.57289879931389",
    "sourceurl": "http://www.newhampshire.com/article/20130701/NEWS03/130709967/-1/newhampshire",
    "feature_id": "868703",
    "feature_name": "New Durham",
    "state_alpha": "NH",
    "county_name": "Strafford",
    "county_numeric": "017",
    "prim_lat_dec": "43.4367466",
    "prim_long_dec": "-71.1722886",
    "elev_in_m": "163",
    "elev_in_ft": "535",
    "lat": 43.4367466,
    "long": -71.1722886
  },
  {
    "globaleventid": 258174670,
    "sqldate": 20130702,
    "monthyear": 201307,
    "year": 2013,
    "fractiondate": "2013.4986",
    "eventcode": 173,
    "quadclass": 4,
    "nummentions": 16,
    "numsources": 4,
    "numarticles": 16,
    "avgtone": "0.711376024519469",
    "sourceurl": "http://www.telegram.com/article/20130702/NEWS/130709948/1052",
    "feature_id": "868703",
    "feature_name": "New Durham",
    "state_alpha": "NH",
    "county_name": "Strafford",
    "county_numeric": "017",
    "prim_lat_dec": "43.4367466",
    "prim_long_dec": "-71.1722886",
    "elev_in_m": "163",
    "elev_in_ft": "535",
    "lat": 43.4367466,
    "long": -71.1722886
  },
  {
    "globaleventid": 258174669,
    "sqldate": 20130702,
    "monthyear": 201307,
    "year": 2013,
    "fractiondate": "2013.4986",
    "eventcode": 173,
    "quadclass": 4,
    "nummentions": 10,
    "numsources": 1,
    "numarticles": 10,
    "avgtone": "1.71919770773639",
    "sourceurl": "http://www.therepublic.com/view/story/6ebd67a4b195480f8cff174162963dbb/NE--Drugstore-Standoff-Remains",
    "feature_id": "835519",
    "feature_name": "Chadron",
    "state_alpha": "NE",
    "county_name": "Dawes",
    "county_numeric": "045",
    "prim_lat_dec": "42.8294187",
    "prim_long_dec": "-102.999907",
    "elev_in_m": "1030",
    "elev_in_ft": "3379",
    "lat": 42.8294187,
    "long": -102.999907
  },
  {
    "globaleventid": 258174668,
    "sqldate": 20130702,
    "monthyear": 201307,
    "year": 2013,
    "fractiondate": "2013.4986",
    "eventcode": 173,
    "quadclass": 4,
    "nummentions": 8,
    "numsources": 2,
    "numarticles": 8,
    "avgtone": "1.53744576495001",
    "sourceurl": "http://www.theindependent.com/news/state/nebraska-gunman-s-girlfriend-sentenced-to-prison/article_1d9c362e-e584-5eb4-b2e6-b2f49281a600.html",
    "feature_id": "829925",
    "feature_name": "Hemingford",
    "state_alpha": "NE",
    "county_name": "Box Butte",
    "county_numeric": "013",
    "prim_lat_dec": "42.3216288",
    "prim_long_dec": "-103.0729757",
    "elev_in_m": "1300",
    "elev_in_ft": "4265",
    "lat": 42.3216288,
    "long": -103.0729757
  },
  {
    "globaleventid": 258174667,
    "sqldate": 20130702,
    "monthyear": 201307,
    "year": 2013,
    "fractiondate": "2013.4986",
    "eventcode": 173,
    "quadclass": 4,
    "nummentions": 2,
    "numsources": 1,
    "numarticles": 2,
    "avgtone": "1.4344262295082",
    "sourceurl": "http://www.nbcmontana.com/news/search-called-off-for-montana-state-prison-escapee/-/14594602/20814778/-/rfqrmd/-/index.html",
    "feature_id": "802113",
    "feature_name": "Great Falls",
    "state_alpha": "MT",
    "county_name": "Cascade",
    "county_numeric": "013",
    "prim_lat_dec": "47.5002354",
    "prim_long_dec": "-111.3008083",
    "elev_in_m": "1015",
    "elev_in_ft": "3330",
    "lat": 47.5002354,
    "long": -111.3008083
  },
  {
    "globaleventid": 258174666,
    "sqldate": 20130702,
    "monthyear": 201307,
    "year": 2013,
    "fractiondate": "2013.4986",
    "eventcode": 173,
    "quadclass": 4,
    "nummentions": 2,
    "numsources": 2,
    "numarticles": 2,
    "avgtone": "0.0",
    "sourceurl": "http://www.montanakaimin.com/news/mt_state_ap/article_1de4fd94-7ebb-504f-9ed6-138e0567cdea.html",
    "feature_id": "782261",
    "feature_name": "Deer Lodge",
    "state_alpha": "MT",
    "county_name": "Powell",
    "county_numeric": "077",
    "prim_lat_dec": "46.3957608",
    "prim_long_dec": "-112.7300383",
    "elev_in_m": "1392",
    "elev_in_ft": "4567",
    "lat": 46.3957608,
    "long": -112.7300383
  },
  {
    "globaleventid": 258174665,
    "sqldate": 20130702,
    "monthyear": 201307,
    "year": 2013,
    "fractiondate": "2013.4986",
    "eventcode": 173,
    "quadclass": 4,
    "nummentions": 2,
    "numsources": 2,
    "numarticles": 2,
    "avgtone": "0.0",
    "sourceurl": "http://www.montanakaimin.com/news/mt_state_ap/article_1de4fd94-7ebb-504f-9ed6-138e0567cdea.html",
    "feature_id": "782261",
    "feature_name": "Deer Lodge",
    "state_alpha": "MT",
    "county_name": "Powell",
    "county_numeric": "077",
    "prim_lat_dec": "46.3957608",
    "prim_long_dec": "-112.7300383",
    "elev_in_m": "1392",
    "elev_in_ft": "4567",
    "lat": 46.3957608,
    "long": -112.7300383
  },
  {
    "globaleventid": 258174661,
    "sqldate": 20130702,
    "monthyear": 201307,
    "year": 2013,
    "fractiondate": "2013.4986",
    "eventcode": 173,
    "quadclass": 4,
    "nummentions": 4,
    "numsources": 1,
    "numarticles": 4,
    "avgtone": "0.813008130081301",
    "sourceurl": "http://www.boston.com/news/local/new-hampshire/2013/07/02/woman-gets-years-for-starving-child/k6Ps81IZsH3tnlpDENiTJM/story.html",
    "feature_id": "868703",
    "feature_name": "New Durham",
    "state_alpha": "NH",
    "county_name": "Strafford",
    "county_numeric": "017",
    "prim_lat_dec": "43.4367466",
    "prim_long_dec": "-71.1722886",
    "elev_in_m": "163",
    "elev_in_ft": "535",
    "lat": 43.4367466,
    "long": -71.1722886
  },
  {
    "globaleventid": 258174660,
    "sqldate": 20130702,
    "monthyear": 201307,
    "year": 2013,
    "fractiondate": "2013.4986",
    "eventcode": 173,
    "quadclass": 4,
    "nummentions": 2,
    "numsources": 1,
    "numarticles": 2,
    "avgtone": "2.5062656641604",
    "sourceurl": "http://7thspace.com/headlines/440391/six_members_of_drug_ring_sentenced_to_lengthy_prison_sentences_following_guilty_pleas_to_narcotics_and_money_laundering_charges.html",
    "feature_id": "598313",
    "feature_name": "Fort Washington",
    "state_alpha": "MD",
    "county_name": "Prince George's",
    "county_numeric": "033",
    "prim_lat_dec": "38.7073379",
    "prim_long_dec": "-77.0230314",
    "elev_in_m": "33",
    "elev_in_ft": "108",
    "lat": 38.7073379,
    "long": -77.0230314
  },
  {
    "globaleventid": 258174659,
    "sqldate": 20130702,
    "monthyear": 201307,
    "year": 2013,
    "fractiondate": "2013.4986",
    "eventcode": 173,
    "quadclass": 4,
    "nummentions": 12,
    "numsources": 3,
    "numarticles": 12,
    "avgtone": "0.703391797966315",
    "sourceurl": "http://www.dailyjournal.net/view/story/4d4f42e25f1447f1bcdf8b9752155a1d/MD--Pasadena-Shooting/",
    "feature_id": "595031",
    "feature_name": "Annapolis",
    "state_alpha": "MD",
    "county_name": "Anne Arundel",
    "county_numeric": "003",
    "prim_lat_dec": "38.9784453",
    "prim_long_dec": "-76.4921829",
    "elev_in_m": "13",
    "elev_in_ft": "43",
    "lat": 38.9784453,
    "long": -76.4921829
  },
  {
    "globaleventid": 258174658,
    "sqldate": 20130702,
    "monthyear": 201307,
    "year": 2013,
    "fractiondate": "2013.4986",
    "eventcode": 173,
    "quadclass": 4,
    "nummentions": 12,
    "numsources": 3,
    "numarticles": 12,
    "avgtone": "0.703391797966315",
    "sourceurl": "http://www.dailyjournal.net/view/story/4d4f42e25f1447f1bcdf8b9752155a1d/MD--Pasadena-Shooting/",
    "feature_id": "589067",
    "feature_name": "Arundel",
    "state_alpha": "MD",
    "county_name": "Cecil",
    "county_numeric": "015",
    "prim_lat_dec": "39.5659465",
    "prim_long_dec": "-75.8729958",
    "elev_in_m": "26",
    "elev_in_ft": "85",
    "lat": 39.5659465,
    "long": -75.8729958
  },
  {
    "globaleventid": 258174657,
    "sqldate": 20130702,
    "monthyear": 201307,
    "year": 2013,
    "fractiondate": "2013.4986",
    "eventcode": 173,
    "quadclass": 4,
    "nummentions": 10,
    "numsources": 1,
    "numarticles": 10,
    "avgtone": "0.638297872340425",
    "sourceurl": "http://www.glendalestar.com/news/article_aa60795e-e297-11e2-b190-001a4bcf887a.html",
    "feature_id": "590326",
    "feature_name": "Glendale",
    "state_alpha": "MD",
    "county_name": "Baltimore",
    "county_numeric": "005",
    "prim_lat_dec": "39.379829",
    "prim_long_dec": "-76.5855227",
    "elev_in_m": "112",
    "elev_in_ft": "367",
    "lat": 39.379829,
    "long": -76.5855227
  },
  {
    "globaleventid": 258174654,
    "sqldate": 20130702,
    "monthyear": 201307,
    "year": 2013,
    "fractiondate": "2013.4986",
    "eventcode": 173,
    "quadclass": 4,
    "nummentions": 28,
    "numsources": 4,
    "numarticles": 28,
    "avgtone": "1.34660997905873",
    "sourceurl": "http://www.therepublic.com/view/story/e36afa07d8514fdf8f6a5601f8b2cd23/DC--Physician-Sentenced",
    "feature_id": "531871",
    "feature_name": "Washington",
    "state_alpha": "DC",
    "county_name": "District of Columbia",
    "county_numeric": "001",
    "prim_lat_dec": "38.8951118",
    "prim_long_dec": "-77.0363658",
    "elev_in_m": "7",
    "elev_in_ft": "23",
    "lat": 38.8951118,
    "long": -77.0363658
  },
  {
    "globaleventid": 258174653,
    "sqldate": 20130702,
    "monthyear": 201307,
    "year": 2013,
    "fractiondate": "2013.4986",
    "eventcode": 173,
    "quadclass": 4,
    "nummentions": 1,
    "numsources": 1,
    "numarticles": 1,
    "avgtone": "1.15942028985507",
    "sourceurl": "http://www.greenfieldreporter.com/view/story/69a56968c2bf4599a13d28297339f1eb/IN--Speedway-Taxis-Lawsuit",
    "feature_id": "452890",
    "feature_name": "Indianapolis",
    "state_alpha": "IN",
    "county_name": "Marion",
    "county_numeric": "097",
    "prim_lat_dec": "39.7683765",
    "prim_long_dec": "-86.1580423",
    "elev_in_m": "219",
    "elev_in_ft": "718",
    "lat": 39.7683765,
    "long": -86.1580423
  },
  {
    "globaleventid": 258174651,
    "sqldate": 20130702,
    "monthyear": 201307,
    "year": 2013,
    "fractiondate": "2013.4986",
    "eventcode": 173,
    "quadclass": 4,
    "nummentions": 16,
    "numsources": 2,
    "numarticles": 16,
    "avgtone": "0.874251913229402",
    "sourceurl": "http://www.ctpost.com/news/crime/article/3-members-of-Arizona-family-sentenced-in-drug-case-4644069.php",
    "feature_id": "44784",
    "feature_name": "Phoenix",
    "state_alpha": "AZ",
    "county_name": "Maricopa",
    "county_numeric": "013",
    "prim_lat_dec": "33.4483771",
    "prim_long_dec": "-112.0740373",
    "elev_in_m": "331",
    "elev_in_ft": "1086",
    "lat": 33.4483771,
    "long": -112.0740373
  },
  {
    "globaleventid": 258174650,
    "sqldate": 20130702,
    "monthyear": 201307,
    "year": 2013,
    "fractiondate": "2013.4986",
    "eventcode": 173,
    "quadclass": 4,
    "nummentions": 16,
    "numsources": 1,
    "numarticles": 10,
    "avgtone": "1.04712041884817",
    "sourceurl": "http://www.ctpost.com/news/crime/article/Financial-planner-sentenced-in-Sun-City-fraud-case-4643996.php",
    "feature_id": "44784",
    "feature_name": "Phoenix",
    "state_alpha": "AZ",
    "county_name": "Maricopa",
    "county_numeric": "013",
    "prim_lat_dec": "33.4483771",
    "prim_long_dec": "-112.0740373",
    "elev_in_m": "331",
    "elev_in_ft": "1086",
    "lat": 33.4483771,
    "long": -112.0740373
  },
  {
    "globaleventid": 258174647,
    "sqldate": 20130702,
    "monthyear": 201307,
    "year": 2013,
    "fractiondate": "2013.4986",
    "eventcode": 173,
    "quadclass": 4,
    "nummentions": 4,
    "numsources": 1,
    "numarticles": 4,
    "avgtone": "3.33333333333333",
    "sourceurl": "http://www.dailyjournal.net/view/story/57c153481e374fa7a8310086b681c37d/HI--Gas-Station-Scheme/",
    "feature_id": "366212",
    "feature_name": "Honolulu",
    "state_alpha": "HI",
    "county_name": "Honolulu",
    "county_numeric": "003",
    "prim_lat_dec": "21.3069444",
    "prim_long_dec": "-157.8583333",
    "elev_in_m": "5",
    "elev_in_ft": "16",
    "lat": 21.3069444,
    "long": -157.8583333
  },
  {
    "globaleventid": 258174646,
    "sqldate": 20130702,
    "monthyear": 201307,
    "year": 2013,
    "fractiondate": "2013.4986",
    "eventcode": 173,
    "quadclass": 4,
    "nummentions": 34,
    "numsources": 3,
    "numarticles": 34,
    "avgtone": "0.998306706913053",
    "sourceurl": "http://www.kpua.net/news.php?id=27799",
    "feature_id": "366212",
    "feature_name": "Honolulu",
    "state_alpha": "HI",
    "county_name": "Honolulu",
    "county_numeric": "003",
    "prim_lat_dec": "21.3069444",
    "prim_long_dec": "-157.8583333",
    "elev_in_m": "5",
    "elev_in_ft": "16",
    "lat": 21.3069444,
    "long": -157.8583333
  },
  {
    "globaleventid": 258174644,
    "sqldate": 20130702,
    "monthyear": 201307,
    "year": 2013,
    "fractiondate": "2013.4986",
    "eventcode": 173,
    "quadclass": 4,
    "nummentions": 4,
    "numsources": 1,
    "numarticles": 4,
    "avgtone": "1.21457489878543",
    "sourceurl": "http://miami.cbslocal.com/2013/07/02/lead-detective-to-return-to-stand-in-zimmerman-trial/",
    "feature_id": "295004",
    "feature_name": "Miami",
    "state_alpha": "FL",
    "county_name": "Miami-Dade",
    "county_numeric": "086",
    "prim_lat_dec": "25.7742658",
    "prim_long_dec": "-80.1936589",
    "elev_in_m": "2",
    "elev_in_ft": "7",
    "lat": 25.7742658,
    "long": -80.1936589
  },
  {
    "globaleventid": 258174643,
    "sqldate": 20130702,
    "monthyear": 201307,
    "year": 2013,
    "fractiondate": "2013.4986",
    "eventcode": 173,
    "quadclass": 4,
    "nummentions": 10,
    "numsources": 1,
    "numarticles": 10,
    "avgtone": "0.865800865800866",
    "sourceurl": "http://www.wtsp.com/news/local/article/323212/8/1-arrested-another-sought-in-robbery-attack",
    "feature_id": "294459",
    "feature_name": "Lakeland",
    "state_alpha": "FL",
    "county_name": "Polk",
    "county_numeric": "105",
    "prim_lat_dec": "28.0394654",
    "prim_long_dec": "-81.9498042",
    "elev_in_m": "59",
    "elev_in_ft": "194",
    "lat": 28.0394654,
    "long": -81.9498042
  },
  {
    "globaleventid": 258174642,
    "sqldate": 20130702,
    "monthyear": 201307,
    "year": 2013,
    "fractiondate": "2013.4986",
    "eventcode": 173,
    "quadclass": 4,
    "nummentions": 4,
    "numsources": 1,
    "numarticles": 4,
    "avgtone": "1.60427807486631",
    "sourceurl": "http://tbo.com/news/breaking-news/judge-strikes-detective-statements-on-zimmerman-20130702/",
    "feature_id": "292005",
    "feature_name": "Tampa",
    "state_alpha": "FL",
    "county_name": "Hillsborough",
    "county_numeric": "057",
    "prim_lat_dec": "27.9475216",
    "prim_long_dec": "-82.4584279",
    "elev_in_m": "5",
    "elev_in_ft": "16",
    "lat": 27.9475216,
    "long": -82.4584279
  },
  {
    "globaleventid": 258174639,
    "sqldate": 20130702,
    "monthyear": 201307,
    "year": 2013,
    "fractiondate": "2013.4986",
    "eventcode": 173,
    "quadclass": 4,
    "nummentions": 12,
    "numsources": 4,
    "numarticles": 12,
    "avgtone": "1.42939634243312",
    "sourceurl": "http://www.huffingtonpost.com/2013/07/02/george-zimmerman-trial-judge-sanford-detective-serino_n_3536387.html",
    "feature_id": "290826",
    "feature_name": "Seminole",
    "state_alpha": "FL",
    "county_name": "Pinellas",
    "county_numeric": "103",
    "prim_lat_dec": "27.8397466",
    "prim_long_dec": "-82.7912134",
    "elev_in_m": "11",
    "elev_in_ft": "36",
    "lat": 27.8397466,
    "long": -82.7912134
  },
  {
    "globaleventid": 258174638,
    "sqldate": 20130702,
    "monthyear": 201307,
    "year": 2013,
    "fractiondate": "2013.4986",
    "eventcode": 173,
    "quadclass": 4,
    "nummentions": 4,
    "numsources": 1,
    "numarticles": 4,
    "avgtone": "1.32450331125828",
    "sourceurl": "http://www.mmaweekly.com/mma-referee-josh-rosenthal-sentenced-to-37-months-in-federal-prison-on-drug-charges?vbox=1",
    "feature_id": "277566",
    "feature_name": "Oakland",
    "state_alpha": "CA",
    "county_name": "Alameda",
    "county_numeric": "001",
    "prim_lat_dec": "37.8043722",
    "prim_long_dec": "-122.2708026",
    "elev_in_m": "13",
    "elev_in_ft": "43",
    "lat": 37.8043722,
    "long": -122.2708026
  },
  {
    "globaleventid": 258174633,
    "sqldate": 20130702,
    "monthyear": 201307,
    "year": 2013,
    "fractiondate": "2013.4986",
    "eventcode": 173,
    "quadclass": 4,
    "nummentions": 1,
    "numsources": 1,
    "numarticles": 1,
    "avgtone": "2.418682235196",
    "sourceurl": "http://www.chicagotribune.com/news/local/ct-met-patrick-conviction-appeal-20130702,0,4277220.story?track=rss",
    "feature_id": "423587",
    "feature_name": "Chicago",
    "state_alpha": "IL",
    "county_name": "Cook",
    "county_numeric": "031",
    "prim_lat_dec": "41.850033",
    "prim_long_dec": "-87.6500523",
    "elev_in_m": "179",
    "elev_in_ft": "587",
    "lat": 41.850033,
    "long": -87.6500523
  },
  {
    "globaleventid": 258174632,
    "sqldate": 20130702,
    "monthyear": 201307,
    "year": 2013,
    "fractiondate": "2013.4986",
    "eventcode": 173,
    "quadclass": 4,
    "nummentions": 1,
    "numsources": 1,
    "numarticles": 1,
    "avgtone": "2.418682235196",
    "sourceurl": "http://www.chicagotribune.com/news/local/ct-met-patrick-conviction-appeal-20130702,0,4277220.story?track=rss",
    "feature_id": "423587",
    "feature_name": "Chicago",
    "state_alpha": "IL",
    "county_name": "Cook",
    "county_numeric": "031",
    "prim_lat_dec": "41.850033",
    "prim_long_dec": "-87.6500523",
    "elev_in_m": "179",
    "elev_in_ft": "587",
    "lat": 41.850033,
    "long": -87.6500523
  },
  {
    "globaleventid": 258174628,
    "sqldate": 20130702,
    "monthyear": 201307,
    "year": 2013,
    "fractiondate": "2013.4986",
    "eventcode": 173,
    "quadclass": 4,
    "nummentions": 14,
    "numsources": 2,
    "numarticles": 14,
    "avgtone": "2.96810117543165",
    "sourceurl": "http://www.4-traders.com/news/U-S-Alcohol-and-Tobacco-Tax-and-Trade-Bureau-Former-President-of-San-Diego-Customs-Brokers-Associ--17065536/",
    "feature_id": "1662328",
    "feature_name": "Los Angeles",
    "state_alpha": "CA",
    "county_name": "Los Angeles",
    "county_numeric": "037",
    "prim_lat_dec": "34.0522342",
    "prim_long_dec": "-118.2436849",
    "elev_in_m": "89",
    "elev_in_ft": "292",
    "lat": 34.0522342,
    "long": -118.2436849
  },
  {
    "globaleventid": 258174627,
    "sqldate": 20130702,
    "monthyear": 201307,
    "year": 2013,
    "fractiondate": "2013.4986",
    "eventcode": 173,
    "quadclass": 4,
    "nummentions": 4,
    "numsources": 1,
    "numarticles": 4,
    "avgtone": "1.94410692588092",
    "sourceurl": "http://www.mantecabulletin.com/section/140/article/78274/",
    "feature_id": "1657939",
    "feature_name": "Aptos",
    "state_alpha": "CA",
    "county_name": "Santa Cruz",
    "county_numeric": "087",
    "prim_lat_dec": "36.9771729",
    "prim_long_dec": "-121.8994016",
    "elev_in_m": "33",
    "elev_in_ft": "108",
    "lat": 36.9771729,
    "long": -121.8994016
  },
  {
    "globaleventid": 258174625,
    "sqldate": 20130702,
    "monthyear": 201307,
    "year": 2013,
    "fractiondate": "2013.4986",
    "eventcode": 173,
    "quadclass": 4,
    "nummentions": 18,
    "numsources": 1,
    "numarticles": 18,
    "avgtone": "3.55756325358003",
    "sourceurl": "http://www.washingtonpost.com/business/on-small-business/government-falls-short-of-small-business-contracting-goals-yet-again/2013/07/02/48cf0152-e313-11e2-aef3-339619eab080_story.html",
    "feature_id": "1515947",
    "feature_name": "Arlington",
    "state_alpha": "WA",
    "county_name": "Snohomish",
    "county_numeric": "061",
    "prim_lat_dec": "48.1987118",
    "prim_long_dec": "-122.1251418",
    "elev_in_m": "35",
    "elev_in_ft": "115",
    "lat": 48.1987118,
    "long": -122.1251418
  },
  {
    "globaleventid": 258174624,
    "sqldate": 20130702,
    "monthyear": 201307,
    "year": 2013,
    "fractiondate": "2013.4986",
    "eventcode": 173,
    "quadclass": 4,
    "nummentions": 10,
    "numsources": 1,
    "numarticles": 10,
    "avgtone": "1.8957345971564",
    "sourceurl": "http://www.timesdispatch.com/news/local/city-of-richmond/elias-webb-gets--year-prison-term-in-bicyclist-s/article_ce746546-e312-11e2-96e6-0019bb30f31a.html",
    "feature_id": "1499957",
    "feature_name": "Richmond",
    "state_alpha": "VA",
    "county_name": "Richmond (city)",
    "county_numeric": "760",
    "prim_lat_dec": "37.5537575",
    "prim_long_dec": "-77.4602617",
    "elev_in_m": "64",
    "elev_in_ft": "210",
    "lat": 37.5537575,
    "long": -77.4602617
  },
  {
    "globaleventid": 258174621,
    "sqldate": 20130702,
    "monthyear": 201307,
    "year": 2013,
    "fractiondate": "2013.4986",
    "eventcode": 173,
    "quadclass": 4,
    "nummentions": 4,
    "numsources": 1,
    "numarticles": 4,
    "avgtone": "2.3121387283237",
    "sourceurl": "http://www.masslive.com/news/index.ssf/2013/07/hampshire_county_cocaine_ring.html",
    "feature_id": "1380592",
    "feature_name": "Springfield",
    "state_alpha": "TX",
    "county_name": "Limestone",
    "county_numeric": "293",
    "prim_lat_dec": "31.6596122",
    "prim_long_dec": "-96.4827583",
    "elev_in_m": "146",
    "elev_in_ft": "479",
    "lat": 31.6596122,
    "long": -96.4827583
  },
  {
    "globaleventid": 258174620,
    "sqldate": 20130702,
    "monthyear": 201307,
    "year": 2013,
    "fractiondate": "2013.4986",
    "eventcode": 173,
    "quadclass": 4,
    "nummentions": 20,
    "numsources": 2,
    "numarticles": 20,
    "avgtone": "0.0",
    "sourceurl": "http://www.timesonline.com/news/state/pa-man-sues-police-for-stunning-him-while-cuffed/article_444c6d03-72d1-5e0c-aca4-20c5b59082e5.html",
    "feature_id": "1188284",
    "feature_name": "Springdale",
    "state_alpha": "PA",
    "county_name": "York",
    "county_numeric": "133",
    "prim_lat_dec": "39.9506543",
    "prim_long_dec": "-76.7146895",
    "elev_in_m": "141",
    "elev_in_ft": "463",
    "lat": 39.9506543,
    "long": -76.7146895
  },
  {
    "globaleventid": 258174618,
    "sqldate": 20130702,
    "monthyear": 201307,
    "year": 2013,
    "fractiondate": "2013.4986",
    "eventcode": 173,
    "quadclass": 4,
    "nummentions": 2,
    "numsources": 1,
    "numarticles": 1,
    "avgtone": "2.17391304347826",
    "sourceurl": "http://www.ctpost.com/news/crime/article/Ex-caretaker-gets-6-years-in-1-5-million-theft-4642077.php",
    "feature_id": "1065144",
    "feature_name": "Newark",
    "state_alpha": "OH",
    "county_name": "Licking",
    "county_numeric": "089",
    "prim_lat_dec": "40.0581205",
    "prim_long_dec": "-82.4012643",
    "elev_in_m": "254",
    "elev_in_ft": "833",
    "lat": 40.0581205,
    "long": -82.4012643
  },
  {
    "globaleventid": 258174617,
    "sqldate": 20130702,
    "monthyear": 201307,
    "year": 2013,
    "fractiondate": "2013.4986",
    "eventcode": 173,
    "quadclass": 4,
    "nummentions": 4,
    "numsources": 1,
    "numarticles": 2,
    "avgtone": "2.17391304347826",
    "sourceurl": "http://www.ctpost.com/news/crime/article/Ex-caretaker-gets-6-years-in-1-5-million-theft-4642077.php",
    "feature_id": "1071002",
    "feature_name": "Zanesville",
    "state_alpha": "OH",
    "county_name": "Muskingum",
    "county_numeric": "119",
    "prim_lat_dec": "39.9403453",
    "prim_long_dec": "-82.0131924",
    "elev_in_m": "206",
    "elev_in_ft": "676",
    "lat": 39.9403453,
    "long": -82.0131924
  },
  {
    "globaleventid": 258174616,
    "sqldate": 20130702,
    "monthyear": 201307,
    "year": 2013,
    "fractiondate": "2013.4986",
    "eventcode": 173,
    "quadclass": 4,
    "nummentions": 8,
    "numsources": 1,
    "numarticles": 4,
    "avgtone": "1.34994807892004",
    "sourceurl": "http://www.vindy.com/news/2013/jul/02/courts/",
    "feature_id": "1005126",
    "feature_name": "Brookfield",
    "state_alpha": "NC",
    "county_name": "New Hanover",
    "county_numeric": "129",
    "prim_lat_dec": "34.2762805",
    "prim_long_dec": "-77.8780409",
    "elev_in_m": "9",
    "elev_in_ft": "30",
    "lat": 34.2762805,
    "long": -77.8780409
  },
  {
    "globaleventid": 258174609,
    "sqldate": 20130702,
    "monthyear": 201307,
    "year": 2013,
    "fractiondate": "2013.4986",
    "eventcode": 150,
    "quadclass": 4,
    "nummentions": 4,
    "numsources": 1,
    "numarticles": 4,
    "avgtone": "2.45901639344262",
    "sourceurl": "http://www.washingtontimes.com/news/2013/jul/2/plan-stresses-cross-border-cooperation/",
    "feature_id": "531871",
    "feature_name": "Washington",
    "state_alpha": "DC",
    "county_name": "District of Columbia",
    "county_numeric": "001",
    "prim_lat_dec": "38.8951118",
    "prim_long_dec": "-77.0363658",
    "elev_in_m": "7",
    "elev_in_ft": "23",
    "lat": 38.8951118,
    "long": -77.0363658
  },
  {
    "globaleventid": 258174606,
    "sqldate": 20130702,
    "monthyear": 201307,
    "year": 2013,
    "fractiondate": "2013.4986",
    "eventcode": 130,
    "quadclass": 3,
    "nummentions": 2,
    "numsources": 1,
    "numarticles": 2,
    "avgtone": "0.0",
    "sourceurl": "http://www.greenevillesun.com/Local_News/article/Pursuit-Ends-With-A-Crash-Arrest-Of-Chattanooga-Man-id-324867",
    "feature_id": "1307240",
    "feature_name": "Chattanooga",
    "state_alpha": "TN",
    "county_name": "Hamilton",
    "county_numeric": "065",
    "prim_lat_dec": "35.0456297",
    "prim_long_dec": "-85.3096801",
    "elev_in_m": "206",
    "elev_in_ft": "676",
    "lat": 35.0456297,
    "long": -85.3096801
  },
  {
    "globaleventid": 258174605,
    "sqldate": 20130702,
    "monthyear": 201307,
    "year": 2013,
    "fractiondate": "2013.4986",
    "eventcode": 130,
    "quadclass": 3,
    "nummentions": 2,
    "numsources": 1,
    "numarticles": 2,
    "avgtone": "2.43362831858407",
    "sourceurl": "http://news.msn.com/crime-justice/fake-drug-checkpoints-ok-for-cops-to-lie-to-motorists",
    "feature_id": "1066654",
    "feature_name": "Cleveland",
    "state_alpha": "OH",
    "county_name": "Cuyahoga",
    "county_numeric": "035",
    "prim_lat_dec": "41.4994954",
    "prim_long_dec": "-81.6954088",
    "elev_in_m": "199",
    "elev_in_ft": "653",
    "lat": 41.4994954,
    "long": -81.6954088
  },
  {
    "globaleventid": 258174604,
    "sqldate": 20130702,
    "monthyear": 201307,
    "year": 2013,
    "fractiondate": "2013.4986",
    "eventcode": 124,
    "quadclass": 3,
    "nummentions": 2,
    "numsources": 1,
    "numarticles": 2,
    "avgtone": "0.0",
    "sourceurl": "http://centralny.ynn.com/content/top_stories/671721/man-damages-patrol-cars-during-police-chase/",
    "feature_id": "956646",
    "feature_name": "Masonville",
    "state_alpha": "NY",
    "county_name": "Delaware",
    "county_numeric": "025",
    "prim_lat_dec": "42.2420265",
    "prim_long_dec": "-75.3773999",
    "elev_in_m": "394",
    "elev_in_ft": "1293",
    "lat": 42.2420265,
    "long": -75.3773999
  },
  {
    "globaleventid": 258174602,
    "sqldate": 20130702,
    "monthyear": 201307,
    "year": 2013,
    "fractiondate": "2013.4986",
    "eventcode": 120,
    "quadclass": 3,
    "nummentions": 20,
    "numsources": 1,
    "numarticles": 20,
    "avgtone": "2.0293122886133",
    "sourceurl": "http://www.detroitnews.com/article/20130702/METRO01/307020104/",
    "feature_id": "1617959",
    "feature_name": "Detroit",
    "state_alpha": "MI",
    "county_name": "Wayne",
    "county_numeric": "163",
    "prim_lat_dec": "42.331427",
    "prim_long_dec": "-83.0457538",
    "elev_in_m": "182",
    "elev_in_ft": "597",
    "lat": 42.331427,
    "long": -83.0457538
  },
  {
    "globaleventid": 258174601,
    "sqldate": 20130702,
    "monthyear": 201307,
    "year": 2013,
    "fractiondate": "2013.4986",
    "eventcode": 115,
    "quadclass": 3,
    "nummentions": 4,
    "numsources": 1,
    "numarticles": 4,
    "avgtone": "0.0",
    "sourceurl": "http://losangeles.cbslocal.com/2013/07/01/viral-video-appears-to-show-hawthorne-police-fatally-shoot-dog/",
    "feature_id": "1662328",
    "feature_name": "Los Angeles",
    "state_alpha": "CA",
    "county_name": "Los Angeles",
    "county_numeric": "037",
    "prim_lat_dec": "34.0522342",
    "prim_long_dec": "-118.2436849",
    "elev_in_m": "89",
    "elev_in_ft": "292",
    "lat": 34.0522342,
    "long": -118.2436849
  },
  {
    "globaleventid": 258174600,
    "sqldate": 20130702,
    "monthyear": 201307,
    "year": 2013,
    "fractiondate": "2013.4986",
    "eventcode": 114,
    "quadclass": 3,
    "nummentions": 2,
    "numsources": 1,
    "numarticles": 2,
    "avgtone": "0.643500643500644",
    "sourceurl": "http://www.hawaiinewsnow.com/story/22738085/exclusive-hpd-sergeant-caught-on-video-in-confrontation-was-fired-before",
    "feature_id": "366212",
    "feature_name": "Honolulu",
    "state_alpha": "HI",
    "county_name": "Honolulu",
    "county_numeric": "003",
    "prim_lat_dec": "21.3069444",
    "prim_long_dec": "-157.8583333",
    "elev_in_m": "5",
    "elev_in_ft": "16",
    "lat": 21.3069444,
    "long": -157.8583333
  },
  {
    "globaleventid": 258174599,
    "sqldate": 20130702,
    "monthyear": 201307,
    "year": 2013,
    "fractiondate": "2013.4986",
    "eventcode": 1123,
    "quadclass": 3,
    "nummentions": 2,
    "numsources": 1,
    "numarticles": 2,
    "avgtone": "0.719424460431655",
    "sourceurl": "http://www.chron.com/news/houston-texas/houston/article/100-Club-changes-donation-distribution-rules-4643261.php",
    "feature_id": "1380948",
    "feature_name": "Houston",
    "state_alpha": "TX",
    "county_name": "Harris",
    "county_numeric": "201",
    "prim_lat_dec": "29.7632836",
    "prim_long_dec": "-95.3632715",
    "elev_in_m": "11",
    "elev_in_ft": "36",
    "lat": 29.7632836,
    "long": -95.3632715
  },
  {
    "globaleventid": 258174597,
    "sqldate": 20130702,
    "monthyear": 201307,
    "year": 2013,
    "fractiondate": "2013.4986",
    "eventcode": 112,
    "quadclass": 3,
    "nummentions": 4,
    "numsources": 1,
    "numarticles": 2,
    "avgtone": "0.0",
    "sourceurl": "http://www.ctpost.com/news/crime/article/Defense-launched-in-NM-ex-officer-murder-trial-4642870.php",
    "feature_id": "928679",
    "feature_name": "Albuquerque",
    "state_alpha": "NM",
    "county_name": "Bernalillo",
    "county_numeric": "001",
    "prim_lat_dec": "35.0844909",
    "prim_long_dec": "-106.6511367",
    "elev_in_m": "1510",
    "elev_in_ft": "4954",
    "lat": 35.0844909,
    "long": -106.6511367
  },
  {
    "globaleventid": 258174592,
    "sqldate": 20130702,
    "monthyear": 201307,
    "year": 2013,
    "fractiondate": "2013.4986",
    "eventcode": 112,
    "quadclass": 3,
    "nummentions": 16,
    "numsources": 2,
    "numarticles": 16,
    "avgtone": "0.0",
    "sourceurl": "http://www.mysanantonio.com/news/article/Suspect-in-Del-bank-robbery-arrested-4643234.php",
    "feature_id": "213941",
    "feature_name": "Elsmere",
    "state_alpha": "DE",
    "county_name": "New Castle",
    "county_numeric": "003",
    "prim_lat_dec": "39.7392796",
    "prim_long_dec": "-75.5979812",
    "elev_in_m": "30",
    "elev_in_ft": "98",
    "lat": 39.7392796,
    "long": -75.5979812
  },
  {
    "globaleventid": 258174589,
    "sqldate": 20130702,
    "monthyear": 201307,
    "year": 2013,
    "fractiondate": "2013.4986",
    "eventcode": 112,
    "quadclass": 3,
    "nummentions": 6,
    "numsources": 1,
    "numarticles": 6,
    "avgtone": "2.63929618768328",
    "sourceurl": "http://www.seacoastonline.com/articles/20130702-NEWS-307020391",
    "feature_id": "575756",
    "feature_name": "South Berwick",
    "state_alpha": "ME",
    "county_name": "York",
    "county_numeric": "031",
    "prim_lat_dec": "43.2345292",
    "prim_long_dec": "-70.8095018",
    "elev_in_m": "34",
    "elev_in_ft": "112",
    "lat": 43.2345292,
    "long": -70.8095018
  },
  {
    "globaleventid": 258174585,
    "sqldate": 20130702,
    "monthyear": 201307,
    "year": 2013,
    "fractiondate": "2013.4986",
    "eventcode": 112,
    "quadclass": 3,
    "nummentions": 20,
    "numsources": 2,
    "numarticles": 20,
    "avgtone": "0.0",
    "sourceurl": "http://www.washingtonpost.com/national/suspect-in-wilmington-del-bank-robbery-arrested/2013/07/02/ab13f370-e356-11e2-bffd-37a36ddab820_story.html",
    "feature_id": "213941",
    "feature_name": "Elsmere",
    "state_alpha": "DE",
    "county_name": "New Castle",
    "county_numeric": "003",
    "prim_lat_dec": "39.7392796",
    "prim_long_dec": "-75.5979812",
    "elev_in_m": "30",
    "elev_in_ft": "98",
    "lat": 39.7392796,
    "long": -75.5979812
  },
  {
    "globaleventid": 258174584,
    "sqldate": 20130702,
    "monthyear": 201307,
    "year": 2013,
    "fractiondate": "2013.4986",
    "eventcode": 112,
    "quadclass": 3,
    "nummentions": 6,
    "numsources": 1,
    "numarticles": 6,
    "avgtone": "0.518134715025907",
    "sourceurl": "http://www.heraldextra.com/news/local/utah-county-car-chase-ends-in-flames/article_e8a9a3d6-e326-11e2-9aa3-0019bb2963f4.html",
    "feature_id": "1454997",
    "feature_name": "Salt Lake City",
    "state_alpha": "UT",
    "county_name": "Salt Lake",
    "county_numeric": "035",
    "prim_lat_dec": "40.7607794",
    "prim_long_dec": "-111.8910474",
    "elev_in_m": "1300",
    "elev_in_ft": "4265",
    "lat": 40.7607794,
    "long": -111.8910474
  },
  {
    "globaleventid": 258174583,
    "sqldate": 20130702,
    "monthyear": 201307,
    "year": 2013,
    "fractiondate": "2013.4986",
    "eventcode": 112,
    "quadclass": 3,
    "nummentions": 10,
    "numsources": 1,
    "numarticles": 10,
    "avgtone": "0.0",
    "sourceurl": "http://www.mysanantonio.com/news/article/Suspect-in-Del-bank-robbery-arrested-4643234.php",
    "feature_id": "1380951",
    "feature_name": "San Antonio",
    "state_alpha": "TX",
    "county_name": "Bexar",
    "county_numeric": "029",
    "prim_lat_dec": "29.4241219",
    "prim_long_dec": "-98.4936282",
    "elev_in_m": "198",
    "elev_in_ft": "650",
    "lat": 29.4241219,
    "long": -98.4936282
  },
  {
    "globaleventid": 258174581,
    "sqldate": 20130702,
    "monthyear": 201307,
    "year": 2013,
    "fractiondate": "2013.4986",
    "eventcode": 110,
    "quadclass": 3,
    "nummentions": 2,
    "numsources": 1,
    "numarticles": 2,
    "avgtone": "1.25984251968504",
    "sourceurl": "http://www.latimes.com/news/nation/nationnow/la-na-nn-zimmerman-resumes-tuesday-20130701,0,5154337.story",
    "feature_id": "847388",
    "feature_name": "Las Vegas",
    "state_alpha": "NV",
    "county_name": "Clark",
    "county_numeric": "003",
    "prim_lat_dec": "36.1749705",
    "prim_long_dec": "-115.137223",
    "elev_in_m": "610",
    "elev_in_ft": "2001",
    "lat": 36.1749705,
    "long": -115.137223
  },
  {
    "globaleventid": 258174580,
    "sqldate": 20130702,
    "monthyear": 201307,
    "year": 2013,
    "fractiondate": "2013.4986",
    "eventcode": 110,
    "quadclass": 3,
    "nummentions": 1,
    "numsources": 1,
    "numarticles": 1,
    "avgtone": "2.418682235196",
    "sourceurl": "http://www.chicagotribune.com/news/local/ct-met-patrick-conviction-appeal-20130702,0,4277220.story?track=rss",
    "feature_id": "423587",
    "feature_name": "Chicago",
    "state_alpha": "IL",
    "county_name": "Cook",
    "county_numeric": "031",
    "prim_lat_dec": "41.850033",
    "prim_long_dec": "-87.6500523",
    "elev_in_m": "179",
    "elev_in_ft": "587",
    "lat": 41.850033,
    "long": -87.6500523
  },
  {
    "globaleventid": 258174579,
    "sqldate": 20130702,
    "monthyear": 201307,
    "year": 2013,
    "fractiondate": "2013.4986",
    "eventcode": 110,
    "quadclass": 3,
    "nummentions": 1,
    "numsources": 1,
    "numarticles": 1,
    "avgtone": "2.418682235196",
    "sourceurl": "http://www.chicagotribune.com/news/local/ct-met-patrick-conviction-appeal-20130702,0,4277220.story?track=rss",
    "feature_id": "423587",
    "feature_name": "Chicago",
    "state_alpha": "IL",
    "county_name": "Cook",
    "county_numeric": "031",
    "prim_lat_dec": "41.850033",
    "prim_long_dec": "-87.6500523",
    "elev_in_m": "179",
    "elev_in_ft": "587",
    "lat": 41.850033,
    "long": -87.6500523
  },
  {
    "globaleventid": 258174576,
    "sqldate": 20130702,
    "monthyear": 201307,
    "year": 2013,
    "fractiondate": "2013.4986",
    "eventcode": 100,
    "quadclass": 3,
    "nummentions": 8,
    "numsources": 1,
    "numarticles": 8,
    "avgtone": "1.20192307692308",
    "sourceurl": "http://www.sun-sentinel.com/news/strange/floriduh-blog/sfl-flduh-kissing-deputy-on-nose-20130701,0,1870362.story?track=rss",
    "feature_id": "282693",
    "feature_name": "Fort Lauderdale",
    "state_alpha": "FL",
    "county_name": "Broward",
    "county_numeric": "011",
    "prim_lat_dec": "26.1223084",
    "prim_long_dec": "-80.1433786",
    "elev_in_m": "1",
    "elev_in_ft": "3",
    "lat": 26.1223084,
    "long": -80.1433786
  },
  {
    "globaleventid": 258174574,
    "sqldate": 20130702,
    "monthyear": 201307,
    "year": 2013,
    "fractiondate": "2013.4986",
    "eventcode": 100,
    "quadclass": 3,
    "nummentions": 4,
    "numsources": 1,
    "numarticles": 4,
    "avgtone": "2.35602094240838",
    "sourceurl": "http://www.signalscv.com/section/36/article/99900/",
    "feature_id": "1661422",
    "feature_name": "North Hills",
    "state_alpha": "CA",
    "county_name": "Los Angeles",
    "county_numeric": "037",
    "prim_lat_dec": "34.2363889",
    "prim_long_dec": "-118.4847222",
    "elev_in_m": "257",
    "elev_in_ft": "843",
    "lat": 34.2363889,
    "long": -118.4847222
  },
  {
    "globaleventid": 258174301,
    "sqldate": 20130702,
    "monthyear": 201307,
    "year": 2013,
    "fractiondate": "2013.4986",
    "eventcode": 173,
    "quadclass": 4,
    "nummentions": 5,
    "numsources": 1,
    "numarticles": 5,
    "avgtone": "0.0",
    "sourceurl": "http://www.chron.com/news/world/article/Colombia-7-now-arrested-in-DEA-agent-killing-4642614.php",
    "feature_id": "1380948",
    "feature_name": "Houston",
    "state_alpha": "TX",
    "county_name": "Harris",
    "county_numeric": "201",
    "prim_lat_dec": "29.7632836",
    "prim_long_dec": "-95.3632715",
    "elev_in_m": "11",
    "elev_in_ft": "36",
    "lat": 29.7632836,
    "long": -95.3632715
  },
  {
    "globaleventid": 258174248,
    "sqldate": 20130702,
    "monthyear": 201307,
    "year": 2013,
    "fractiondate": "2013.4986",
    "eventcode": 115,
    "quadclass": 3,
    "nummentions": 12,
    "numsources": 1,
    "numarticles": 12,
    "avgtone": "1.84899845916795",
    "sourceurl": "http://www.csmonitor.com/USA/Latest-News-Wires/2013/0702/Vatican-sex-abuse-scandal-Priests-paid-to-leave",
    "feature_id": "531871",
    "feature_name": "Washington",
    "state_alpha": "DC",
    "county_name": "District of Columbia",
    "county_numeric": "001",
    "prim_lat_dec": "38.8951118",
    "prim_long_dec": "-77.0363658",
    "elev_in_m": "7",
    "elev_in_ft": "23",
    "lat": 38.8951118,
    "long": -77.0363658
  },