[
  {
    "globaleventid": 257460337,
    "sqldate": 20130625,
    "monthyear": 201306,
    "year": 2013,
    "fractiondate": "2013.4795",
    "eventcode": 112,
    "quadclass": 3,
    "nummentions": 2,
    "numsources": 1,
    "numarticles": 2,
    "avgtone": "1.94552529182879",
    "sourceurl": "http://www.herald-dispatch.com/x999176204/Officials-criticize-Obama-plan",
    "feature_id": "135069",
    "feature_name": "Appalachian",
    "state_alpha": "AL",
    "county_name": "Blount",
    "county_numeric": "009",
    "prim_lat_dec": "33.8848208",
    "prim_long_dec": "-86.4019275",
    "elev_in_m": "340",
    "elev_in_ft": "1115",
    "lat": 33.8848208,
    "long": -86.4019275
  },
  {
    "globaleventid": 257460326,
    "sqldate": 20130625,
    "monthyear": 201306,
    "year": 2013,
    "fractiondate": "2013.4795",
    "eventcode": 111,
    "quadclass": 3,
    "nummentions": 33,
    "numsources": 5,
    "numarticles": 33,
    "avgtone": "2.39765019325858",
    "sourceurl": "http://www.csmonitor.com/World/Backchannels/2013/0625/The-US-demands-Russia-give-up-Snowden-Thanks-says-Putin",
    "feature_id": "531871",
    "feature_name": "Washington",
    "state_alpha": "DC",
    "county_name": "District of Columbia",
    "county_numeric": "001",
    "prim_lat_dec": "38.8951118",
    "prim_long_dec": "-77.0363658",
    "elev_in_m": "7",
    "elev_in_ft": "23",
    "lat": 38.8951118,
    "long": -77.0363658
  },
  {
    "globaleventid": 257460321,
    "sqldate": 20130625,
    "monthyear": 201306,
    "year": 2013,
    "fractiondate": "2013.4795",
    "eventcode": 111,
    "quadclass": 3,
    "nummentions": 3,
    "numsources": 2,
    "numarticles": 3,
    "avgtone": "2.01604625707859",
    "sourceurl": "http://www.ctpost.com/business/energy/article/Ky-leaders-denounce-Obama-s-climate-plan-4621323.php",
    "feature_id": "509453",
    "feature_name": "Louisville",
    "state_alpha": "KY",
    "county_name": "Jefferson",
    "county_numeric": "111",
    "prim_lat_dec": "38.2542376",
    "prim_long_dec": "-85.759407",
    "elev_in_m": "142",
    "elev_in_ft": "466",
    "lat": 38.2542376,
    "long": -85.759407
  },
  {
    "globaleventid": 257460320,
    "sqldate": 20130625,
    "monthyear": 201306,
    "year": 2013,
    "fractiondate": "2013.4795",
    "eventcode": 111,
    "quadclass": 3,
    "nummentions": 2,
    "numsources": 1,
    "numarticles": 2,
    "avgtone": "1.94552529182879",
    "sourceurl": "http://www.herald-dispatch.com/x999176204/Officials-criticize-Obama-plan",
    "feature_id": "135069",
    "feature_name": "Appalachian",
    "state_alpha": "AL",
    "county_name": "Blount",
    "county_numeric": "009",
    "prim_lat_dec": "33.8848208",
    "prim_long_dec": "-86.4019275",
    "elev_in_m": "340",
    "elev_in_ft": "1115",
    "lat": 33.8848208,
    "long": -86.4019275
  },
  {
    "globaleventid": 257460319,
    "sqldate": 20130625,
    "monthyear": 201306,
    "year": 2013,
    "fractiondate": "2013.4795",
    "eventcode": 111,
    "quadclass": 3,
    "nummentions": 10,
    "numsources": 1,
    "numarticles": 10,
    "avgtone": "0.900900900900901",
    "sourceurl": "http://bdtonline.com/local/x493359681/Va-coalfields-Republicans-denounce-Obamas-climate-change-plan",
    "feature_id": "1553939",
    "feature_name": "Bluefield",
    "state_alpha": "WV",
    "county_name": "Mercer",
    "county_numeric": "055",
    "prim_lat_dec": "37.2698395",
    "prim_long_dec": "-81.2223195",
    "elev_in_m": "784",
    "elev_in_ft": "2572",
    "lat": 37.2698395,
    "long": -81.2223195
  },
  {
    "globaleventid": 257460318,
    "sqldate": 20130625,
    "monthyear": 201306,
    "year": 2013,
    "fractiondate": "2013.4795",
    "eventcode": 111,
    "quadclass": 3,
    "nummentions": 15,
    "numsources": 2,
    "numarticles": 15,
    "avgtone": "1.93499640626768",
    "sourceurl": "http://www.herald-dispatch.com/x999176204/Officials-criticize-Obama-plan",
    "feature_id": "135069",
    "feature_name": "Appalachian",
    "state_alpha": "AL",
    "county_name": "Blount",
    "county_numeric": "009",
    "prim_lat_dec": "33.8848208",
    "prim_long_dec": "-86.4019275",
    "elev_in_m": "340",
    "elev_in_ft": "1115",
    "lat": 33.8848208,
    "long": -86.4019275
  },
  {
    "globaleventid": 257460308,
    "sqldate": 20130625,
    "monthyear": 201306,
    "year": 2013,
    "fractiondate": "2013.4795",
    "eventcode": 110,
    "quadclass": 3,
    "nummentions": 29,
    "numsources": 4,
    "numarticles": 29,
    "avgtone": "1.91545037258545",
    "sourceurl": "http://www.kansasfirstnews.com/2013/06/25/obama-disappointed-in-voting-rights-act-ruling/",
    "feature_id": "531871",
    "feature_name": "Washington",
    "state_alpha": "DC",
    "county_name": "District of Columbia",
    "county_numeric": "001",
    "prim_lat_dec": "38.8951118",
    "prim_long_dec": "-77.0363658",
    "elev_in_m": "7",
    "elev_in_ft": "23",
    "lat": 38.8951118,
    "long": -77.0363658
  },
  {
    "globaleventid": 257460307,
    "sqldate": 20130625,
    "monthyear": 201306,
    "year": 2013,
    "fractiondate": "2013.4795",
    "eventcode": 101,
    "quadclass": 3,
    "nummentions": 2,
    "numsources": 1,
    "numarticles": 2,
    "avgtone": "1.42045454545455",
    "sourceurl": "http://www.usatoday.com/story/news/nation/2013/06/25/michigan-black-history-books-discarded/2458191/?utm_source=feedburner&utm_medium=feed&utm_campaign=Feed%3A+UsatodaycomNation-TopStories+%28News+-+Nation+-+Top+Stories%29",
    "feature_id": "628250",
    "feature_name": "Highland Park",
    "state_alpha": "MI",
    "county_name": "Kalamazoo",
    "county_numeric": "077",
    "prim_lat_dec": "42.3958721",
    "prim_long_dec": "-85.419727",
    "elev_in_m": "274",
    "elev_in_ft": "899",
    "lat": 42.3958721,
    "long": -85.419727
  },
  {
    "globaleventid": 257460009,
    "sqldate": 20130625,
    "monthyear": 201306,
    "year": 2013,
    "fractiondate": "2013.4795",
    "eventcode": 190,
    "quadclass": 4,
    "nummentions": 18,
    "numsources": 7,
    "numarticles": 18,
    "avgtone": "3.19207597384464",
    "sourceurl": "http://www.thefiscaltimes.com/Articles/2013/06/25/Obama-to-Face-Key-Policy-Issues-on-Africa-Trip.aspx",
    "feature_id": "531871",
    "feature_name": "Washington",
    "state_alpha": "DC",
    "county_name": "District of Columbia",
    "county_numeric": "001",
    "prim_lat_dec": "38.8951118",
    "prim_long_dec": "-77.0363658",
    "elev_in_m": "7",
    "elev_in_ft": "23",
    "lat": 38.8951118,
    "long": -77.0363658
  },
  {
    "globaleventid": 257459979,
    "sqldate": 20130625,
    "monthyear": 201306,
    "year": 2013,
    "fractiondate": "2013.4795",
    "eventcode": 190,
    "quadclass": 4,
    "nummentions": 2,
    "numsources": 1,
    "numarticles": 2,
    "avgtone": "2.22222222222222",
    "sourceurl": "http://www.upi.com/Top_News/US/2013/06/24/Florida-killer-slated-for-execution-Monday-leaves-brutal-legacy/UPI-14231372104673/?spt=hs&or=tn",
    "feature_id": "285368",
    "feature_name": "Lauderhill",
    "state_alpha": "FL",
    "county_name": "Broward",
    "county_numeric": "011",
    "prim_lat_dec": "26.1403635",
    "prim_long_dec": "-80.2133808",
    "elev_in_m": "2",
    "elev_in_ft": "7",
    "lat": 26.1403635,
    "long": -80.2133808
  },
  {
    "globaleventid": 257459978,
    "sqldate": 20130625,
    "monthyear": 201306,
    "year": 2013,
    "fractiondate": "2013.4795",
    "eventcode": 1821,
    "quadclass": 4,
    "nummentions": 8,
    "numsources": 1,
    "numarticles": 8,
    "avgtone": "0.909090909090909",
    "sourceurl": "http://www.washingtonpost.com/local/former-pr-william-christian-school-teacher-accused-of-rape/2013/06/25/1511a2ea-ddb7-11e2-b797-cbd4cb13f9c6_story.html?wprss=rss_local",
    "feature_id": "531871",
    "feature_name": "Washington",
    "state_alpha": "DC",
    "county_name": "District of Columbia",
    "county_numeric": "001",
    "prim_lat_dec": "38.8951118",
    "prim_long_dec": "-77.0363658",
    "elev_in_m": "7",
    "elev_in_ft": "23",
    "lat": 38.8951118,
    "long": -77.0363658
  },
  {
    "globaleventid": 257459974,
    "sqldate": 20130625,
    "monthyear": 201306,
    "year": 2013,
    "fractiondate": "2013.4795",
    "eventcode": 173,
    "quadclass": 4,
    "nummentions": 1,
    "numsources": 1,
    "numarticles": 1,
    "avgtone": "4.35741864313293",
    "sourceurl": "http://www.coalvalleynews.com/view/full_story/22974648/article-COMMUNITY-CALENDAR",
    "feature_id": "1537207",
    "feature_name": "Chapmanville",
    "state_alpha": "WV",
    "county_name": "Logan",
    "county_numeric": "045",
    "prim_lat_dec": "37.9737114",
    "prim_long_dec": "-82.0173502",
    "elev_in_m": "195",
    "elev_in_ft": "640",
    "lat": 37.9737114,
    "long": -82.0173502
  },
  {
    "globaleventid": 257459971,
    "sqldate": 20130625,
    "monthyear": 201306,
    "year": 2013,
    "fractiondate": "2013.4795",
    "eventcode": 120,
    "quadclass": 3,
    "nummentions": 4,
    "numsources": 2,
    "numarticles": 4,
    "avgtone": "4.67518703722677",
    "sourceurl": "http://www.forbesadvocate.com.au/story/1595893/affirmative-action-survives-supreme-test/?cs=12",
    "feature_id": "531871",
    "feature_name": "Washington",
    "state_alpha": "DC",
    "county_name": "District of Columbia",
    "county_numeric": "001",
    "prim_lat_dec": "38.8951118",
    "prim_long_dec": "-77.0363658",
    "elev_in_m": "7",
    "elev_in_ft": "23",
    "lat": 38.8951118,
    "long": -77.0363658
  },
  {
    "globaleventid": 257459970,
    "sqldate": 20130625,
    "monthyear": 201306,
    "year": 2013,
    "fractiondate": "2013.4795",
    "eventcode": 1123,
    "quadclass": 3,
    "nummentions": 1,
    "numsources": 1,
    "numarticles": 1,
    "avgtone": "2.22222222222222",
    "sourceurl": "http://www.upi.com/Top_News/US/2013/06/24/Florida-killer-slated-for-execution-Monday-leaves-brutal-legacy/UPI-14231372104673/?spt=hs&or=tn",
    "feature_id": "285368",
    "feature_name": "Lauderhill",
    "state_alpha": "FL",
    "county_name": "Broward",
    "county_numeric": "011",
    "prim_lat_dec": "26.1403635",
    "prim_long_dec": "-80.2133808",
    "elev_in_m": "2",
    "elev_in_ft": "7",
    "lat": 26.1403635,
    "long": -80.2133808
  },
  {
    "globaleventid": 257459895,
    "sqldate": 20130625,
    "monthyear": 201306,
    "year": 2013,
    "fractiondate": "2013.4795",
    "eventcode": 193,
    "quadclass": 4,
    "nummentions": 6,
    "numsources": 1,
    "numarticles": 6,
    "avgtone": "0.0",
    "sourceurl": "http://www.citizen-times.com/viewart/20130625/NEWS/306250032/Teen-killed-2-year-old-wounded-NC-shooting",
    "feature_id": "997498",
    "feature_name": "Winston-Salem",
    "state_alpha": "NC",
    "county_name": "Forsyth",
    "county_numeric": "067",
    "prim_lat_dec": "36.0998596",
    "prim_long_dec": "-80.244216",
    "elev_in_m": "278",
    "elev_in_ft": "912",
    "lat": 36.0998596,
    "long": -80.244216
  },
  {
    "globaleventid": 257459893,
    "sqldate": 20130625,
    "monthyear": 201306,
    "year": 2013,
    "fractiondate": "2013.4795",
    "eventcode": 190,
    "quadclass": 4,
    "nummentions": 2,
    "numsources": 1,
    "numarticles": 2,
    "avgtone": "0.636942675159236",
    "sourceurl": "http://news.lalate.com/2013/06/25/new-mexico-fire-maps-grow-as-silver-fire-jaroso-fire-spread/",
    "feature_id": "920706",
    "feature_name": "Silver City",
    "state_alpha": "NM",
    "county_name": "Grant",
    "county_numeric": "017",
    "prim_lat_dec": "32.770075",
    "prim_long_dec": "-108.280326",
    "elev_in_m": "1809",
    "elev_in_ft": "5935",
    "lat": 32.770075,
    "long": -108.280326
  },
  {
    "globaleventid": 257459891,
    "sqldate": 20130625,
    "monthyear": 201306,
    "year": 2013,
    "fractiondate": "2013.4795",
    "eventcode": 190,
    "quadclass": 4,
    "nummentions": 4,
    "numsources": 2,
    "numarticles": 4,
    "avgtone": "1.55210643015521",
    "sourceurl": "http://www.calgaryherald.com/news/After+weeks+jury+selection+opening+statements+George/8569215/story.html",
    "feature_id": "295004",
    "feature_name": "Miami",
    "state_alpha": "FL",
    "county_name": "Miami-Dade",
    "county_numeric": "086",
    "prim_lat_dec": "25.7742658",
    "prim_long_dec": "-80.1936589",
    "elev_in_m": "2",
    "elev_in_ft": "7",
    "lat": 25.7742658,
    "long": -80.1936589
  },
  {
    "globaleventid": 260721285,
    "sqldate": 20130625,
    "monthyear": 201306,
    "year": 2013,
    "fractiondate": "2013.4795",
    "eventcode": 112,
    "quadclass": 3,
    "nummentions": 2,
    "numsources": 1,
    "numarticles": 2,
    "avgtone": "0.587084148727984",
    "sourceurl": "http://abcnews.go.com/US/wireStory/illinois-teen-accused-impersonating-cop-19771181",
    "feature_id": "423587",
    "feature_name": "Chicago",
    "state_alpha": "IL",
    "county_name": "Cook",
    "county_numeric": "031",
    "prim_lat_dec": "41.850033",
    "prim_long_dec": "-87.6500523",
    "elev_in_m": "179",
    "elev_in_ft": "587",
    "lat": 41.850033,
    "long": -87.6500523
  },
  {
    "globaleventid": 260721283,
    "sqldate": 20130625,
    "monthyear": 201306,
    "year": 2013,
    "fractiondate": "2013.4795",
    "eventcode": 1053,
    "quadclass": 3,
    "nummentions": 10,
    "numsources": 1,
    "numarticles": 10,
    "avgtone": "0.587084148727984",
    "sourceurl": "http://abcnews.go.com/US/wireStory/illinois-teen-accused-impersonating-cop-19771181",
    "feature_id": "423587",
    "feature_name": "Chicago",
    "state_alpha": "IL",
    "county_name": "Cook",
    "county_numeric": "031",
    "prim_lat_dec": "41.850033",
    "prim_long_dec": "-87.6500523",
    "elev_in_m": "179",
    "elev_in_ft": "587",
    "lat": 41.850033,
    "long": -87.6500523
  },
  {
    "globaleventid": 260721202,
    "sqldate": 20130625,
    "monthyear": 201306,
    "year": 2013,
    "fractiondate": "2013.4795",
    "eventcode": 164,
    "quadclass": 4,
    "nummentions": 10,
    "numsources": 1,
    "numarticles": 10,
    "avgtone": "3.27225130890052",
    "sourceurl": "http://www.trivalleycentral.com/opinion/columns/views-from-elsewhere/article_28570f52-f47d-11e2-b6a2-0019bb2963f4.html",
    "feature_id": "531871",
    "feature_name": "Washington",
    "state_alpha": "DC",
    "county_name": "District of Columbia",
    "county_numeric": "001",
    "prim_lat_dec": "38.8951118",
    "prim_long_dec": "-77.0363658",
    "elev_in_m": "7",
    "elev_in_ft": "23",
    "lat": 38.8951118,
    "long": -77.0363658
  },
  {
    "globaleventid": 257454734,
    "sqldate": 20130625,
    "monthyear": 201306,
    "year": 2013,
    "fractiondate": "2013.4795",
    "eventcode": 111,
    "quadclass": 3,
    "nummentions": 1,
    "numsources": 1,
    "numarticles": 1,
    "avgtone": "3.59116022099448",
    "sourceurl": "http://www.huffingtonpost.com/2013/06/25/virginia-women-ordained-catholic-priests_n_3497256.html?utm_hp_ref=religion&ir=Religion",
    "feature_id": "1498512",
    "feature_name": "Manassas",
    "state_alpha": "VA",
    "county_name": "Manassas (city)",
    "county_numeric": "683",
    "prim_lat_dec": "38.7509488",
    "prim_long_dec": "-77.4752667",
    "elev_in_m": "94",
    "elev_in_ft": "308",
    "lat": 38.7509488,
    "long": -77.4752667
  },
  {
    "globaleventid": 257454733,
    "sqldate": 20130625,
    "monthyear": 201306,
    "year": 2013,
    "fractiondate": "2013.4795",
    "eventcode": 111,
    "quadclass": 3,
    "nummentions": 1,
    "numsources": 1,
    "numarticles": 1,
    "avgtone": "3.59116022099448",
    "sourceurl": "http://www.huffingtonpost.com/2013/06/25/virginia-women-ordained-catholic-priests_n_3497256.html?utm_hp_ref=religion&ir=Religion",
    "feature_id": "1494175",
    "feature_name": "Arlington",
    "state_alpha": "VA",
    "county_name": "Northampton",
    "county_numeric": "131",
    "prim_lat_dec": "37.2265282",
    "prim_long_dec": "-76.0013217",
    "elev_in_m": "3",
    "elev_in_ft": "10",
    "lat": 37.2265282,
    "long": -76.0013217
  },
  {
    "globaleventid": 257454720,
    "sqldate": 20130625,
    "monthyear": 201306,
    "year": 2013,
    "fractiondate": "2013.4795",
    "eventcode": 138,
    "quadclass": 3,
    "nummentions": 6,
    "numsources": 1,
    "numarticles": 6,
    "avgtone": "2.28174603174603",
    "sourceurl": "http://www.cnn.com/2013/06/25/opinion/snowden-us-humilation/index.html?utm_source=feedburner&utm_medium=feed&utm_campaign=Feed%3A+rss%2Fcnn_latest+%28RSS%3A+Most+Recent%29",
    "feature_id": "531871",
    "feature_name": "Washington",
    "state_alpha": "DC",
    "county_name": "District of Columbia",
    "county_numeric": "001",
    "prim_lat_dec": "38.8951118",
    "prim_long_dec": "-77.0363658",
    "elev_in_m": "7",
    "elev_in_ft": "23",
    "lat": 38.8951118,
    "long": -77.0363658
  },
  {
    "globaleventid": 257454687,
    "sqldate": 20130625,
    "monthyear": 201306,
    "year": 2013,
    "fractiondate": "2013.4795",
    "eventcode": 160,
    "quadclass": 4,
    "nummentions": 8,
    "numsources": 1,
    "numarticles": 8,
    "avgtone": "1.51946818613485",
    "sourceurl": "http://www.turnto23.com/news/us-world/search-for-nsa-whistleblower-edward-snowden-puts-strain-on-us-relations-with-china-russia",
    "feature_id": "531871",
    "feature_name": "Washington",
    "state_alpha": "DC",
    "county_name": "District of Columbia",
    "county_numeric": "001",
    "prim_lat_dec": "38.8951118",
    "prim_long_dec": "-77.0363658",
    "elev_in_m": "7",
    "elev_in_ft": "23",
    "lat": 38.8951118,
    "long": -77.0363658
  },
  {
    "globaleventid": 257454685,
    "sqldate": 20130625,
    "monthyear": 201306,
    "year": 2013,
    "fractiondate": "2013.4795",
    "eventcode": 138,
    "quadclass": 3,
    "nummentions": 4,
    "numsources": 1,
    "numarticles": 4,
    "avgtone": "2.28174603174603",
    "sourceurl": "http://www.cnn.com/2013/06/25/opinion/snowden-us-humilation/index.html?utm_source=feedburner&utm_medium=feed&utm_campaign=Feed%3A+rss%2Fcnn_latest+%28RSS%3A+Most+Recent%29",
    "feature_id": "531871",
    "feature_name": "Washington",
    "state_alpha": "DC",
    "county_name": "District of Columbia",
    "county_numeric": "001",
    "prim_lat_dec": "38.8951118",
    "prim_long_dec": "-77.0363658",
    "elev_in_m": "7",
    "elev_in_ft": "23",
    "lat": 38.8951118,
    "long": -77.0363658
  },
  {
    "globaleventid": 257454677,
    "sqldate": 20130625,
    "monthyear": 201306,
    "year": 2013,
    "fractiondate": "2013.4795",
    "eventcode": 120,
    "quadclass": 3,
    "nummentions": 4,
    "numsources": 1,
    "numarticles": 4,
    "avgtone": "1.51898734177215",
    "sourceurl": "http://www.foxnews.com/opinion/2013/06/25/obama-turning-point-has-arrived/?utm_source=feedburner&utm_medium=feed&utm_campaign=Feed%3A+foxnews%2Fmost-popular+%28Internal+-+Most+Popular+Content%29",
    "feature_id": "531871",
    "feature_name": "Washington",
    "state_alpha": "DC",
    "county_name": "District of Columbia",
    "county_numeric": "001",
    "prim_lat_dec": "38.8951118",
    "prim_long_dec": "-77.0363658",
    "elev_in_m": "7",
    "elev_in_ft": "23",
    "lat": 38.8951118,
    "long": -77.0363658
  },
  {
    "globaleventid": 257454644,
    "sqldate": 20130625,
    "monthyear": 201306,
    "year": 2013,
    "fractiondate": "2013.4795",
    "eventcode": 111,
    "quadclass": 3,
    "nummentions": 10,
    "numsources": 3,
    "numarticles": 10,
    "avgtone": "2.62284619399404",
    "sourceurl": "http://www.miamiherald.com/2013/06/25/3468887/hillary-clinton-faults-china-on.html",
    "feature_id": "531871",
    "feature_name": "Washington",
    "state_alpha": "DC",
    "county_name": "District of Columbia",
    "county_numeric": "001",
    "prim_lat_dec": "38.8951118",
    "prim_long_dec": "-77.0363658",
    "elev_in_m": "7",
    "elev_in_ft": "23",
    "lat": 38.8951118,
    "long": -77.0363658
  },
  {
    "globaleventid": 257454630,
    "sqldate": 20130625,
    "monthyear": 201306,
    "year": 2013,
    "fractiondate": "2013.4795",
    "eventcode": 110,
    "quadclass": 3,
    "nummentions": 3,
    "numsources": 2,
    "numarticles": 3,
    "avgtone": "1.82746712597459",
    "sourceurl": "http://www.reuters.com/article/2013/06/25/us-usa-security-china-idUSBRE95O04W20130625?feedType=RSS&feedName=wtMostRead",
    "feature_id": "531871",
    "feature_name": "Washington",
    "state_alpha": "DC",
    "county_name": "District of Columbia",
    "county_numeric": "001",
    "prim_lat_dec": "38.8951118",
    "prim_long_dec": "-77.0363658",
    "elev_in_m": "7",
    "elev_in_ft": "23",
    "lat": 38.8951118,
    "long": -77.0363658
  },
  {
    "globaleventid": 257454463,
    "sqldate": 20130625,
    "monthyear": 201306,
    "year": 2013,
    "fractiondate": "2013.4795",
    "eventcode": 190,
    "quadclass": 4,
    "nummentions": 1,
    "numsources": 1,
    "numarticles": 1,
    "avgtone": "1.55642023346304",
    "sourceurl": "http://www.globalresearch.ca/snowdens-case-for-asylum/5340388",
    "feature_id": "531871",
    "feature_name": "Washington",
    "state_alpha": "DC",
    "county_name": "District of Columbia",
    "county_numeric": "001",
    "prim_lat_dec": "38.8951118",
    "prim_long_dec": "-77.0363658",
    "elev_in_m": "7",
    "elev_in_ft": "23",
    "lat": 38.8951118,
    "long": -77.0363658
  },
  {
    "globaleventid": 257454354,
    "sqldate": 20130625,
    "monthyear": 201306,
    "year": 2013,
    "fractiondate": "2013.4795",
    "eventcode": 192,
    "quadclass": 4,
    "nummentions": 4,
    "numsources": 1,
    "numarticles": 4,
    "avgtone": "0.638977635782748",
    "sourceurl": "http://www.thv11.com/news/story.aspx?storyid=269546",
    "feature_id": "77389",
    "feature_name": "Jonesboro",
    "state_alpha": "AR",
    "county_name": "Craighead",
    "county_numeric": "031",
    "prim_lat_dec": "35.8422967",
    "prim_long_dec": "-90.7042791",
    "elev_in_m": "99",
    "elev_in_ft": "325",
    "lat": 35.8422967,
    "long": -90.7042791
  },
  {
    "globaleventid": 257454353,
    "sqldate": 20130625,
    "monthyear": 201306,
    "year": 2013,
    "fractiondate": "2013.4795",
    "eventcode": 192,
    "quadclass": 4,
    "nummentions": 4,
    "numsources": 1,
    "numarticles": 4,
    "avgtone": "1.59010600706714",
    "sourceurl": "http://www.washingtonpost.com/business/mens-wearhouse-sheds-light-on-zimmer-firing-says-founder-wanted-to-regain-control-of-co/2013/06/25/80db432c-dd95-11e2-bc84-8049224b33e1_story.html",
    "feature_id": "531871",
    "feature_name": "Washington",
    "state_alpha": "DC",
    "county_name": "District of Columbia",
    "county_numeric": "001",
    "prim_lat_dec": "38.8951118",
    "prim_long_dec": "-77.0363658",
    "elev_in_m": "7",
    "elev_in_ft": "23",
    "lat": 38.8951118,
    "long": -77.0363658
  },
  {
    "globaleventid": 257454352,
    "sqldate": 20130625,
    "monthyear": 201306,
    "year": 2013,
    "fractiondate": "2013.4795",
    "eventcode": 192,
    "quadclass": 4,
    "nummentions": 8,
    "numsources": 2,
    "numarticles": 8,
    "avgtone": "1.93595368480516",
    "sourceurl": "http://www.sltrib.com/sltrib/money/56511265-79/zimmer-company-wearhouse-board.html.csp",
    "feature_id": "277566",
    "feature_name": "Oakland",
    "state_alpha": "CA",
    "county_name": "Alameda",
    "county_numeric": "001",
    "prim_lat_dec": "37.8043722",
    "prim_long_dec": "-122.2708026",
    "elev_in_m": "13",
    "elev_in_ft": "43",
    "lat": 37.8043722,
    "long": -122.2708026
  },
  {
    "globaleventid": 257454351,
    "sqldate": 20130625,
    "monthyear": 201306,
    "year": 2013,
    "fractiondate": "2013.4795",
    "eventcode": 192,
    "quadclass": 4,
    "nummentions": 4,
    "numsources": 1,
    "numarticles": 4,
    "avgtone": "1.95911413969336",
    "sourceurl": "http://www.dallasnews.com/business/retail/20130625-men-s-wearhouse-escalates-battle-with-ousted-founder-pitchman-george-zimmer.ece",
    "feature_id": "1380944",
    "feature_name": "Dallas",
    "state_alpha": "TX",
    "county_name": "Dallas",
    "county_numeric": "113",
    "prim_lat_dec": "32.7830556",
    "prim_long_dec": "-96.8066667",
    "elev_in_m": "128",
    "elev_in_ft": "420",
    "lat": 32.7830556,
    "long": -96.8066667
  },
  {
    "globaleventid": 257454347,
    "sqldate": 20130625,
    "monthyear": 201306,
    "year": 2013,
    "fractiondate": "2013.4795",
    "eventcode": 190,
    "quadclass": 4,
    "nummentions": 8,
    "numsources": 1,
    "numarticles": 8,
    "avgtone": "0.531914893617021",
    "sourceurl": "http://www.kvoa.com/news/update-tucson-fire-responds-to-salvage-yard-fire/",
    "feature_id": "43534",
    "feature_name": "Tucson",
    "state_alpha": "AZ",
    "county_name": "Pima",
    "county_numeric": "019",
    "prim_lat_dec": "32.2217429",
    "prim_long_dec": "-110.926479",
    "elev_in_m": "759",
    "elev_in_ft": "2490",
    "lat": 32.2217429,
    "long": -110.926479
  },
  {
    "globaleventid": 257454345,
    "sqldate": 20130625,
    "monthyear": 201306,
    "year": 2013,
    "fractiondate": "2013.4795",
    "eventcode": 190,
    "quadclass": 4,
    "nummentions": 6,
    "numsources": 1,
    "numarticles": 6,
    "avgtone": "1.70757737459979",
    "sourceurl": "http://www.brecorder.com/articles-a-letters/187/1203587/",
    "feature_id": "1213625",
    "feature_name": "Gettysburg",
    "state_alpha": "PA",
    "county_name": "Adams",
    "county_numeric": "001",
    "prim_lat_dec": "39.8309293",
    "prim_long_dec": "-77.2310955",
    "elev_in_m": "163",
    "elev_in_ft": "535",
    "lat": 39.8309293,
    "long": -77.2310955
  },
  {
    "globaleventid": 257454342,
    "sqldate": 20130625,
    "monthyear": 201306,
    "year": 2013,
    "fractiondate": "2013.4795",
    "eventcode": 182,
    "quadclass": 4,
    "nummentions": 6,
    "numsources": 1,
    "numarticles": 6,
    "avgtone": "0.65359477124183",
    "sourceurl": "http://www.therepublic.com/view/story/6b0baf30bbe541009cb2b76e11d05d36/AR--Arkansas-Fireworks-Fire",
    "feature_id": "77862",
    "feature_name": "North Little Rock",
    "state_alpha": "AR",
    "county_name": "Pulaski",
    "county_numeric": "119",
    "prim_lat_dec": "34.769536",
    "prim_long_dec": "-92.2670941",
    "elev_in_m": "81",
    "elev_in_ft": "266",
    "lat": 34.769536,
    "long": -92.2670941
  },
  {
    "globaleventid": 257454326,
    "sqldate": 20130625,
    "monthyear": 201306,
    "year": 2013,
    "fractiondate": "2013.4795",
    "eventcode": 130,
    "quadclass": 3,
    "nummentions": 69,
    "numsources": 10,
    "numarticles": 69,
    "avgtone": "2.10998011988003",
    "sourceurl": "http://www.recordonline.com/apps/pbcs.dll/article?AID=/20130624/NEWS/130629816/-1/SITEMAP",
    "feature_id": "531871",
    "feature_name": "Washington",
    "state_alpha": "DC",
    "county_name": "District of Columbia",
    "county_numeric": "001",
    "prim_lat_dec": "38.8951118",
    "prim_long_dec": "-77.0363658",
    "elev_in_m": "7",
    "elev_in_ft": "23",
    "lat": 38.8951118,
    "long": -77.0363658
  },
  {
    "globaleventid": 257454322,
    "sqldate": 20130625,
    "monthyear": 201306,
    "year": 2013,
    "fractiondate": "2013.4795",
    "eventcode": 120,
    "quadclass": 3,
    "nummentions": 8,
    "numsources": 1,
    "numarticles": 4,
    "avgtone": "2.6615969581749",
    "sourceurl": "http://www.dailystar.com.lb/Business/Middle-East/2013/Jun-26/221564-arab-bank-says-it-appealed-us-sanctions-ruling.ashx",
    "feature_id": "944840",
    "feature_name": "Brooklyn",
    "state_alpha": "NY",
    "county_name": "Delaware",
    "county_numeric": "025",
    "prim_lat_dec": "42.3442482",
    "prim_long_dec": "-75.1704468",
    "elev_in_m": "366",
    "elev_in_ft": "1201",
    "lat": 42.3442482,
    "long": -75.1704468
  },
  {
    "globaleventid": 257454321,
    "sqldate": 20130625,
    "monthyear": 201306,
    "year": 2013,
    "fractiondate": "2013.4795",
    "eventcode": 120,
    "quadclass": 3,
    "nummentions": 20,
    "numsources": 5,
    "numarticles": 20,
    "avgtone": "2.38397141780746",
    "sourceurl": "http://www.stockjournal.com.au/news/agriculture/general/news/progression-plans-place-relationships-first/2659990.aspx",
    "feature_id": "531871",
    "feature_name": "Washington",
    "state_alpha": "DC",
    "county_name": "District of Columbia",
    "county_numeric": "001",
    "prim_lat_dec": "38.8951118",
    "prim_long_dec": "-77.0363658",
    "elev_in_m": "7",
    "elev_in_ft": "23",
    "lat": 38.8951118,
    "long": -77.0363658
  },
  {
    "globaleventid": 257454320,
    "sqldate": 20130625,
    "monthyear": 201306,
    "year": 2013,
    "fractiondate": "2013.4795",
    "eventcode": 120,
    "quadclass": 3,
    "nummentions": 8,
    "numsources": 1,
    "numarticles": 8,
    "avgtone": "3.2520325203252",
    "sourceurl": "http://www.localnews8.com/news/rexburg-mayor-concerned-about-future-natural-gas-needs/-/308662/20716052/-/d07lwxz/-/index.html",
    "feature_id": "374648",
    "feature_name": "Rexburg",
    "state_alpha": "ID",
    "county_name": "Madison",
    "county_numeric": "065",
    "prim_lat_dec": "43.8260227",
    "prim_long_dec": "-111.7896876",
    "elev_in_m": "1483",
    "elev_in_ft": "4865",
    "lat": 43.8260227,
    "long": -111.7896876
  },
  {
    "globaleventid": 257454318,
    "sqldate": 20130625,
    "monthyear": 201306,
    "year": 2013,
    "fractiondate": "2013.4795",
    "eventcode": 120,
    "quadclass": 3,
    "nummentions": 2,
    "numsources": 1,
    "numarticles": 2,
    "avgtone": "1.97433366238894",
    "sourceurl": "http://www.reuters.com/article/2013/06/25/us-menswearhouse-zimmer-exclusive-idUSBRE95O0XD20130625?feedType=RSS&feedName=businessNews",
    "feature_id": "252893",
    "feature_name": "Fremont",
    "state_alpha": "CA",
    "county_name": "San Bernardino",
    "county_numeric": "071",
    "prim_lat_dec": "35.1916356",
    "prim_long_dec": "-117.5767246",
    "elev_in_m": "860",
    "elev_in_ft": "2821",
    "lat": 35.1916356,
    "long": -117.5767246
  },
  {
    "globaleventid": 257454313,
    "sqldate": 20130625,
    "monthyear": 201306,
    "year": 2013,
    "fractiondate": "2013.4795",
    "eventcode": 114,
    "quadclass": 3,
    "nummentions": 4,
    "numsources": 1,
    "numarticles": 4,
    "avgtone": "1.97433366238894",
    "sourceurl": "http://www.reuters.com/article/2013/06/25/us-menswearhouse-zimmer-exclusive-idUSBRE95O0XD20130625?feedType=RSS&feedName=businessNews",
    "feature_id": "252893",
    "feature_name": "Fremont",
    "state_alpha": "CA",
    "county_name": "San Bernardino",
    "county_numeric": "071",
    "prim_lat_dec": "35.1916356",
    "prim_long_dec": "-117.5767246",
    "elev_in_m": "860",
    "elev_in_ft": "2821",
    "lat": 35.1916356,
    "long": -117.5767246
  },
  {
    "globaleventid": 257454309,
    "sqldate": 20130625,
    "monthyear": 201306,
    "year": 2013,
    "fractiondate": "2013.4795",
    "eventcode": 112,
    "quadclass": 3,
    "nummentions": 18,
    "numsources": 8,
    "numarticles": 18,
    "avgtone": "2.42459469454325",
    "sourceurl": "http://www.ethanolproducer.com/articles/9975/obama-unveils-climate-change-action-plan",
    "feature_id": "531871",
    "feature_name": "Washington",
    "state_alpha": "DC",
    "county_name": "District of Columbia",
    "county_numeric": "001",
    "prim_lat_dec": "38.8951118",
    "prim_long_dec": "-77.0363658",
    "elev_in_m": "7",
    "elev_in_ft": "23",
    "lat": 38.8951118,
    "long": -77.0363658
  },
  {
    "globaleventid": 257454308,
    "sqldate": 20130625,
    "monthyear": 201306,
    "year": 2013,
    "fractiondate": "2013.4795",
    "eventcode": 112,
    "quadclass": 3,
    "nummentions": 12,
    "numsources": 6,
    "numarticles": 12,
    "avgtone": "2.40097775769348",
    "sourceurl": "http://www.environmental-expert.com/news/boost-for-cars-or-bust-ethanol-debate-heats-up-380281",
    "feature_id": "529313",
    "feature_name": "Capitol Hill",
    "state_alpha": "DC",
    "county_name": "District of Columbia",
    "county_numeric": "001",
    "prim_lat_dec": "38.8890009",
    "prim_long_dec": "-77.0002537",
    "elev_in_m": "28",
    "elev_in_ft": "92",
    "lat": 38.8890009,
    "long": -77.0002537
  },
  {
    "globaleventid": 257454306,
    "sqldate": 20130625,
    "monthyear": 201306,
    "year": 2013,
    "fractiondate": "2013.4795",
    "eventcode": 111,
    "quadclass": 3,
    "nummentions": 1,
    "numsources": 1,
    "numarticles": 1,
    "avgtone": "3.90243902439024",
    "sourceurl": "http://www.ksl.com/?sid=25743984&nid=711",
    "feature_id": "423587",
    "feature_name": "Chicago",
    "state_alpha": "IL",
    "county_name": "Cook",
    "county_numeric": "031",
    "prim_lat_dec": "41.850033",
    "prim_long_dec": "-87.6500523",
    "elev_in_m": "179",
    "elev_in_ft": "587",
    "lat": 41.850033,
    "long": -87.6500523
  },
  {
    "globaleventid": 257454297,
    "sqldate": 20130625,
    "monthyear": 201306,
    "year": 2013,
    "fractiondate": "2013.4795",
    "eventcode": 110,
    "quadclass": 3,
    "nummentions": 4,
    "numsources": 1,
    "numarticles": 4,
    "avgtone": "1.49152542372881",
    "sourceurl": "http://www.bloomberg.com/news/2013-06-25/dish-t-mobile-bid-seen-as-ergen-s-last-resort-real-m-a.html",
    "feature_id": "942957",
    "feature_name": "Baltimore",
    "state_alpha": "NY",
    "county_name": "Cortland",
    "county_numeric": "023",
    "prim_lat_dec": "42.7353458",
    "prim_long_dec": "-76.1257596",
    "elev_in_m": "362",
    "elev_in_ft": "1188",
    "lat": 42.7353458,
    "long": -76.1257596
  },
  {
    "globaleventid": 257454295,
    "sqldate": 20130625,
    "monthyear": 201306,
    "year": 2013,
    "fractiondate": "2013.4795",
    "eventcode": 110,
    "quadclass": 3,
    "nummentions": 2,
    "numsources": 1,
    "numarticles": 2,
    "avgtone": "7.34463276836158",
    "sourceurl": "http://www.pr-inside.com/the-fruit-company-announces-2013-scholarship-r3712674.htm&c=nEp65WrUFbS0qcCOb5iyuBbomnhq5rIHKTzWRwy5NDM&mkt=en-us",
    "feature_id": "1496900",
    "feature_name": "Fork Union",
    "state_alpha": "VA",
    "county_name": "Fluvanna",
    "county_numeric": "065",
    "prim_lat_dec": "37.7631981",
    "prim_long_dec": "-78.2622251",
    "elev_in_m": "109",
    "elev_in_ft": "358",
    "lat": 37.7631981,
    "long": -78.2622251
  },
  {
    "globaleventid": 257459890,
    "sqldate": 20130625,
    "monthyear": 201306,
    "year": 2013,
    "fractiondate": "2013.4795",
    "eventcode": 190,
    "quadclass": 4,
    "nummentions": 2,
    "numsources": 1,
    "numarticles": 2,
    "avgtone": "2.53748558246828",
    "sourceurl": "http://www.ctpost.com/news/crime/article/Hollywood-stabbing-suspect-had-lengthy-rap-sheet-4621849.php",
    "feature_id": "1660757",
    "feature_name": "Hollywood",
    "state_alpha": "CA",
    "county_name": "Los Angeles",
    "county_numeric": "037",
    "prim_lat_dec": "34.0983425",
    "prim_long_dec": "-118.3267434",
    "elev_in_m": "108",
    "elev_in_ft": "354",
    "lat": 34.0983425,
    "long": -118.3267434
  },
  {
    "globaleventid": 257459889,
    "sqldate": 20130625,
    "monthyear": 201306,
    "year": 2013,
    "fractiondate": "2013.4795",
    "eventcode": 190,
    "quadclass": 4,
    "nummentions": 2,
    "numsources": 1,
    "numarticles": 2,
    "avgtone": "0.636942675159236",
    "sourceurl": "http://news.lalate.com/2013/06/25/new-mexico-fire-maps-grow-as-silver-fire-jaroso-fire-spread/",
    "feature_id": "920706",
    "feature_name": "Silver City",
    "state_alpha": "NM",
    "county_name": "Grant",
    "county_numeric": "017",
    "prim_lat_dec": "32.770075",
    "prim_long_dec": "-108.280326",
    "elev_in_m": "1809",
    "elev_in_ft": "5935",
    "lat": 32.770075,
    "long": -108.280326
  },
  {
    "globaleventid": 257459887,
    "sqldate": 20130625,
    "monthyear": 201306,
    "year": 2013,
    "fractiondate": "2013.4795",
    "eventcode": 190,
    "quadclass": 4,
    "nummentions": 8,
    "numsources": 1,
    "numarticles": 8,
    "avgtone": "0.0",
    "sourceurl": "http://www.kxly.com/news/northwest/officials-identify-2-killed-in-north-idaho-crash/-/101246/20708350/-/7bu0gsz/-/index.html",
    "feature_id": "396579",
    "feature_name": "Grangeville",
    "state_alpha": "ID",
    "county_name": "Idaho",
    "county_numeric": "049",
    "prim_lat_dec": "45.926552",
    "prim_long_dec": "-116.1223654",
    "elev_in_m": "1036",
    "elev_in_ft": "3399",
    "lat": 45.926552,
    "long": -116.1223654
  },
  {
    "globaleventid": 257459886,
    "sqldate": 20130625,
    "monthyear": 201306,
    "year": 2013,
    "fractiondate": "2013.4795",
    "eventcode": 190,
    "quadclass": 4,
    "nummentions": 2,
    "numsources": 1,
    "numarticles": 2,
    "avgtone": "1.5625",
    "sourceurl": "http://news.yahoo.com/florida-neighbourhood-watch-trial-begins-defence-says-teen-204240933.html",
    "feature_id": "295004",
    "feature_name": "Miami",
    "state_alpha": "FL",
    "county_name": "Miami-Dade",
    "county_numeric": "086",
    "prim_lat_dec": "25.7742658",
    "prim_long_dec": "-80.1936589",
    "elev_in_m": "2",
    "elev_in_ft": "7",
    "lat": 25.7742658,
    "long": -80.1936589
  },
  {
    "globaleventid": 257459885,
    "sqldate": 20130625,
    "monthyear": 201306,
    "year": 2013,
    "fractiondate": "2013.4795",
    "eventcode": 173,
    "quadclass": 4,
    "nummentions": 4,
    "numsources": 2,
    "numarticles": 4,
    "avgtone": "2.46491504003797",
    "sourceurl": "http://www.sanluisobispo.com/2013/06/25/2560491/suspect-in-hollywood-stabbing.html",
    "feature_id": "1660757",
    "feature_name": "Hollywood",
    "state_alpha": "CA",
    "county_name": "Los Angeles",
    "county_numeric": "037",
    "prim_lat_dec": "34.0983425",
    "prim_long_dec": "-118.3267434",
    "elev_in_m": "108",
    "elev_in_ft": "354",
    "lat": 34.0983425,
    "long": -118.3267434
  },
  {
    "globaleventid": 257459881,
    "sqldate": 20130625,
    "monthyear": 201306,
    "year": 2013,
    "fractiondate": "2013.4795",
    "eventcode": 172,
    "quadclass": 4,
    "nummentions": 4,
    "numsources": 1,
    "numarticles": 4,
    "avgtone": "5.96133190118153",
    "sourceurl": "http://www.cnn.com/2013/06/25/us/supreme-court-preview-prop-8/index.html?utm_source=feedburner&utm_medium=feed&utm_campaign=Feed%3A+rss%2Fcnn_crime+%28RSS%3A+Crime%29",
    "feature_id": "531871",
    "feature_name": "Washington",
    "state_alpha": "DC",
    "county_name": "District of Columbia",
    "county_numeric": "001",
    "prim_lat_dec": "38.8951118",
    "prim_long_dec": "-77.0363658",
    "elev_in_m": "7",
    "elev_in_ft": "23",
    "lat": 38.8951118,
    "long": -77.0363658
  },
  {
    "globaleventid": 257459803,
    "sqldate": 20130625,
    "monthyear": 201306,
    "year": 2013,
    "fractiondate": "2013.4795",
    "eventcode": 193,
    "quadclass": 4,
    "nummentions": 1,
    "numsources": 1,
    "numarticles": 1,
    "avgtone": "0.985221674876847",
    "sourceurl": "http://www.contracostatimes.com/breaking-news/ci_23537459/reputed-san-francisco-gang-member-charged-murder-april",
    "feature_id": "277593",
    "feature_name": "San Francisco",
    "state_alpha": "CA",
    "county_name": "San Francisco",
    "county_numeric": "075",
    "prim_lat_dec": "37.775",
    "prim_long_dec": "-122.4194444",
    "elev_in_m": "16",
    "elev_in_ft": "52",
    "lat": 37.775,
    "long": -122.4194444
  },
  {
    "globaleventid": 257459802,
    "sqldate": 20130625,
    "monthyear": 201306,
    "year": 2013,
    "fractiondate": "2013.4795",
    "eventcode": 193,
    "quadclass": 4,
    "nummentions": 4,
    "numsources": 1,
    "numarticles": 4,
    "avgtone": "0.985221674876847",
    "sourceurl": "http://www.contracostatimes.com/breaking-news/ci_23537459/reputed-san-francisco-gang-member-charged-murder-april",
    "feature_id": "277566",
    "feature_name": "Oakland",
    "state_alpha": "CA",
    "county_name": "Alameda",
    "county_numeric": "001",
    "prim_lat_dec": "37.8043722",
    "prim_long_dec": "-122.2708026",
    "elev_in_m": "13",
    "elev_in_ft": "43",
    "lat": 37.8043722,
    "long": -122.2708026
  },
  {
    "globaleventid": 257459801,
    "sqldate": 20130625,
    "monthyear": 201306,
    "year": 2013,
    "fractiondate": "2013.4795",
    "eventcode": 193,
    "quadclass": 4,
    "nummentions": 3,
    "numsources": 1,
    "numarticles": 3,
    "avgtone": "0.985221674876847",
    "sourceurl": "http://www.contracostatimes.com/breaking-news/ci_23537459/reputed-san-francisco-gang-member-charged-murder-april",
    "feature_id": "277593",
    "feature_name": "San Francisco",
    "state_alpha": "CA",
    "county_name": "San Francisco",
    "county_numeric": "075",
    "prim_lat_dec": "37.775",
    "prim_long_dec": "-122.4194444",
    "elev_in_m": "16",
    "elev_in_ft": "52",
    "lat": 37.775,
    "long": -122.4194444
  },
  {
    "globaleventid": 257459800,
    "sqldate": 20130625,
    "monthyear": 201306,
    "year": 2013,
    "fractiondate": "2013.4795",
    "eventcode": 193,
    "quadclass": 4,
    "nummentions": 1,
    "numsources": 1,
    "numarticles": 1,
    "avgtone": "0.985221674876847",
    "sourceurl": "http://www.contracostatimes.com/breaking-news/ci_23537459/reputed-san-francisco-gang-member-charged-murder-april",
    "feature_id": "277593",
    "feature_name": "San Francisco",
    "state_alpha": "CA",
    "county_name": "San Francisco",
    "county_numeric": "075",
    "prim_lat_dec": "37.775",
    "prim_long_dec": "-122.4194444",
    "elev_in_m": "16",
    "elev_in_ft": "52",
    "lat": 37.775,
    "long": -122.4194444
  },
  {
    "globaleventid": 257459798,
    "sqldate": 20130625,
    "monthyear": 201306,
    "year": 2013,
    "fractiondate": "2013.4795",
    "eventcode": 190,
    "quadclass": 4,
    "nummentions": 1,
    "numsources": 1,
    "numarticles": 1,
    "avgtone": "0.985221674876847",
    "sourceurl": "http://www.contracostatimes.com/breaking-news/ci_23537459/reputed-san-francisco-gang-member-charged-murder-april",
    "feature_id": "277593",
    "feature_name": "San Francisco",
    "state_alpha": "CA",
    "county_name": "San Francisco",
    "county_numeric": "075",
    "prim_lat_dec": "37.775",
    "prim_long_dec": "-122.4194444",
    "elev_in_m": "16",
    "elev_in_ft": "52",
    "lat": 37.775,
    "long": -122.4194444
  },
  {
    "globaleventid": 257459797,
    "sqldate": 20130625,
    "monthyear": 201306,
    "year": 2013,
    "fractiondate": "2013.4795",
    "eventcode": 190,
    "quadclass": 4,
    "nummentions": 4,
    "numsources": 1,
    "numarticles": 4,
    "avgtone": "0.985221674876847",
    "sourceurl": "http://www.contracostatimes.com/breaking-news/ci_23537459/reputed-san-francisco-gang-member-charged-murder-april",
    "feature_id": "277566",
    "feature_name": "Oakland",
    "state_alpha": "CA",
    "county_name": "Alameda",
    "county_numeric": "001",
    "prim_lat_dec": "37.8043722",
    "prim_long_dec": "-122.2708026",
    "elev_in_m": "13",
    "elev_in_ft": "43",
    "lat": 37.8043722,
    "long": -122.2708026
  },
  {
    "globaleventid": 257459796,
    "sqldate": 20130625,
    "monthyear": 201306,
    "year": 2013,
    "fractiondate": "2013.4795",
    "eventcode": 190,
    "quadclass": 4,
    "nummentions": 6,
    "numsources": 1,
    "numarticles": 6,
    "avgtone": "0.985221674876847",
    "sourceurl": "http://www.contracostatimes.com/breaking-news/ci_23537459/reputed-san-francisco-gang-member-charged-murder-april",
    "feature_id": "277593",
    "feature_name": "San Francisco",
    "state_alpha": "CA",
    "county_name": "San Francisco",
    "county_numeric": "075",
    "prim_lat_dec": "37.775",
    "prim_long_dec": "-122.4194444",
    "elev_in_m": "16",
    "elev_in_ft": "52",
    "lat": 37.775,
    "long": -122.4194444
  },
  {
    "globaleventid": 257459795,
    "sqldate": 20130625,
    "monthyear": 201306,
    "year": 2013,
    "fractiondate": "2013.4795",
    "eventcode": 190,
    "quadclass": 4,
    "nummentions": 2,
    "numsources": 1,
    "numarticles": 2,
    "avgtone": "0.985221674876847",
    "sourceurl": "http://www.contracostatimes.com/breaking-news/ci_23537459/reputed-san-francisco-gang-member-charged-murder-april",
    "feature_id": "277593",
    "feature_name": "San Francisco",
    "state_alpha": "CA",
    "county_name": "San Francisco",
    "county_numeric": "075",
    "prim_lat_dec": "37.775",
    "prim_long_dec": "-122.4194444",
    "elev_in_m": "16",
    "elev_in_ft": "52",
    "lat": 37.775,
    "long": -122.4194444
  },
  {
    "globaleventid": 257459793,
    "sqldate": 20130625,
    "monthyear": 201306,
    "year": 2013,
    "fractiondate": "2013.4795",
    "eventcode": 173,
    "quadclass": 4,
    "nummentions": 4,
    "numsources": 1,
    "numarticles": 4,
    "avgtone": "0.985221674876847",
    "sourceurl": "http://www.contracostatimes.com/breaking-news/ci_23537459/reputed-san-francisco-gang-member-charged-murder-april",
    "feature_id": "277593",
    "feature_name": "San Francisco",
    "state_alpha": "CA",
    "county_name": "San Francisco",
    "county_numeric": "075",
    "prim_lat_dec": "37.775",
    "prim_long_dec": "-122.4194444",
    "elev_in_m": "16",
    "elev_in_ft": "52",
    "lat": 37.775,
    "long": -122.4194444
  },
  {
    "globaleventid": 257459792,
    "sqldate": 20130625,
    "monthyear": 201306,
    "year": 2013,
    "fractiondate": "2013.4795",
    "eventcode": 173,
    "quadclass": 4,
    "nummentions": 4,
    "numsources": 1,
    "numarticles": 4,
    "avgtone": "0.985221674876847",
    "sourceurl": "http://www.contracostatimes.com/breaking-news/ci_23537459/reputed-san-francisco-gang-member-charged-murder-april",
    "feature_id": "277593",
    "feature_name": "San Francisco",
    "state_alpha": "CA",
    "county_name": "San Francisco",
    "county_numeric": "075",
    "prim_lat_dec": "37.775",
    "prim_long_dec": "-122.4194444",
    "elev_in_m": "16",
    "elev_in_ft": "52",
    "lat": 37.775,
    "long": -122.4194444
  },
  {
    "globaleventid": 257459791,
    "sqldate": 20130625,
    "monthyear": 201306,
    "year": 2013,
    "fractiondate": "2013.4795",
    "eventcode": 173,
    "quadclass": 4,
    "nummentions": 2,
    "numsources": 1,
    "numarticles": 2,
    "avgtone": "0.985221674876847",
    "sourceurl": "http://www.contracostatimes.com/breaking-news/ci_23537459/reputed-san-francisco-gang-member-charged-murder-april",
    "feature_id": "277593",
    "feature_name": "San Francisco",
    "state_alpha": "CA",
    "county_name": "San Francisco",
    "county_numeric": "075",
    "prim_lat_dec": "37.775",
    "prim_long_dec": "-122.4194444",
    "elev_in_m": "16",
    "elev_in_ft": "52",
    "lat": 37.775,
    "long": -122.4194444
  },
  {
    "globaleventid": 257459790,
    "sqldate": 20130625,
    "monthyear": 201306,
    "year": 2013,
    "fractiondate": "2013.4795",
    "eventcode": 173,
    "quadclass": 4,
    "nummentions": 2,
    "numsources": 1,
    "numarticles": 2,
    "avgtone": "0.985221674876847",
    "sourceurl": "http://www.contracostatimes.com/breaking-news/ci_23537459/reputed-san-francisco-gang-member-charged-murder-april",
    "feature_id": "1659598",
    "feature_name": "Santa Rita",
    "state_alpha": "CA",
    "county_name": "Monterey",
    "county_numeric": "053",
    "prim_lat_dec": "36.7238477",
    "prim_long_dec": "-121.6560572",
    "elev_in_m": "24",
    "elev_in_ft": "79",
    "lat": 36.7238477,
    "long": -121.6560572
  },
  {
    "globaleventid": 257459789,
    "sqldate": 20130625,
    "monthyear": 201306,
    "year": 2013,
    "fractiondate": "2013.4795",
    "eventcode": 173,
    "quadclass": 4,
    "nummentions": 2,
    "numsources": 1,
    "numarticles": 2,
    "avgtone": "0.985221674876847",
    "sourceurl": "http://www.contracostatimes.com/breaking-news/ci_23537459/reputed-san-francisco-gang-member-charged-murder-april",
    "feature_id": "1659598",
    "feature_name": "Santa Rita",
    "state_alpha": "CA",
    "county_name": "Monterey",
    "county_numeric": "053",
    "prim_lat_dec": "36.7238477",
    "prim_long_dec": "-121.6560572",
    "elev_in_m": "24",
    "elev_in_ft": "79",
    "lat": 36.7238477,
    "long": -121.6560572
  },
  {
    "globaleventid": 257459783,
    "sqldate": 20130625,
    "monthyear": 201306,
    "year": 2013,
    "fractiondate": "2013.4795",
    "eventcode": 120,
    "quadclass": 3,
    "nummentions": 2,
    "numsources": 1,
    "numarticles": 2,
    "avgtone": "1.45051194539249",
    "sourceurl": "http://infosurhoy.com/cocoon/saii/xhtml/en_GB/features/saii/features/main/2013/06/24/feature-01",
    "feature_id": "1662328",
    "feature_name": "Los Angeles",
    "state_alpha": "CA",
    "county_name": "Los Angeles",
    "county_numeric": "037",
    "prim_lat_dec": "34.0522342",
    "prim_long_dec": "-118.2436849",
    "elev_in_m": "89",
    "elev_in_ft": "292",
    "lat": 34.0522342,
    "long": -118.2436849
  },
  {
    "globaleventid": 257459781,
    "sqldate": 20130625,
    "monthyear": 201306,
    "year": 2013,
    "fractiondate": "2013.4795",
    "eventcode": 100,
    "quadclass": 3,
    "nummentions": 1,
    "numsources": 1,
    "numarticles": 1,
    "avgtone": "1.43266475644699",
    "sourceurl": "http://rt.com/usa/california-man-13-prison-banks-237/",
    "feature_id": "1661377",
    "feature_name": "San Diego",
    "state_alpha": "CA",
    "county_name": "San Diego",
    "county_numeric": "073",
    "prim_lat_dec": "32.7153292",
    "prim_long_dec": "-117.1572551",
    "elev_in_m": "19",
    "elev_in_ft": "62",
    "lat": 32.7153292,
    "long": -117.1572551
  },
  {
    "globaleventid": 257459776,
    "sqldate": 20130625,
    "monthyear": 201306,
    "year": 2013,
    "fractiondate": "2013.4795",
    "eventcode": 193,
    "quadclass": 4,
    "nummentions": 2,
    "numsources": 1,
    "numarticles": 2,
    "avgtone": "0.558659217877095",
    "sourceurl": "http://www.kcrg.com/news/crime/Two-People-Hopsitalized-Following-Shooting-in-Waterloo-213047031.html",
    "feature_id": "462727",
    "feature_name": "Waterloo",
    "state_alpha": "IA",
    "county_name": "Black Hawk",
    "county_numeric": "013",
    "prim_lat_dec": "42.4927641",
    "prim_long_dec": "-92.3429631",
    "elev_in_m": "261",
    "elev_in_ft": "856",
    "lat": 42.4927641,
    "long": -92.3429631
  },
  {
    "globaleventid": 257459775,
    "sqldate": 20130625,
    "monthyear": 201306,
    "year": 2013,
    "fractiondate": "2013.4795",
    "eventcode": 193,
    "quadclass": 4,
    "nummentions": 2,
    "numsources": 1,
    "numarticles": 2,
    "avgtone": "0.558659217877095",
    "sourceurl": "http://www.kcrg.com/news/crime/Two-People-Hopsitalized-Following-Shooting-in-Waterloo-213047031.html",
    "feature_id": "462727",
    "feature_name": "Waterloo",
    "state_alpha": "IA",
    "county_name": "Black Hawk",
    "county_numeric": "013",
    "prim_lat_dec": "42.4927641",
    "prim_long_dec": "-92.3429631",
    "elev_in_m": "261",
    "elev_in_ft": "856",
    "lat": 42.4927641,
    "long": -92.3429631
  },
  {
    "globaleventid": 257459773,
    "sqldate": 20130625,
    "monthyear": 201306,
    "year": 2013,
    "fractiondate": "2013.4795",
    "eventcode": 193,
    "quadclass": 4,
    "nummentions": 8,
    "numsources": 2,
    "numarticles": 8,
    "avgtone": "0.0",
    "sourceurl": "http://www.timesherald.com/article/20130625/NEWS03/130629773/vietnam-vet-shot-inside-home-in-philadelphia",
    "feature_id": "1209052",
    "feature_name": "Philadelphia",
    "state_alpha": "PA",
    "county_name": "Philadelphia",
    "county_numeric": "101",
    "prim_lat_dec": "39.952335",
    "prim_long_dec": "-75.163789",
    "elev_in_m": "14",
    "elev_in_ft": "46",
    "lat": 39.952335,
    "long": -75.163789
  },
  {
    "globaleventid": 257459767,
    "sqldate": 20130625,
    "monthyear": 201306,
    "year": 2013,
    "fractiondate": "2013.4795",
    "eventcode": 190,
    "quadclass": 4,
    "nummentions": 4,
    "numsources": 1,
    "numarticles": 4,
    "avgtone": "1.27388535031847",
    "sourceurl": "http://www.abc27.com/story/22683089/miss-woman-charged-in-2012-md-homicide",
    "feature_id": "677792",
    "feature_name": "Silver Creek",
    "state_alpha": "MS",
    "county_name": "Lawrence",
    "county_numeric": "077",
    "prim_lat_dec": "31.605168",
    "prim_long_dec": "-89.9984156",
    "elev_in_m": "83",
    "elev_in_ft": "272",
    "lat": 31.605168,
    "long": -89.9984156
  },
  {
    "globaleventid": 257459764,
    "sqldate": 20130625,
    "monthyear": 201306,
    "year": 2013,
    "fractiondate": "2013.4795",
    "eventcode": 190,
    "quadclass": 4,
    "nummentions": 8,
    "numsources": 2,
    "numarticles": 8,
    "avgtone": "0.0",
    "sourceurl": "http://www.timesherald.com/article/20130625/NEWS03/130629773/vietnam-vet-shot-inside-home-in-philadelphia",
    "feature_id": "1209052",
    "feature_name": "Philadelphia",
    "state_alpha": "PA",
    "county_name": "Philadelphia",
    "county_numeric": "101",
    "prim_lat_dec": "39.952335",
    "prim_long_dec": "-75.163789",
    "elev_in_m": "14",
    "elev_in_ft": "46",
    "lat": 39.952335,
    "long": -75.163789
  },
  {
    "globaleventid": 257459762,
    "sqldate": 20130625,
    "monthyear": 201306,
    "year": 2013,
    "fractiondate": "2013.4795",
    "eventcode": 183,
    "quadclass": 4,
    "nummentions": 2,
    "numsources": 1,
    "numarticles": 2,
    "avgtone": "1.20845921450151",
    "sourceurl": "http://www.eurasiareview.com/25062013-iraq-violence-continues-another-bloody-day-in-baghdad/",
    "feature_id": "1609077",
    "feature_name": "Cheyenne",
    "state_alpha": "WY",
    "county_name": "Laramie",
    "county_numeric": "021",
    "prim_lat_dec": "41.1399814",
    "prim_long_dec": "-104.8202462",
    "elev_in_m": "1855",
    "elev_in_ft": "6086",
    "lat": 41.1399814,
    "long": -104.8202462
  },
  {
    "globaleventid": 257459758,
    "sqldate": 20130625,
    "monthyear": 201306,
    "year": 2013,
    "fractiondate": "2013.4795",
    "eventcode": 180,
    "quadclass": 4,
    "nummentions": 2,
    "numsources": 1,
    "numarticles": 2,
    "avgtone": "2.7972027972028",
    "sourceurl": "http://www.wkyt.com/news/headlines/Bardstown-Police-place-permanent-memorial-for-fallen-officer--213026511.html?ref=511",
    "feature_id": "486333",
    "feature_name": "Bardstown",
    "state_alpha": "KY",
    "county_name": "Nelson",
    "county_numeric": "179",
    "prim_lat_dec": "37.8092279",
    "prim_long_dec": "-85.4669025",
    "elev_in_m": "197",
    "elev_in_ft": "646",
    "lat": 37.8092279,
    "long": -85.4669025
  },
  {
    "globaleventid": 257459757,
    "sqldate": 20130625,
    "monthyear": 201306,
    "year": 2013,
    "fractiondate": "2013.4795",
    "eventcode": 173,
    "quadclass": 4,
    "nummentions": 2,
    "numsources": 1,
    "numarticles": 2,
    "avgtone": "0.677200902934537",
    "sourceurl": "http://www.phillyburbs.com/news/crime/former-horsham-man-sentenced-in-nc-molestations/article_f4e5f220-84e1-5798-9b9a-c87bd7487707.html",
    "feature_id": "1177472",
    "feature_name": "Horsham",
    "state_alpha": "PA",
    "county_name": "Montgomery",
    "county_numeric": "091",
    "prim_lat_dec": "40.1784422",
    "prim_long_dec": "-75.1285061",
    "elev_in_m": "76",
    "elev_in_ft": "249",
    "lat": 40.1784422,
    "long": -75.1285061
  },
  {
    "globaleventid": 257459756,
    "sqldate": 20130625,
    "monthyear": 201306,
    "year": 2013,
    "fractiondate": "2013.4795",
    "eventcode": 173,
    "quadclass": 4,
    "nummentions": 8,
    "numsources": 1,
    "numarticles": 8,
    "avgtone": "0.757575757575758",
    "sourceurl": "http://www.utsandiego.com/news/2013/jun/25/fugitive-identity-theft-national-city/",
    "feature_id": "1661090",
    "feature_name": "National City",
    "state_alpha": "CA",
    "county_name": "San Diego",
    "county_numeric": "073",
    "prim_lat_dec": "32.6781085",
    "prim_long_dec": "-117.0991967",
    "elev_in_m": "20",
    "elev_in_ft": "66",
    "lat": 32.6781085,
    "long": -117.0991967
  },
  {
    "globaleventid": 257459753,
    "sqldate": 20130625,
    "monthyear": 201306,
    "year": 2013,
    "fractiondate": "2013.4795",
    "eventcode": 173,
    "quadclass": 4,
    "nummentions": 4,
    "numsources": 1,
    "numarticles": 4,
    "avgtone": "2.09580838323353",
    "sourceurl": "http://www.wusa9.com/news/local/story.aspx?storyid=263948",
    "feature_id": "677792",
    "feature_name": "Silver Creek",
    "state_alpha": "MS",
    "county_name": "Lawrence",
    "county_numeric": "077",
    "prim_lat_dec": "31.605168",
    "prim_long_dec": "-89.9984156",
    "elev_in_m": "83",
    "elev_in_ft": "272",
    "lat": 31.605168,
    "long": -89.9984156
  },
  {
    "globaleventid": 257459752,
    "sqldate": 20130625,
    "monthyear": 201306,
    "year": 2013,
    "fractiondate": "2013.4795",
    "eventcode": 173,
    "quadclass": 4,
    "nummentions": 8,
    "numsources": 1,
    "numarticles": 8,
    "avgtone": "1.05633802816901",
    "sourceurl": "http://www.ctpost.com/news/crime/article/2-LAPD-officers-convicted-of-perjury-are-sentenced-4622370.php",
    "feature_id": "1662328",
    "feature_name": "Los Angeles",
    "state_alpha": "CA",
    "county_name": "Los Angeles",
    "county_numeric": "037",
    "prim_lat_dec": "34.0522342",
    "prim_long_dec": "-118.2436849",
    "elev_in_m": "89",
    "elev_in_ft": "292",
    "lat": 34.0522342,
    "long": -118.2436849
  },
  {
    "globaleventid": 257459751,
    "sqldate": 20130625,
    "monthyear": 201306,
    "year": 2013,
    "fractiondate": "2013.4795",
    "eventcode": 173,
    "quadclass": 4,
    "nummentions": 2,
    "numsources": 1,
    "numarticles": 2,
    "avgtone": "1.05633802816901",
    "sourceurl": "http://www.ctpost.com/news/crime/article/2-LAPD-officers-convicted-of-perjury-are-sentenced-4622370.php",
    "feature_id": "1662328",
    "feature_name": "Los Angeles",
    "state_alpha": "CA",
    "county_name": "Los Angeles",
    "county_numeric": "037",
    "prim_lat_dec": "34.0522342",
    "prim_long_dec": "-118.2436849",
    "elev_in_m": "89",
    "elev_in_ft": "292",
    "lat": 34.0522342,
    "long": -118.2436849
  },
  {
    "globaleventid": 257459749,
    "sqldate": 20130625,
    "monthyear": 201306,
    "year": 2013,
    "fractiondate": "2013.4795",
    "eventcode": 173,
    "quadclass": 4,
    "nummentions": 2,
    "numsources": 1,
    "numarticles": 2,
    "avgtone": "2.69541778975741",
    "sourceurl": "http://www.elpasotimes.com/newupdated/ci_23536485/two-el-paso-border-advocates-arrested-dallas-outside?source=most_emailed",
    "feature_id": "1380946",
    "feature_name": "El Paso",
    "state_alpha": "TX",
    "county_name": "El Paso",
    "county_numeric": "141",
    "prim_lat_dec": "31.7587198",
    "prim_long_dec": "-106.4869314",
    "elev_in_m": "1133",
    "elev_in_ft": "3717",
    "lat": 31.7587198,
    "long": -106.4869314
  },
  {
    "globaleventid": 257459748,
    "sqldate": 20130625,
    "monthyear": 201306,
    "year": 2013,
    "fractiondate": "2013.4795",
    "eventcode": 173,
    "quadclass": 4,
    "nummentions": 2,
    "numsources": 1,
    "numarticles": 2,
    "avgtone": "2.69541778975741",
    "sourceurl": "http://www.elpasotimes.com/newupdated/ci_23536485/two-el-paso-border-advocates-arrested-dallas-outside?source=most_emailed",
    "feature_id": "1380944",
    "feature_name": "Dallas",
    "state_alpha": "TX",
    "county_name": "Dallas",
    "county_numeric": "113",
    "prim_lat_dec": "32.7830556",
    "prim_long_dec": "-96.8066667",
    "elev_in_m": "128",
    "elev_in_ft": "420",
    "lat": 32.7830556,
    "long": -96.8066667
  },
  {
    "globaleventid": 257459747,
    "sqldate": 20130625,
    "monthyear": 201306,
    "year": 2013,
    "fractiondate": "2013.4795",
    "eventcode": 173,
    "quadclass": 4,
    "nummentions": 6,
    "numsources": 1,
    "numarticles": 6,
    "avgtone": "2.69541778975741",
    "sourceurl": "http://www.elpasotimes.com/newupdated/ci_23536485/two-el-paso-border-advocates-arrested-dallas-outside?source=most_emailed",
    "feature_id": "1380944",
    "feature_name": "Dallas",
    "state_alpha": "TX",
    "county_name": "Dallas",
    "county_numeric": "113",
    "prim_lat_dec": "32.7830556",
    "prim_long_dec": "-96.8066667",
    "elev_in_m": "128",
    "elev_in_ft": "420",
    "lat": 32.7830556,
    "long": -96.8066667
  },
  {
    "globaleventid": 257459746,
    "sqldate": 20130625,
    "monthyear": 201306,
    "year": 2013,
    "fractiondate": "2013.4795",
    "eventcode": 173,
    "quadclass": 4,
    "nummentions": 4,
    "numsources": 1,
    "numarticles": 4,
    "avgtone": "1.52671755725191",
    "sourceurl": "http://www.wfmz.com/news/news-regional-berks/man-wanted-for-burglary-in-maryland-arrested-in-muhlenberg-township/-/121418/20705792/-/kiwyqc/-/index.html",
    "feature_id": "1182066",
    "feature_name": "Muhlenberg",
    "state_alpha": "PA",
    "county_name": "Berks",
    "county_numeric": "011",
    "prim_lat_dec": "40.3831486",
    "prim_long_dec": "-75.9388201",
    "elev_in_m": "100",
    "elev_in_ft": "328",
    "lat": 40.3831486,
    "long": -75.9388201
  },
  {
    "globaleventid": 257459744,
    "sqldate": 20130625,
    "monthyear": 201306,
    "year": 2013,
    "fractiondate": "2013.4795",
    "eventcode": 173,
    "quadclass": 4,
    "nummentions": 4,
    "numsources": 2,
    "numarticles": 4,
    "avgtone": "0.631855583432078",
    "sourceurl": "http://www.phillyburbs.com/news/crime/former-horsham-man-sentenced-in-nc-molestations/article_f4e5f220-84e1-5798-9b9a-c87bd7487707.html",
    "feature_id": "1177472",
    "feature_name": "Horsham",
    "state_alpha": "PA",
    "county_name": "Montgomery",
    "county_numeric": "091",
    "prim_lat_dec": "40.1784422",
    "prim_long_dec": "-75.1285061",
    "elev_in_m": "76",
    "elev_in_ft": "249",
    "lat": 40.1784422,
    "long": -75.1285061
  },
  {
    "globaleventid": 257459743,
    "sqldate": 20130625,
    "monthyear": 201306,
    "year": 2013,
    "fractiondate": "2013.4795",
    "eventcode": 171,
    "quadclass": 4,
    "nummentions": 10,
    "numsources": 1,
    "numarticles": 10,
    "avgtone": "1.38888888888889",
    "sourceurl": "http://www.myfoxphoenix.com/story/22682008/2013/06/25/caught-on-video-robbery-suspect-breaks-into-2-cars",
    "feature_id": "44784",
    "feature_name": "Phoenix",
    "state_alpha": "AZ",
    "county_name": "Maricopa",
    "county_numeric": "013",
    "prim_lat_dec": "33.4483771",
    "prim_long_dec": "-112.0740373",
    "elev_in_m": "331",
    "elev_in_ft": "1086",
    "lat": 33.4483771,
    "long": -112.0740373
  },
  {
    "globaleventid": 257459742,
    "sqldate": 20130625,
    "monthyear": 201306,
    "year": 2013,
    "fractiondate": "2013.4795",
    "eventcode": 120,
    "quadclass": 3,
    "nummentions": 4,
    "numsources": 1,
    "numarticles": 4,
    "avgtone": "0.907715582450832",
    "sourceurl": "http://www.nypost.com/p/news/national/massive_manhunt_lapd_gunman_station_5DxuqbKR6KJsI0WHuVRkOL",
    "feature_id": "1662328",
    "feature_name": "Los Angeles",
    "state_alpha": "CA",
    "county_name": "Los Angeles",
    "county_numeric": "037",
    "prim_lat_dec": "34.0522342",
    "prim_long_dec": "-118.2436849",
    "elev_in_m": "89",
    "elev_in_ft": "292",
    "lat": 34.0522342,
    "long": -118.2436849
  },
  {
    "globaleventid": 257459741,
    "sqldate": 20130625,
    "monthyear": 201306,
    "year": 2013,
    "fractiondate": "2013.4795",
    "eventcode": 112,
    "quadclass": 3,
    "nummentions": 4,
    "numsources": 1,
    "numarticles": 4,
    "avgtone": "0.0",
    "sourceurl": "http://www.wyff4.com/news/north-carolina-news/police-lieutenant-officials-wanted-lies-about-wreck-involving-chiefs-son/-/9695846/20711030/-/216fv7/-/index.html",
    "feature_id": "1018864",
    "feature_name": "Asheville",
    "state_alpha": "NC",
    "county_name": "Buncombe",
    "county_numeric": "021",
    "prim_lat_dec": "35.6009452",
    "prim_long_dec": "-82.554015",
    "elev_in_m": "649",
    "elev_in_ft": "2129",
    "lat": 35.6009452,
    "long": -82.554015
  },
  {
    "globaleventid": 257459708,
    "sqldate": 20130625,
    "monthyear": 201306,
    "year": 2013,
    "fractiondate": "2013.4795",
    "eventcode": 120,
    "quadclass": 3,
    "nummentions": 6,
    "numsources": 1,
    "numarticles": 6,
    "avgtone": "0.314465408805031",
    "sourceurl": "http://www.bizjournals.com/phoenix/news/2013/06/24/arizonas-immigration-population.html",
    "feature_id": "44784",
    "feature_name": "Phoenix",
    "state_alpha": "AZ",
    "county_name": "Maricopa",
    "county_numeric": "013",
    "prim_lat_dec": "33.4483771",
    "prim_long_dec": "-112.0740373",
    "elev_in_m": "331",
    "elev_in_ft": "1086",
    "lat": 33.4483771,
    "long": -112.0740373
  },
  {
    "globaleventid": 257459636,
    "sqldate": 20130625,
    "monthyear": 201306,
    "year": 2013,
    "fractiondate": "2013.4795",
    "eventcode": 160,
    "quadclass": 4,
    "nummentions": 14,
    "numsources": 2,
    "numarticles": 14,
    "avgtone": "1.64982821376331",
    "sourceurl": "http://www.google.com/hostednews/afp/article/ALeqM5j7ib7iAJwvlCTqsO7pHj8T5OOTVg?docId=CNG.a84c0d48b9cd43ff7fac08678ddbfa10.161",
    "feature_id": "531871",
    "feature_name": "Washington",
    "state_alpha": "DC",
    "county_name": "District of Columbia",
    "county_numeric": "001",
    "prim_lat_dec": "38.8951118",
    "prim_long_dec": "-77.0363658",
    "elev_in_m": "7",
    "elev_in_ft": "23",
    "lat": 38.8951118,
    "long": -77.0363658
  },
  {
    "globaleventid": 257459633,
    "sqldate": 20130625,
    "monthyear": 201306,
    "year": 2013,
    "fractiondate": "2013.4795",
    "eventcode": 138,
    "quadclass": 3,
    "nummentions": 1,
    "numsources": 1,
    "numarticles": 1,
    "avgtone": "2.00501253132832",
    "sourceurl": "http://en.apa.az/xeber_kerry__terrorists_might_attack_us_becaus_195345.html",
    "feature_id": "531871",
    "feature_name": "Washington",
    "state_alpha": "DC",
    "county_name": "District of Columbia",
    "county_numeric": "001",
    "prim_lat_dec": "38.8951118",
    "prim_long_dec": "-77.0363658",
    "elev_in_m": "7",
    "elev_in_ft": "23",
    "lat": 38.8951118,
    "long": -77.0363658
  },
  {
    "globaleventid": 257459630,
    "sqldate": 20130625,
    "monthyear": 201306,
    "year": 2013,
    "fractiondate": "2013.4795",
    "eventcode": 111,
    "quadclass": 3,
    "nummentions": 8,
    "numsources": 1,
    "numarticles": 8,
    "avgtone": "1.69491525423729",
    "sourceurl": "http://www.mmegi.bw/index.php?sid=11&aid=928&dir=2013/June/Monday24",
    "feature_id": "531871",
    "feature_name": "Washington",
    "state_alpha": "DC",
    "county_name": "District of Columbia",
    "county_numeric": "001",
    "prim_lat_dec": "38.8951118",
    "prim_long_dec": "-77.0363658",
    "elev_in_m": "7",
    "elev_in_ft": "23",
    "lat": 38.8951118,
    "long": -77.0363658
  },
  {
    "globaleventid": 257459606,
    "sqldate": 20130625,
    "monthyear": 201306,
    "year": 2013,
    "fractiondate": "2013.4795",
    "eventcode": 112,
    "quadclass": 3,
    "nummentions": 2,
    "numsources": 1,
    "numarticles": 2,
    "avgtone": "4.06091370558376",
    "sourceurl": "http://www.theamericanconservative.com/articles/turkish-spring/",
    "feature_id": "531871",
    "feature_name": "Washington",
    "state_alpha": "DC",
    "county_name": "District of Columbia",
    "county_numeric": "001",
    "prim_lat_dec": "38.8951118",
    "prim_long_dec": "-77.0363658",
    "elev_in_m": "7",
    "elev_in_ft": "23",
    "lat": 38.8951118,
    "long": -77.0363658
  },
  {
    "globaleventid": 257459509,
    "sqldate": 20130625,
    "monthyear": 201306,
    "year": 2013,
    "fractiondate": "2013.4795",
    "eventcode": 141,
    "quadclass": 3,
    "nummentions": 2,
    "numsources": 1,
    "numarticles": 2,
    "avgtone": "2.20082530949106",
    "sourceurl": "http://www.theintelligencer.net/page/content.detail/id/329378/W-Va--parents-cancel-protest-over-daughter-s-body-.html?isap=1&nav=535&c=HHrlEIBAoaf6sD2rio2kepI3o7YUxVkh2MRR1U8KGCU&mkt=en-us",
    "feature_id": "1555020",
    "feature_name": "Macdale",
    "state_alpha": "WV",
    "county_name": "Monongalia",
    "county_numeric": "061",
    "prim_lat_dec": "39.7192454",
    "prim_long_dec": "-80.2331276",
    "elev_in_m": "304",
    "elev_in_ft": "997",
    "lat": 39.7192454,
    "long": -80.2331276
  },
  {
    "globaleventid": 257459486,
    "sqldate": 20130625,
    "monthyear": 201306,
    "year": 2013,
    "fractiondate": "2013.4795",
    "eventcode": 111,
    "quadclass": 3,
    "nummentions": 4,
    "numsources": 2,
    "numarticles": 4,
    "avgtone": "5.2599709650573",
    "sourceurl": "http://www.dfwcatholic.org/threat-to-one-faith-endangers-freedom-for-all-warn-leaders-97070/.html",
    "feature_id": "531871",
    "feature_name": "Washington",
    "state_alpha": "DC",
    "county_name": "District of Columbia",
    "county_numeric": "001",
    "prim_lat_dec": "38.8951118",
    "prim_long_dec": "-77.0363658",
    "elev_in_m": "7",
    "elev_in_ft": "23",
    "lat": 38.8951118,
    "long": -77.0363658
  },
  {
    "globaleventid": 257459374,
    "sqldate": 20130625,
    "monthyear": 201306,
    "year": 2013,
    "fractiondate": "2013.4795",
    "eventcode": 190,
    "quadclass": 4,
    "nummentions": 1,
    "numsources": 1,
    "numarticles": 1,
    "avgtone": "2.99032541776605",
    "sourceurl": "http://www.advocate-news.com/ci_23526583/analysis-obama-snowden?source=most_viewed",
    "feature_id": "531871",
    "feature_name": "Washington",
    "state_alpha": "DC",
    "county_name": "District of Columbia",
    "county_numeric": "001",
    "prim_lat_dec": "38.8951118",
    "prim_long_dec": "-77.0363658",
    "elev_in_m": "7",
    "elev_in_ft": "23",
    "lat": 38.8951118,
    "long": -77.0363658
  },
  {
    "globaleventid": 257459371,
    "sqldate": 20130625,
    "monthyear": 201306,
    "year": 2013,
    "fractiondate": "2013.4795",
    "eventcode": 180,
    "quadclass": 4,
    "nummentions": 2,
    "numsources": 1,
    "numarticles": 2,
    "avgtone": "1.63934426229508",
    "sourceurl": "http://bangordailynews.com/2013/06/25/news/nation/putin-says-nsa-whistleblower-edward-snowden-still-at-moscow-airport-signals-no-extradition/?ref=latest",
    "feature_id": "531871",
    "feature_name": "Washington",
    "state_alpha": "DC",
    "county_name": "District of Columbia",
    "county_numeric": "001",
    "prim_lat_dec": "38.8951118",
    "prim_long_dec": "-77.0363658",
    "elev_in_m": "7",
    "elev_in_ft": "23",
    "lat": 38.8951118,
    "long": -77.0363658
  },
  {
    "globaleventid": 257459360,
    "sqldate": 20130625,
    "monthyear": 201306,
    "year": 2013,
    "fractiondate": "2013.4795",
    "eventcode": 174,
    "quadclass": 4,
    "nummentions": 8,
    "numsources": 5,
    "numarticles": 8,
    "avgtone": "2.64043966722968",
    "sourceurl": "http://tech2.in.com/news/general/the-snowden-effect-us-spies-say-militants-change-tactics/897516",
    "feature_id": "531871",
    "feature_name": "Washington",
    "state_alpha": "DC",
    "county_name": "District of Columbia",
    "county_numeric": "001",
    "prim_lat_dec": "38.8951118",
    "prim_long_dec": "-77.0363658",
    "elev_in_m": "7",
    "elev_in_ft": "23",
    "lat": 38.8951118,
    "long": -77.0363658
  },
  {
    "globaleventid": 257459346,
    "sqldate": 20130625,
    "monthyear": 201306,
    "year": 2013,
    "fractiondate": "2013.4795",
    "eventcode": 173,
    "quadclass": 4,
    "nummentions": 6,
    "numsources": 5,
    "numarticles": 6,
    "avgtone": "2.51118049937367",
    "sourceurl": "http://www.reuters.com/article/2013/06/25/us-usa-security-putin-idUSBRE95O0VE20130625?feedType=RSS&feedName=topNews",
    "feature_id": "531871",
    "feature_name": "Washington",
    "state_alpha": "DC",
    "county_name": "District of Columbia",
    "county_numeric": "001",
    "prim_lat_dec": "38.8951118",
    "prim_long_dec": "-77.0363658",
    "elev_in_m": "7",
    "elev_in_ft": "23",
    "lat": 38.8951118,
    "long": -77.0363658
  },
  {
    "globaleventid": 257459341,
    "sqldate": 20130625,
    "monthyear": 201306,
    "year": 2013,
    "fractiondate": "2013.4795",
    "eventcode": 172,
    "quadclass": 4,
    "nummentions": 32,
    "numsources": 28,
    "numarticles": 32,
    "avgtone": "1.03872236205127",
    "sourceurl": "http://www.wtsp.com/news/national/article/322218/81/Russia-rejects-US-demand-for-Snowdens-extradition",
    "feature_id": "531871",
    "feature_name": "Washington",
    "state_alpha": "DC",
    "county_name": "District of Columbia",
    "county_numeric": "001",
    "prim_lat_dec": "38.8951118",
    "prim_long_dec": "-77.0363658",
    "elev_in_m": "7",
    "elev_in_ft": "23",
    "lat": 38.8951118,
    "long": -77.0363658
  },
  {
    "globaleventid": 257459334,
    "sqldate": 20130625,
    "monthyear": 201306,
    "year": 2013,
    "fractiondate": "2013.4795",
    "eventcode": 1712,
    "quadclass": 4,
    "nummentions": 1,
    "numsources": 1,
    "numarticles": 1,
    "avgtone": "1.26582278481013",
    "sourceurl": "http://gulfnews.com/news/world/other-world/russia-china-reject-us-pressure-on-snowden-1.1201864",
    "feature_id": "531871",
    "feature_name": "Washington",
    "state_alpha": "DC",
    "county_name": "District of Columbia",
    "county_numeric": "001",
    "prim_lat_dec": "38.8951118",
    "prim_long_dec": "-77.0363658",
    "elev_in_m": "7",
    "elev_in_ft": "23",
    "lat": 38.8951118,
    "long": -77.0363658
  },
  {
    "globaleventid": 257459316,
    "sqldate": 20130625,
    "monthyear": 201306,
    "year": 2013,
    "fractiondate": "2013.4795",
    "eventcode": 130,
    "quadclass": 3,
    "nummentions": 1,
    "numsources": 1,
    "numarticles": 1,
    "avgtone": "1.18694362017804",
    "sourceurl": "http://www.sanduskyregister.com/article/government-spying-americans/4202456",
    "feature_id": "531871",
    "feature_name": "Washington",
    "state_alpha": "DC",
    "county_name": "District of Columbia",
    "county_numeric": "001",
    "prim_lat_dec": "38.8951118",
    "prim_long_dec": "-77.0363658",
    "elev_in_m": "7",
    "elev_in_ft": "23",
    "lat": 38.8951118,
    "long": -77.0363658
  },
  {
    "globaleventid": 257459307,
    "sqldate": 20130625,
    "monthyear": 201306,
    "year": 2013,
    "fractiondate": "2013.4795",
    "eventcode": 120,
    "quadclass": 3,
    "nummentions": 24,
    "numsources": 10,
    "numarticles": 22,
    "avgtone": "1.83490247747297",
    "sourceurl": "http://www.detroitnews.com/article/20130624/NATION/306240046",
    "feature_id": "531871",
    "feature_name": "Washington",
    "state_alpha": "DC",
    "county_name": "District of Columbia",
    "county_numeric": "001",
    "prim_lat_dec": "38.8951118",
    "prim_long_dec": "-77.0363658",
    "elev_in_m": "7",
    "elev_in_ft": "23",
    "lat": 38.8951118,
    "long": -77.0363658
  },
  {
    "globaleventid": 257459295,
    "sqldate": 20130625,
    "monthyear": 201306,
    "year": 2013,
    "fractiondate": "2013.4795",
    "eventcode": 1122,
    "quadclass": 3,
    "nummentions": 12,
    "numsources": 1,
    "numarticles": 12,
    "avgtone": "2.16299880339212",
    "sourceurl": "http://www.huffingtonpost.ca/2013/06/25/edward-snowden_n_3494799.html",
    "feature_id": "531871",
    "feature_name": "Washington",
    "state_alpha": "DC",
    "county_name": "District of Columbia",
    "county_numeric": "001",
    "prim_lat_dec": "38.8951118",
    "prim_long_dec": "-77.0363658",
    "elev_in_m": "7",
    "elev_in_ft": "23",
    "lat": 38.8951118,
    "long": -77.0363658
  },
  {
    "globaleventid": 257459285,
    "sqldate": 20130625,
    "monthyear": 201306,
    "year": 2013,
    "fractiondate": "2013.4795",
    "eventcode": 112,
    "quadclass": 3,
    "nummentions": 5,
    "numsources": 3,
    "numarticles": 5,
    "avgtone": "1.82406118139938",
    "sourceurl": "http://www.euronews.com/2013/06/25/putin-snowden-in-russia-will-not-be-extradited-to-us/",
    "feature_id": "531871",
    "feature_name": "Washington",
    "state_alpha": "DC",
    "county_name": "District of Columbia",
    "county_numeric": "001",
    "prim_lat_dec": "38.8951118",
    "prim_long_dec": "-77.0363658",
    "elev_in_m": "7",
    "elev_in_ft": "23",
    "lat": 38.8951118,
    "long": -77.0363658
  },
  {
    "globaleventid": 257459274,
    "sqldate": 20130625,
    "monthyear": 201306,
    "year": 2013,
    "fractiondate": "2013.4795",
    "eventcode": 111,
    "quadclass": 3,
    "nummentions": 14,
    "numsources": 2,
    "numarticles": 14,
    "avgtone": "1.74431732650911",
    "sourceurl": "http://www.thedailystar.net/beta2/news/washington-voices-anger-over-snowden/",
    "feature_id": "531871",
    "feature_name": "Washington",
    "state_alpha": "DC",
    "county_name": "District of Columbia",
    "county_numeric": "001",
    "prim_lat_dec": "38.8951118",
    "prim_long_dec": "-77.0363658",
    "elev_in_m": "7",
    "elev_in_ft": "23",
    "lat": 38.8951118,
    "long": -77.0363658
  },
  {
    "globaleventid": 257459236,
    "sqldate": 20130625,
    "monthyear": 201306,
    "year": 2013,
    "fractiondate": "2013.4795",
    "eventcode": 100,
    "quadclass": 3,
    "nummentions": 32,
    "numsources": 3,
    "numarticles": 32,
    "avgtone": "2.76955024551762",
    "sourceurl": "http://www.haaretz.com/news/world/u-s-steps-up-pressure-on-russia-to-turn-over-snowden-1.531915?localLinksEnabled=false",
    "feature_id": "531871",
    "feature_name": "Washington",
    "state_alpha": "DC",
    "county_name": "District of Columbia",
    "county_numeric": "001",
    "prim_lat_dec": "38.8951118",
    "prim_long_dec": "-77.0363658",
    "elev_in_m": "7",
    "elev_in_ft": "23",
    "lat": 38.8951118,
    "long": -77.0363658
  },
  {
    "globaleventid": 257458936,
    "sqldate": 20130625,
    "monthyear": 201306,
    "year": 2013,
    "fractiondate": "2013.4795",
    "eventcode": 1821,
    "quadclass": 4,
    "nummentions": 1,
    "numsources": 1,
    "numarticles": 1,
    "avgtone": "1.81818181818182",
    "sourceurl": "http://www.star-telegram.com/2013/06/25/4963464/is-wendy-davis-ready-for-a-bigger.html",
    "feature_id": "1372320",
    "feature_name": "Arlington",
    "state_alpha": "TX",
    "county_name": "Tarrant",
    "county_numeric": "439",
    "prim_lat_dec": "32.735687",
    "prim_long_dec": "-97.1080656",
    "elev_in_m": "184",
    "elev_in_ft": "604",
    "lat": 32.735687,
    "long": -97.1080656
  },
  {
    "globaleventid": 257458935,
    "sqldate": 20130625,
    "monthyear": 201306,
    "year": 2013,
    "fractiondate": "2013.4795",
    "eventcode": 1821,
    "quadclass": 4,
    "nummentions": 1,
    "numsources": 1,
    "numarticles": 1,
    "avgtone": "1.81818181818182",
    "sourceurl": "http://www.star-telegram.com/2013/06/25/4963464/is-wendy-davis-ready-for-a-bigger.html",
    "feature_id": "1372320",
    "feature_name": "Arlington",
    "state_alpha": "TX",
    "county_name": "Tarrant",
    "county_numeric": "439",
    "prim_lat_dec": "32.735687",
    "prim_long_dec": "-97.1080656",
    "elev_in_m": "184",
    "elev_in_ft": "604",
    "lat": 32.735687,
    "long": -97.1080656
  },
  {
    "globaleventid": 257458934,
    "sqldate": 20130625,
    "monthyear": 201306,
    "year": 2013,
    "fractiondate": "2013.4795",
    "eventcode": 180,
    "quadclass": 4,
    "nummentions": 2,
    "numsources": 1,
    "numarticles": 2,
    "avgtone": "1.06382978723404",
    "sourceurl": "http://www.krdo.com/news/a-co-springs-priest-accused-of-sex-assualt-on-trial/-/417220/20714978/-/itwmdc/-/index.html",
    "feature_id": "204797",
    "feature_name": "Colorado Springs",
    "state_alpha": "CO",
    "county_name": "El Paso",
    "county_numeric": "041",
    "prim_lat_dec": "38.8338816",
    "prim_long_dec": "-104.8213634",
    "elev_in_m": "1832",
    "elev_in_ft": "6010",
    "lat": 38.8338816,
    "long": -104.8213634
  },
  {
    "globaleventid": 257458933,
    "sqldate": 20130625,
    "monthyear": 201306,
    "year": 2013,
    "fractiondate": "2013.4795",
    "eventcode": 112,
    "quadclass": 3,
    "nummentions": 2,
    "numsources": 1,
    "numarticles": 2,
    "avgtone": "1.06382978723404",
    "sourceurl": "http://www.krdo.com/news/a-co-springs-priest-accused-of-sex-assualt-on-trial/-/417220/20714978/-/itwmdc/-/index.html",
    "feature_id": "204797",
    "feature_name": "Colorado Springs",
    "state_alpha": "CO",
    "county_name": "El Paso",
    "county_numeric": "041",
    "prim_lat_dec": "38.8338816",
    "prim_long_dec": "-104.8213634",
    "elev_in_m": "1832",
    "elev_in_ft": "6010",
    "lat": 38.8338816,
    "long": -104.8213634
  },
  {
    "globaleventid": 257458897,
    "sqldate": 20130625,
    "monthyear": 201306,
    "year": 2013,
    "fractiondate": "2013.4795",
    "eventcode": 125,
    "quadclass": 3,
    "nummentions": 2,
    "numsources": 1,
    "numarticles": 2,
    "avgtone": "3.2051282051282",
    "sourceurl": "http://www.euronews.com/newswires/2003538-obama-karzai-reaffirm-afghan-led-peace-process-with-taliban-white-house/",
    "feature_id": "531871",
    "feature_name": "Washington",
    "state_alpha": "DC",
    "county_name": "District of Columbia",
    "county_numeric": "001",
    "prim_lat_dec": "38.8951118",
    "prim_long_dec": "-77.0363658",
    "elev_in_m": "7",
    "elev_in_ft": "23",
    "lat": 38.8951118,
    "long": -77.0363658
  },
  {
    "globaleventid": 257458882,
    "sqldate": 20130625,
    "monthyear": 201306,
    "year": 2013,
    "fractiondate": "2013.4795",
    "eventcode": 130,
    "quadclass": 3,
    "nummentions": 4,
    "numsources": 1,
    "numarticles": 4,
    "avgtone": "4.00271370420624",
    "sourceurl": "http://minivannews.com/politics/political-parties-condemn-escalation-of-paint-war-as-capital-temporarily-turned-pink-and-yellow-59615",
    "feature_id": "531871",
    "feature_name": "Washington",
    "state_alpha": "DC",
    "county_name": "District of Columbia",
    "county_numeric": "001",
    "prim_lat_dec": "38.8951118",
    "prim_long_dec": "-77.0363658",
    "elev_in_m": "7",
    "elev_in_ft": "23",
    "lat": 38.8951118,
    "long": -77.0363658
  },
  {
    "globaleventid": 257458879,
    "sqldate": 20130625,
    "monthyear": 201306,
    "year": 2013,
    "fractiondate": "2013.4795",
    "eventcode": 112,
    "quadclass": 3,
    "nummentions": 3,
    "numsources": 1,
    "numarticles": 3,
    "avgtone": "2.32558139534884",
    "sourceurl": "http://www.laht.com/article.asp?ArticleId=820348&CategoryId=14091",
    "feature_id": "295004",
    "feature_name": "Miami",
    "state_alpha": "FL",
    "county_name": "Miami-Dade",
    "county_numeric": "086",
    "prim_lat_dec": "25.7742658",
    "prim_long_dec": "-80.1936589",
    "elev_in_m": "2",
    "elev_in_ft": "7",
    "lat": 25.7742658,
    "long": -80.1936589
  },
  {
    "globaleventid": 257458794,
    "sqldate": 20130625,
    "monthyear": 201306,
    "year": 2013,
    "fractiondate": "2013.4795",
    "eventcode": 190,
    "quadclass": 4,
    "nummentions": 8,
    "numsources": 1,
    "numarticles": 8,
    "avgtone": "0.775193798449612",
    "sourceurl": "http://www.nbcmiami.com/news/Haitian-Infant-Needs-Funds-for-Surgery-in-Miami-to-Remove-Large-Growth-212988401.html",
    "feature_id": "295004",
    "feature_name": "Miami",
    "state_alpha": "FL",
    "county_name": "Miami-Dade",
    "county_numeric": "086",
    "prim_lat_dec": "25.7742658",
    "prim_long_dec": "-80.1936589",
    "elev_in_m": "2",
    "elev_in_ft": "7",
    "lat": 25.7742658,
    "long": -80.1936589
  },
  {
    "globaleventid": 257458793,
    "sqldate": 20130625,
    "monthyear": 201306,
    "year": 2013,
    "fractiondate": "2013.4795",
    "eventcode": 190,
    "quadclass": 4,
    "nummentions": 2,
    "numsources": 1,
    "numarticles": 2,
    "avgtone": "0.775193798449612",
    "sourceurl": "http://www.nbcmiami.com/news/Haitian-Infant-Needs-Funds-for-Surgery-in-Miami-to-Remove-Large-Growth-212988401.html",
    "feature_id": "295004",
    "feature_name": "Miami",
    "state_alpha": "FL",
    "county_name": "Miami-Dade",
    "county_numeric": "086",
    "prim_lat_dec": "25.7742658",
    "prim_long_dec": "-80.1936589",
    "elev_in_m": "2",
    "elev_in_ft": "7",
    "lat": 25.7742658,
    "long": -80.1936589
  },
  {
    "globaleventid": 257458792,
    "sqldate": 20130625,
    "monthyear": 201306,
    "year": 2013,
    "fractiondate": "2013.4795",
    "eventcode": 172,
    "quadclass": 4,
    "nummentions": 10,
    "numsources": 1,
    "numarticles": 10,
    "avgtone": "3.68098159509202",
    "sourceurl": "http://www.hometownstations.com/story/22685614/ohio-house-committee-approves-traffic-camera-ban",
    "feature_id": "1066654",
    "feature_name": "Cleveland",
    "state_alpha": "OH",
    "county_name": "Cuyahoga",
    "county_numeric": "035",
    "prim_lat_dec": "41.4994954",
    "prim_long_dec": "-81.6954088",
    "elev_in_m": "199",
    "elev_in_ft": "653",
    "lat": 41.4994954,
    "long": -81.6954088
  },
  {
    "globaleventid": 257458769,
    "sqldate": 20130625,
    "monthyear": 201306,
    "year": 2013,
    "fractiondate": "2013.4795",
    "eventcode": 100,
    "quadclass": 3,
    "nummentions": 24,
    "numsources": 2,
    "numarticles": 24,
    "avgtone": "1.40856239272816",
    "sourceurl": "http://www.usatoday.com/story/news/world/2013/06/25/ammonium-nitrate-potassium-chlorate-ieds-afghanistan/2442191/?utm_source=feedburner&utm_medium=feed&utm_campaign=Feed%3A+UsatodaycomWorld-TopStories+%28News+-+World+-+Top+Stories%29",
    "feature_id": "531871",
    "feature_name": "Washington",
    "state_alpha": "DC",
    "county_name": "District of Columbia",
    "county_numeric": "001",
    "prim_lat_dec": "38.8951118",
    "prim_long_dec": "-77.0363658",
    "elev_in_m": "7",
    "elev_in_ft": "23",
    "lat": 38.8951118,
    "long": -77.0363658
  },
  {
    "globaleventid": 257458729,
    "sqldate": 20130625,
    "monthyear": 201306,
    "year": 2013,
    "fractiondate": "2013.4795",
    "eventcode": 173,
    "quadclass": 4,
    "nummentions": 2,
    "numsources": 1,
    "numarticles": 2,
    "avgtone": "1.21951219512195",
    "sourceurl": "http://www.blackmountainnews.com/article/20130624/NEWS/130624014/Asheville-protesters-arrested-Raleigh",
    "feature_id": "1005554",
    "feature_name": "Carolina",
    "state_alpha": "NC",
    "county_name": "Gaston",
    "county_numeric": "071",
    "prim_lat_dec": "35.3884665",
    "prim_long_dec": "-81.3714737",
    "elev_in_m": "284",
    "elev_in_ft": "932",
    "lat": 35.3884665,
    "long": -81.3714737
  },
  {
    "globaleventid": 257458725,
    "sqldate": 20130625,
    "monthyear": 201306,
    "year": 2013,
    "fractiondate": "2013.4795",
    "eventcode": 130,
    "quadclass": 3,
    "nummentions": 18,
    "numsources": 2,
    "numarticles": 18,
    "avgtone": "3.04548195411096",
    "sourceurl": "http://www.lgbtqnation.com/2013/06/obama-walks-tight-rope-in-africa-by-cautiously-supporting-gay-rights/",
    "feature_id": "531871",
    "feature_name": "Washington",
    "state_alpha": "DC",
    "county_name": "District of Columbia",
    "county_numeric": "001",
    "prim_lat_dec": "38.8951118",
    "prim_long_dec": "-77.0363658",
    "elev_in_m": "7",
    "elev_in_ft": "23",
    "lat": 38.8951118,
    "long": -77.0363658
  },
  {
    "globaleventid": 257458722,
    "sqldate": 20130625,
    "monthyear": 201306,
    "year": 2013,
    "fractiondate": "2013.4795",
    "eventcode": 112,
    "quadclass": 3,
    "nummentions": 6,
    "numsources": 1,
    "numarticles": 6,
    "avgtone": "3.34486735870819",
    "sourceurl": "http://rbth.asia/news/2013/06/25/china_seen_as_winner_in_snowden_incident_47537.html",
    "feature_id": "531871",
    "feature_name": "Washington",
    "state_alpha": "DC",
    "county_name": "District of Columbia",
    "county_numeric": "001",
    "prim_lat_dec": "38.8951118",
    "prim_long_dec": "-77.0363658",
    "elev_in_m": "7",
    "elev_in_ft": "23",
    "lat": 38.8951118,
    "long": -77.0363658
  },
  {
    "globaleventid": 257458717,
    "sqldate": 20130625,
    "monthyear": 201306,
    "year": 2013,
    "fractiondate": "2013.4795",
    "eventcode": 112,
    "quadclass": 3,
    "nummentions": 26,
    "numsources": 3,
    "numarticles": 26,
    "avgtone": "1.88637273657517",
    "sourceurl": "http://www.vcstar.com/news/2013/jun/25/man-faces-charges-after-michigan-oil-line/",
    "feature_id": "450931",
    "feature_name": "Fredonia",
    "state_alpha": "IN",
    "county_name": "Crawford",
    "county_numeric": "025",
    "prim_lat_dec": "38.1781198",
    "prim_long_dec": "-86.3830336",
    "elev_in_m": "202",
    "elev_in_ft": "663",
    "lat": 38.1781198,
    "long": -86.3830336
  },
  {
    "globaleventid": 257458716,
    "sqldate": 20130625,
    "monthyear": 201306,
    "year": 2013,
    "fractiondate": "2013.4795",
    "eventcode": 111,
    "quadclass": 3,
    "nummentions": 6,
    "numsources": 1,
    "numarticles": 6,
    "avgtone": "3.34486735870819",
    "sourceurl": "http://rbth.asia/news/2013/06/25/china_seen_as_winner_in_snowden_incident_47537.html",
    "feature_id": "531871",
    "feature_name": "Washington",
    "state_alpha": "DC",
    "county_name": "District of Columbia",
    "county_numeric": "001",
    "prim_lat_dec": "38.8951118",
    "prim_long_dec": "-77.0363658",
    "elev_in_m": "7",
    "elev_in_ft": "23",
    "lat": 38.8951118,
    "long": -77.0363658
  },
  {
    "globaleventid": 257454290,
    "sqldate": 20130625,
    "monthyear": 201306,
    "year": 2013,
    "fractiondate": "2013.4795",
    "eventcode": 100,
    "quadclass": 3,
    "nummentions": 2,
    "numsources": 1,
    "numarticles": 2,
    "avgtone": "2.49632892804699",
    "sourceurl": "http://www.washingtonpost.com/business/on-small-business/small-business-wisdom-from-twitters-jack-dorsey-5-tips-for-entrepreneurs/2013/06/24/216ff9bc-d9f5-11e2-a9f2-42ee3912ae0e_story.html?wprss=rss_business",
    "feature_id": "531871",
    "feature_name": "Washington",
    "state_alpha": "DC",
    "county_name": "District of Columbia",
    "county_numeric": "001",
    "prim_lat_dec": "38.8951118",
    "prim_long_dec": "-77.0363658",
    "elev_in_m": "7",
    "elev_in_ft": "23",
    "lat": 38.8951118,
    "long": -77.0363658
  },
  {
    "globaleventid": 257453910,
    "sqldate": 20130625,
    "monthyear": 201306,
    "year": 2013,
    "fractiondate": "2013.4795",
    "eventcode": 111,
    "quadclass": 3,
    "nummentions": 4,
    "numsources": 1,
    "numarticles": 4,
    "avgtone": "0.31055900621118",
    "sourceurl": "http://www.huffingtonpost.com/2013/06/25/north-carolina-moral-monday_n_3497955.html",
    "feature_id": "1005554",
    "feature_name": "Carolina",
    "state_alpha": "NC",
    "county_name": "Gaston",
    "county_numeric": "071",
    "prim_lat_dec": "35.3884665",
    "prim_long_dec": "-81.3714737",
    "elev_in_m": "284",
    "elev_in_ft": "932",
    "lat": 35.3884665,
    "long": -81.3714737
  },
  {
    "globaleventid": 257453867,
    "sqldate": 20130625,
    "monthyear": 201306,
    "year": 2013,
    "fractiondate": "2013.4795",
    "eventcode": 190,
    "quadclass": 4,
    "nummentions": 2,
    "numsources": 1,
    "numarticles": 2,
    "avgtone": "4.39952437574316",
    "sourceurl": "http://www.nola.com/politics/index.ssf/2013/06/supreme_court_overturns_key_pr.html",
    "feature_id": "1209052",
    "feature_name": "Philadelphia",
    "state_alpha": "PA",
    "county_name": "Philadelphia",
    "county_numeric": "101",
    "prim_lat_dec": "39.952335",
    "prim_long_dec": "-75.163789",
    "elev_in_m": "14",
    "elev_in_ft": "46",
    "lat": 39.952335,
    "long": -75.163789
  },
  {
    "globaleventid": 257453863,
    "sqldate": 20130625,
    "monthyear": 201306,
    "year": 2013,
    "fractiondate": "2013.4795",
    "eventcode": 174,
    "quadclass": 4,
    "nummentions": 2,
    "numsources": 1,
    "numarticles": 2,
    "avgtone": "2.21339387060159",
    "sourceurl": "http://usnews.nbcnews.com/_news/2013/06/25/19135687-supreme-court-rule-for-couple-over-baby-girls-adoption",
    "feature_id": "1655889",
    "feature_name": "Cherokee",
    "state_alpha": "CA",
    "county_name": "Butte",
    "county_numeric": "007",
    "prim_lat_dec": "39.6462739",
    "prim_long_dec": "-121.5383036",
    "elev_in_m": "398",
    "elev_in_ft": "1306",
    "lat": 39.6462739,
    "long": -121.5383036
  },
  {
    "globaleventid": 257453862,
    "sqldate": 20130625,
    "monthyear": 201306,
    "year": 2013,
    "fractiondate": "2013.4795",
    "eventcode": 174,
    "quadclass": 4,
    "nummentions": 2,
    "numsources": 1,
    "numarticles": 2,
    "avgtone": "2.21339387060159",
    "sourceurl": "http://usnews.nbcnews.com/_news/2013/06/25/19135687-supreme-court-rule-for-couple-over-baby-girls-adoption",
    "feature_id": "1655889",
    "feature_name": "Cherokee",
    "state_alpha": "CA",
    "county_name": "Butte",
    "county_numeric": "007",
    "prim_lat_dec": "39.6462739",
    "prim_long_dec": "-121.5383036",
    "elev_in_m": "398",
    "elev_in_ft": "1306",
    "lat": 39.6462739,
    "long": -121.5383036
  },
  {
    "globaleventid": 257453861,
    "sqldate": 20130625,
    "monthyear": 201306,
    "year": 2013,
    "fractiondate": "2013.4795",
    "eventcode": 130,
    "quadclass": 3,
    "nummentions": 20,
    "numsources": 2,
    "numarticles": 20,
    "avgtone": "5.2599709650573",
    "sourceurl": "http://www.dfwcatholic.org/threat-to-one-faith-endangers-freedom-for-all-warn-leaders-97070/.html",
    "feature_id": "531871",
    "feature_name": "Washington",
    "state_alpha": "DC",
    "county_name": "District of Columbia",
    "county_numeric": "001",
    "prim_lat_dec": "38.8951118",
    "prim_long_dec": "-77.0363658",
    "elev_in_m": "7",
    "elev_in_ft": "23",
    "lat": 38.8951118,
    "long": -77.0363658
  },
  {
    "globaleventid": 257453860,
    "sqldate": 20130625,
    "monthyear": 201306,
    "year": 2013,
    "fractiondate": "2013.4795",
    "eventcode": 120,
    "quadclass": 3,
    "nummentions": 1,
    "numsources": 1,
    "numarticles": 1,
    "avgtone": "3.59435173299101",
    "sourceurl": "http://www.oregonlive.com/opinion/index.ssf/2013/06/supreme_court_justice_samuel_a.html",
    "feature_id": "531871",
    "feature_name": "Washington",
    "state_alpha": "DC",
    "county_name": "District of Columbia",
    "county_numeric": "001",
    "prim_lat_dec": "38.8951118",
    "prim_long_dec": "-77.0363658",
    "elev_in_m": "7",
    "elev_in_ft": "23",
    "lat": 38.8951118,
    "long": -77.0363658
  },
  {
    "globaleventid": 257453859,
    "sqldate": 20130625,
    "monthyear": 201306,
    "year": 2013,
    "fractiondate": "2013.4795",
    "eventcode": 111,
    "quadclass": 3,
    "nummentions": 2,
    "numsources": 1,
    "numarticles": 2,
    "avgtone": "4.40613026819923",
    "sourceurl": "http://www.fox8live.com/story/22685930/local-proponents-of-the-voting-rights-act-react-to-partial-rejection",
    "feature_id": "1629985",
    "feature_name": "New Orleans",
    "state_alpha": "LA",
    "county_name": "Orleans",
    "county_numeric": "071",
    "prim_lat_dec": "29.9546482",
    "prim_long_dec": "-90.075072",
    "elev_in_m": "0",
    "elev_in_ft": "0",
    "lat": 29.9546482,
    "long": -90.075072
  },
  {
    "globaleventid": 257453800,
    "sqldate": 20130625,
    "monthyear": 201306,
    "year": 2013,
    "fractiondate": "2013.4795",
    "eventcode": 125,
    "quadclass": 3,
    "nummentions": 10,
    "numsources": 1,
    "numarticles": 10,
    "avgtone": "1.89873417721519",
    "sourceurl": "http://www.huffingtonpost.com/conn-hallinan/afghanistan-is-it-really-_b_3495430.html",
    "feature_id": "531871",
    "feature_name": "Washington",
    "state_alpha": "DC",
    "county_name": "District of Columbia",
    "county_numeric": "001",
    "prim_lat_dec": "38.8951118",
    "prim_long_dec": "-77.0363658",
    "elev_in_m": "7",
    "elev_in_ft": "23",
    "lat": 38.8951118,
    "long": -77.0363658
  },
  {
    "globaleventid": 257453751,
    "sqldate": 20130625,
    "monthyear": 201306,
    "year": 2013,
    "fractiondate": "2013.4795",
    "eventcode": 194,
    "quadclass": 4,
    "nummentions": 3,
    "numsources": 2,
    "numarticles": 3,
    "avgtone": "1.40856239272816",
    "sourceurl": "http://www.usatoday.com/story/news/world/2013/06/25/ammonium-nitrate-potassium-chlorate-ieds-afghanistan/2442191/?utm_source=feedburner&utm_medium=feed&utm_campaign=Feed%3A+UsatodaycomWorld-TopStories+%28News+-+World+-+Top+Stories%29",
    "feature_id": "531871",
    "feature_name": "Washington",
    "state_alpha": "DC",
    "county_name": "District of Columbia",
    "county_numeric": "001",
    "prim_lat_dec": "38.8951118",
    "prim_long_dec": "-77.0363658",
    "elev_in_m": "7",
    "elev_in_ft": "23",
    "lat": 38.8951118,
    "long": -77.0363658
  },
  {
    "globaleventid": 257453740,
    "sqldate": 20130625,
    "monthyear": 201306,
    "year": 2013,
    "fractiondate": "2013.4795",
    "eventcode": 138,
    "quadclass": 3,
    "nummentions": 2,
    "numsources": 1,
    "numarticles": 2,
    "avgtone": "2.22222222222222",
    "sourceurl": "http://www.dailyjournal.net/view/story/98530a1de511426a8466b9c844f3b0f9/CO--Soldiers-Memorial/",
    "feature_id": "204833",
    "feature_name": "Fort Carson",
    "state_alpha": "CO",
    "county_name": "El Paso",
    "county_numeric": "041",
    "prim_lat_dec": "38.7374943",
    "prim_long_dec": "-104.7888615",
    "elev_in_m": "1780",
    "elev_in_ft": "5840",
    "lat": 38.7374943,
    "long": -104.7888615
  },
  {
    "globaleventid": 257449048,
    "sqldate": 20130625,
    "monthyear": 201306,
    "year": 2013,
    "fractiondate": "2013.4795",
    "eventcode": 190,
    "quadclass": 4,
    "nummentions": 2,
    "numsources": 1,
    "numarticles": 2,
    "avgtone": "2.01923076923077",
    "sourceurl": "http://variety.com/2013/voices/news/filmmakers-turn-to-africas-nascent-lgbt-movements-1200501445/",
    "feature_id": "1662328",
    "feature_name": "Los Angeles",
    "state_alpha": "CA",
    "county_name": "Los Angeles",
    "county_numeric": "037",
    "prim_lat_dec": "34.0522342",
    "prim_long_dec": "-118.2436849",
    "elev_in_m": "89",
    "elev_in_ft": "292",
    "lat": 34.0522342,
    "long": -118.2436849
  },
  {
    "globaleventid": 257448824,
    "sqldate": 20130625,
    "monthyear": 201306,
    "year": 2013,
    "fractiondate": "2013.4795",
    "eventcode": 130,
    "quadclass": 3,
    "nummentions": 10,
    "numsources": 1,
    "numarticles": 10,
    "avgtone": "2.10631895687061",
    "sourceurl": "http://tech2.in.com/news/general/the-snowden-effect-us-spies-say-militants-change-tactics/897516",
    "feature_id": "531871",
    "feature_name": "Washington",
    "state_alpha": "DC",
    "county_name": "District of Columbia",
    "county_numeric": "001",
    "prim_lat_dec": "38.8951118",
    "prim_long_dec": "-77.0363658",
    "elev_in_m": "7",
    "elev_in_ft": "23",
    "lat": 38.8951118,
    "long": -77.0363658
  },
  {
    "globaleventid": 257448685,
    "sqldate": 20130625,
    "monthyear": 201306,
    "year": 2013,
    "fractiondate": "2013.4795",
    "eventcode": 193,
    "quadclass": 4,
    "nummentions": 2,
    "numsources": 1,
    "numarticles": 2,
    "avgtone": "1.20481927710843",
    "sourceurl": "http://www.dailymail.co.uk/news/article-2348615/Brave-widow-man-murdered-Whitey-Bulger-recounts-mobster-telling-missing-hubby-probably-just-robbing-banks.html?ITO=1490&ns_campaign=1490",
    "feature_id": "612854",
    "feature_name": "Winter Hill",
    "state_alpha": "MA",
    "county_name": "Middlesex",
    "county_numeric": "017",
    "prim_lat_dec": "42.39593",
    "prim_long_dec": "-71.0989412",
    "elev_in_m": "36",
    "elev_in_ft": "118",
    "lat": 42.39593,
    "long": -71.0989412
  },