[
  {
    "globaleventid": "259484672",
    "sqldate": "20130714",
    "monthyear": "201307",
    "year": "2013",
    "fractiondate": "2013.5315",
    "eventcode": "138",
    "quadclass": "3",
    "nummentions": "12",
    "numsources": "1",
    "numarticles": "12",
    "avgtone": "4.67706013363029",
    "sourceurl": "http://eon.businesswire.com/news/eon/20130714005015/en/Sand-Creek-Massacre-Descendants",
    "feature_id": "57967",
    "feature_name": "Indian",
    "state_alpha": "AR",
    "county_name": "Chicot",
    "county_numeric": "017",
    "prim_lat_dec": "33.0526",
    "prim_long_dec": "-91.2896",
    "elev_in_m": "41",
    "elev_in_ft": "135",
    "lat": 33.0526,
    "long": -91.2896
  },
  {
    "globaleventid": "259484670",
    "sqldate": "20130714",
    "monthyear": "201307",
    "year": "2013",
    "fractiondate": "2013.5315",
    "eventcode": "115",
    "quadclass": "3",
    "nummentions": "2",
    "numsources": "1",
    "numarticles": "2",
    "avgtone": "1.58045977011494",
    "sourceurl": "http://www.therepublic.com/view/story/63ed9f6515774f02ae18ffd9053b83d6/AZ--Failed-Wedding-Venue",
    "feature_id": "1661377",
    "feature_name": "San Diego",
    "state_alpha": "CA",
    "county_name": "San Diego",
    "county_numeric": "073",
    "prim_lat_dec": "32.7153",
    "prim_long_dec": "-117.157",
    "elev_in_m": "19",
    "elev_in_ft": "62",
    "lat": 32.7153,
    "long": -117.157
  },
  {
    "globaleventid": "259484669",
    "sqldate": "20130714",
    "monthyear": "201307",
    "year": "2013",
    "fractiondate": "2013.5315",
    "eventcode": "110",
    "quadclass": "3",
    "nummentions": "3",
    "numsources": "1",
    "numarticles": "3",
    "avgtone": "3.6036036036036",
    "sourceurl": "http://www.knoxfocus.com/2013/07/governor-prentice-cooper-chapter-iii/",
    "feature_id": "1326388",
    "feature_name": "Memphis",
    "state_alpha": "TN",
    "county_name": "Shelby",
    "county_numeric": "157",
    "prim_lat_dec": "35.1495",
    "prim_long_dec": "-90.049",
    "elev_in_m": "79",
    "elev_in_ft": "259",
    "lat": 35.1495,
    "long": -90.049
  },
  {
    "globaleventid": "259484668",
    "sqldate": "20130714",
    "monthyear": "201307",
    "year": "2013",
    "fractiondate": "2013.5315",
    "eventcode": "100",
    "quadclass": "3",
    "nummentions": "1",
    "numsources": "1",
    "numarticles": "1",
    "avgtone": "1.6141429669485",
    "sourceurl": "http://www.timesleader.com/apps/pbcs.dll/article?avis=TL&date=20130714&category=news&lopenr=307149937&Ref=AR&c=Zn7vMsOfD21tLTcBkWDKo3RYhpfGU89-yk_PtTUCBo4&mkt=en-us",
    "feature_id": "531871",
    "feature_name": "Washington",
    "state_alpha": "DC",
    "county_name": "District of Columbia",
    "county_numeric": "001",
    "prim_lat_dec": "38.8951",
    "prim_long_dec": "-77.0364",
    "elev_in_m": "7",
    "elev_in_ft": "23",
    "lat": 38.8951,
    "long": -77.0364
  },
  {
    "globaleventid": "259484667",
    "sqldate": "20130714",
    "monthyear": "201307",
    "year": "2013",
    "fractiondate": "2013.5315",
    "eventcode": "100",
    "quadclass": "3",
    "nummentions": "1",
    "numsources": "1",
    "numarticles": "1",
    "avgtone": "1.6141429669485",
    "sourceurl": "http://www.timesleader.com/apps/pbcs.dll/article?avis=TL&date=20130714&category=news&lopenr=307149937&Ref=AR&c=Zn7vMsOfD21tLTcBkWDKo3RYhpfGU89-yk_PtTUCBo4&mkt=en-us",
    "feature_id": "531871",
    "feature_name": "Washington",
    "state_alpha": "DC",
    "county_name": "District of Columbia",
    "county_numeric": "001",
    "prim_lat_dec": "38.8951",
    "prim_long_dec": "-77.0364",
    "elev_in_m": "7",
    "elev_in_ft": "23",
    "lat": 38.8951,
    "long": -77.0364
  },
  {
    "globaleventid": "259484640",
    "sqldate": "20130714",
    "monthyear": "201307",
    "year": "2013",
    "fractiondate": "2013.5315",
    "eventcode": "112",
    "quadclass": "3",
    "nummentions": "10",
    "numsources": "1",
    "numarticles": "10",
    "avgtone": "6.33484162895928",
    "sourceurl": "http://www.examiner.com/article/world-health-organization-accused-of-promoting-vaccines-to-benefit-manufacturers",
    "feature_id": "295004",
    "feature_name": "Miami",
    "state_alpha": "FL",
    "county_name": "Miami-Dade",
    "county_numeric": "086",
    "prim_lat_dec": "25.7743",
    "prim_long_dec": "-80.1937",
    "elev_in_m": "2",
    "elev_in_ft": "7",
    "lat": 25.7743,
    "long": -80.1937
  },
  {
    "globaleventid": "259484597",
    "sqldate": "20130714",
    "monthyear": "201307",
    "year": "2013",
    "fractiondate": "2013.5315",
    "eventcode": "190",
    "quadclass": "4",
    "nummentions": "4",
    "numsources": "2",
    "numarticles": "4",
    "avgtone": "1.03466386554622",
    "sourceurl": "http://www.newstimes.com/news/crime/article/2-arrested-in-death-of-man-found-in-Iowa-ditch-4664010.php",
    "feature_id": "459915",
    "feature_name": "Otho",
    "state_alpha": "IA",
    "county_name": "Webster",
    "county_numeric": "187",
    "prim_lat_dec": "42.4247",
    "prim_long_dec": "-94.1502",
    "elev_in_m": "342",
    "elev_in_ft": "1122",
    "lat": 42.4247,
    "long": -94.1502
  },
  {
    "globaleventid": "259484595",
    "sqldate": "20130714",
    "monthyear": "201307",
    "year": "2013",
    "fractiondate": "2013.5315",
    "eventcode": "1121",
    "quadclass": "3",
    "nummentions": "2",
    "numsources": "1",
    "numarticles": "2",
    "avgtone": "0.892857142857143",
    "sourceurl": "http://www.mysanantonio.com/news/crime/article/2-arrested-in-death-of-man-found-in-Iowa-ditch-4664010.php",
    "feature_id": "1380951",
    "feature_name": "San Antonio",
    "state_alpha": "TX",
    "county_name": "Bexar",
    "county_numeric": "029",
    "prim_lat_dec": "29.4241",
    "prim_long_dec": "-98.4936",
    "elev_in_m": "198",
    "elev_in_ft": "650",
    "lat": 29.4241,
    "long": -98.4936
  },
  {
    "globaleventid": "259484563",
    "sqldate": "20130714",
    "monthyear": "201307",
    "year": "2013",
    "fractiondate": "2013.5315",
    "eventcode": "172",
    "quadclass": "4",
    "nummentions": "2",
    "numsources": "1",
    "numarticles": "2",
    "avgtone": "0.598802395209581",
    "sourceurl": "http://www.ksfy.com/story/22836436/rapid-city-officials-no-interest-in-texting-ban",
    "feature_id": "1265333",
    "feature_name": "Rapid City",
    "state_alpha": "SD",
    "county_name": "Pennington",
    "county_numeric": "103",
    "prim_lat_dec": "44.0805",
    "prim_long_dec": "-103.231",
    "elev_in_m": "988",
    "elev_in_ft": "3241",
    "lat": 44.0805,
    "long": -103.231
  },
  {
    "globaleventid": "259484559",
    "sqldate": "20130714",
    "monthyear": "201307",
    "year": "2013",
    "fractiondate": "2013.5315",
    "eventcode": "138",
    "quadclass": "3",
    "nummentions": "12",
    "numsources": "2",
    "numarticles": "12",
    "avgtone": "4.5756112964288",
    "sourceurl": "http://www.heraldonline.com/2013/07/14/5019360/hunsucker-goodstein-announces.html",
    "feature_id": "57967",
    "feature_name": "Indian",
    "state_alpha": "AR",
    "county_name": "Chicot",
    "county_numeric": "017",
    "prim_lat_dec": "33.0526",
    "prim_long_dec": "-91.2896",
    "elev_in_m": "41",
    "elev_in_ft": "135",
    "lat": 33.0526,
    "long": -91.2896
  },
  {
    "globaleventid": "259484557",
    "sqldate": "20130714",
    "monthyear": "201307",
    "year": "2013",
    "fractiondate": "2013.5315",
    "eventcode": "138",
    "quadclass": "3",
    "nummentions": "18",
    "numsources": "2",
    "numarticles": "18",
    "avgtone": "4.59251943596238",
    "sourceurl": "http://www.heraldonline.com/2013/07/14/5019360/hunsucker-goodstein-announces.html",
    "feature_id": "201738",
    "feature_name": "Denver",
    "state_alpha": "CO",
    "county_name": "Denver",
    "county_numeric": "031",
    "prim_lat_dec": "39.7392",
    "prim_long_dec": "-104.985",
    "elev_in_m": "1609",
    "elev_in_ft": "5279",
    "lat": 39.7392,
    "long": -104.985
  },
  {
    "globaleventid": "259484545",
    "sqldate": "20130714",
    "monthyear": "201307",
    "year": "2013",
    "fractiondate": "2013.5315",
    "eventcode": "190",
    "quadclass": "4",
    "nummentions": "10",
    "numsources": "1",
    "numarticles": "10",
    "avgtone": "5.28233151183971",
    "sourceurl": "http://nwpr.org/post/motown-vietnam-civil-rights-movement-and-one-iconic-song",
    "feature_id": "1662328",
    "feature_name": "Los Angeles",
    "state_alpha": "CA",
    "county_name": "Los Angeles",
    "county_numeric": "037",
    "prim_lat_dec": "34.0522",
    "prim_long_dec": "-118.244",
    "elev_in_m": "89",
    "elev_in_ft": "292",
    "lat": 34.0522,
    "long": -118.244
  },
  {
    "globaleventid": "259484523",
    "sqldate": "20130714",
    "monthyear": "201307",
    "year": "2013",
    "fractiondate": "2013.5315",
    "eventcode": "160",
    "quadclass": "4",
    "nummentions": "1",
    "numsources": "1",
    "numarticles": "1",
    "avgtone": "2.37020316027088",
    "sourceurl": "http://www.cnn.com/2013/07/11/world/americas/latin-america-snowden-asylum/index.html?sr=sharebar_facebook&c=egIGR4alkPmXvQq0OF1sfytAKiZfyE4FvidUIlmmpEY&mkt=en-us",
    "feature_id": "531871",
    "feature_name": "Washington",
    "state_alpha": "DC",
    "county_name": "District of Columbia",
    "county_numeric": "001",
    "prim_lat_dec": "38.8951",
    "prim_long_dec": "-77.0364",
    "elev_in_m": "7",
    "elev_in_ft": "23",
    "lat": 38.8951,
    "long": -77.0364
  },
  {
    "globaleventid": "259484491",
    "sqldate": "20130714",
    "monthyear": "201307",
    "year": "2013",
    "fractiondate": "2013.5315",
    "eventcode": "193",
    "quadclass": "4",
    "nummentions": "1",
    "numsources": "1",
    "numarticles": "1",
    "avgtone": "2.26063829787234",
    "sourceurl": "http://www.texastribune.org/2013/07/14/greg-abbott-launches-campaign-governor/",
    "feature_id": "1380948",
    "feature_name": "Houston",
    "state_alpha": "TX",
    "county_name": "Harris",
    "county_numeric": "201",
    "prim_lat_dec": "29.7633",
    "prim_long_dec": "-95.3633",
    "elev_in_m": "11",
    "elev_in_ft": "36",
    "lat": 29.7633,
    "long": -95.3633
  },
  {
    "globaleventid": "259484490",
    "sqldate": "20130714",
    "monthyear": "201307",
    "year": "2013",
    "fractiondate": "2013.5315",
    "eventcode": "182",
    "quadclass": "4",
    "nummentions": "2",
    "numsources": "1",
    "numarticles": "2",
    "avgtone": "5.45454545454545",
    "sourceurl": "http://www.myfoxdfw.com/story/22837689/a-second-candidate-for-governor-emerges",
    "feature_id": "1380951",
    "feature_name": "San Antonio",
    "state_alpha": "TX",
    "county_name": "Bexar",
    "county_numeric": "029",
    "prim_lat_dec": "29.4241",
    "prim_long_dec": "-98.4936",
    "elev_in_m": "198",
    "elev_in_ft": "650",
    "lat": 29.4241,
    "long": -98.4936
  },
  {
    "globaleventid": "259484459",
    "sqldate": "20130714",
    "monthyear": "201307",
    "year": "2013",
    "fractiondate": "2013.5315",
    "eventcode": "141",
    "quadclass": "3",
    "nummentions": "2",
    "numsources": "1",
    "numarticles": "2",
    "avgtone": "2.51141552511416",
    "sourceurl": "http://www.columbian.com/news/2013/jul/14/rallies-against-zimmerman-verdict-being-held-in-us/",
    "feature_id": "295427",
    "feature_name": "Manhattan",
    "state_alpha": "FL",
    "county_name": "Manatee",
    "county_numeric": "081",
    "prim_lat_dec": "27.5075",
    "prim_long_dec": "-82.3187",
    "elev_in_m": "22",
    "elev_in_ft": "72",
    "lat": 27.5075,
    "long": -82.3187
  },
  {
    "globaleventid": "259484458",
    "sqldate": "20130714",
    "monthyear": "201307",
    "year": "2013",
    "fractiondate": "2013.5315",
    "eventcode": "141",
    "quadclass": "3",
    "nummentions": "2",
    "numsources": "1",
    "numarticles": "2",
    "avgtone": "2.51141552511416",
    "sourceurl": "http://www.columbian.com/news/2013/jul/14/rallies-against-zimmerman-verdict-being-held-in-us/",
    "feature_id": "1660721",
    "feature_name": "Harlem",
    "state_alpha": "CA",
    "county_name": "Monterey",
    "county_numeric": "053",
    "prim_lat_dec": "36.3991",
    "prim_long_dec": "-121.254",
    "elev_in_m": "70",
    "elev_in_ft": "230",
    "lat": 36.3991,
    "long": -121.254
  },
  {
    "globaleventid": "259484455",
    "sqldate": "20130714",
    "monthyear": "201307",
    "year": "2013",
    "fractiondate": "2013.5315",
    "eventcode": "141",
    "quadclass": "3",
    "nummentions": "1",
    "numsources": "1",
    "numarticles": "1",
    "avgtone": "1.88679245283019",
    "sourceurl": "http://www.cp24.com/world/acquittal-in-trayvon-martin-death-sparks-protests-1.1366462",
    "feature_id": "277593",
    "feature_name": "San Francisco",
    "state_alpha": "CA",
    "county_name": "San Francisco",
    "county_numeric": "075",
    "prim_lat_dec": "37.775",
    "prim_long_dec": "-122.419",
    "elev_in_m": "16",
    "elev_in_ft": "52",
    "lat": 37.775,
    "long": -122.419
  },
  {
    "globaleventid": "259484454",
    "sqldate": "20130714",
    "monthyear": "201307",
    "year": "2013",
    "fractiondate": "2013.5315",
    "eventcode": "141",
    "quadclass": "3",
    "nummentions": "6",
    "numsources": "1",
    "numarticles": "6",
    "avgtone": "2.51141552511416",
    "sourceurl": "http://www.columbian.com/news/2013/jul/14/rallies-against-zimmerman-verdict-being-held-in-us/",
    "feature_id": "1660721",
    "feature_name": "Harlem",
    "state_alpha": "CA",
    "county_name": "Monterey",
    "county_numeric": "053",
    "prim_lat_dec": "36.3991",
    "prim_long_dec": "-121.254",
    "elev_in_m": "70",
    "elev_in_ft": "230",
    "lat": 36.3991,
    "long": -121.254
  },
  {
    "globaleventid": "259484447",
    "sqldate": "20130714",
    "monthyear": "201307",
    "year": "2013",
    "fractiondate": "2013.5315",
    "eventcode": "141",
    "quadclass": "3",
    "nummentions": "4",
    "numsources": "2",
    "numarticles": "4",
    "avgtone": "2.6465122927387",
    "sourceurl": "http://www.kentucky.com/2013/07/14/2714334/protesters-of-zimmerman-acquittal.html",
    "feature_id": "1732788",
    "feature_name": "Leimert Park",
    "state_alpha": "CA",
    "county_name": "Los Angeles",
    "county_numeric": "037",
    "prim_lat_dec": "34.007",
    "prim_long_dec": "-118.331",
    "elev_in_m": "37",
    "elev_in_ft": "121",
    "lat": 34.007,
    "long": -118.331
  },
  {
    "globaleventid": "259484445",
    "sqldate": "20130714",
    "monthyear": "201307",
    "year": "2013",
    "fractiondate": "2013.5315",
    "eventcode": "141",
    "quadclass": "3",
    "nummentions": "12",
    "numsources": "2",
    "numarticles": "12",
    "avgtone": "2.53988862628947",
    "sourceurl": "http://www.huffingtonpost.com/2013/07/14/zimmerman-verdict-protesters_n_3594276.html?utm_hp_ref=los-angeles&ir=Los%20Angeles",
    "feature_id": "1662328",
    "feature_name": "Los Angeles",
    "state_alpha": "CA",
    "county_name": "Los Angeles",
    "county_numeric": "037",
    "prim_lat_dec": "34.0522",
    "prim_long_dec": "-118.244",
    "elev_in_m": "89",
    "elev_in_ft": "292",
    "lat": 34.0522,
    "long": -118.244
  },
  {
    "globaleventid": "259484443",
    "sqldate": "20130714",
    "monthyear": "201307",
    "year": "2013",
    "fractiondate": "2013.5315",
    "eventcode": "110",
    "quadclass": "3",
    "nummentions": "3",
    "numsources": "3",
    "numarticles": "3",
    "avgtone": "1.90689386208699",
    "sourceurl": "http://www.post-gazette.com/stories/news/us/zimmerman-protestors-hold-acquittal-march-in-california-695433/",
    "feature_id": "277593",
    "feature_name": "San Francisco",
    "state_alpha": "CA",
    "county_name": "San Francisco",
    "county_numeric": "075",
    "prim_lat_dec": "37.775",
    "prim_long_dec": "-122.419",
    "elev_in_m": "16",
    "elev_in_ft": "52",
    "lat": 37.775,
    "long": -122.419
  },
  {
    "globaleventid": "259484442",
    "sqldate": "20130714",
    "monthyear": "201307",
    "year": "2013",
    "fractiondate": "2013.5315",
    "eventcode": "110",
    "quadclass": "3",
    "nummentions": "2",
    "numsources": "1",
    "numarticles": "2",
    "avgtone": "2.6890756302521",
    "sourceurl": "http://www.ctvnews.ca/world/george-zimmerman-acquittal-sparks-protests-in-4-calif-cities-1.1366479",
    "feature_id": "277566",
    "feature_name": "Oakland",
    "state_alpha": "CA",
    "county_name": "Alameda",
    "county_numeric": "001",
    "prim_lat_dec": "37.8044",
    "prim_long_dec": "-122.271",
    "elev_in_m": "13",
    "elev_in_ft": "43",
    "lat": 37.8044,
    "long": -122.271
  },
  {
    "globaleventid": "259484439",
    "sqldate": "20130714",
    "monthyear": "201307",
    "year": "2013",
    "fractiondate": "2013.5315",
    "eventcode": "110",
    "quadclass": "3",
    "nummentions": "16",
    "numsources": "15",
    "numarticles": "16",
    "avgtone": "1.74291079585968",
    "sourceurl": "http://www.turnto23.com/news/state/protesters-of-zimmerman-acquittal-march-in-california-071413",
    "feature_id": "1732788",
    "feature_name": "Leimert Park",
    "state_alpha": "CA",
    "county_name": "Los Angeles",
    "county_numeric": "037",
    "prim_lat_dec": "34.007",
    "prim_long_dec": "-118.331",
    "elev_in_m": "37",
    "elev_in_ft": "121",
    "lat": 34.007,
    "long": -118.331
  },
  {
    "globaleventid": "259484438",
    "sqldate": "20130714",
    "monthyear": "201307",
    "year": "2013",
    "fractiondate": "2013.5315",
    "eventcode": "110",
    "quadclass": "3",
    "nummentions": "2",
    "numsources": "1",
    "numarticles": "2",
    "avgtone": "1.86046511627907",
    "sourceurl": "http://www.washingtonpost.com/national/protesters-of-acquittal-in-trayvon-martin-shooting-take-to-the-streets-of-sf-la-and-oakland/2013/07/14/8990e248-ec62-11e2-b46e-f15eec37b46c_story.html",
    "feature_id": "1659564",
    "feature_name": "Sacramento",
    "state_alpha": "CA",
    "county_name": "Sacramento",
    "county_numeric": "067",
    "prim_lat_dec": "38.5816",
    "prim_long_dec": "-121.494",
    "elev_in_m": "8",
    "elev_in_ft": "26",
    "lat": 38.5816,
    "long": -121.494
  },
  {
    "globaleventid": "259484437",
    "sqldate": "20130714",
    "monthyear": "201307",
    "year": "2013",
    "fractiondate": "2013.5315",
    "eventcode": "110",
    "quadclass": "3",
    "nummentions": "1",
    "numsources": "1",
    "numarticles": "1",
    "avgtone": "1.85873605947955",
    "sourceurl": "http://www.arkansasonline.com/news/2013/jul/14/protesters-zimmerman-acquittal-march-california/",
    "feature_id": "1662328",
    "feature_name": "Los Angeles",
    "state_alpha": "CA",
    "county_name": "Los Angeles",
    "county_numeric": "037",
    "prim_lat_dec": "34.0522",
    "prim_long_dec": "-118.244",
    "elev_in_m": "89",
    "elev_in_ft": "292",
    "lat": 34.0522,
    "long": -118.244
  },
  {
    "globaleventid": "259484436",
    "sqldate": "20130714",
    "monthyear": "201307",
    "year": "2013",
    "fractiondate": "2013.5315",
    "eventcode": "110",
    "quadclass": "3",
    "nummentions": "1",
    "numsources": "1",
    "numarticles": "1",
    "avgtone": "1.85873605947955",
    "sourceurl": "http://www.arkansasonline.com/news/2013/jul/14/protesters-zimmerman-acquittal-march-california/",
    "feature_id": "1659145",
    "feature_name": "Mission District",
    "state_alpha": "CA",
    "county_name": "San Francisco",
    "county_numeric": "075",
    "prim_lat_dec": "37.7599",
    "prim_long_dec": "-122.419",
    "elev_in_m": "13",
    "elev_in_ft": "43",
    "lat": 37.7599,
    "long": -122.419
  },
  {
    "globaleventid": "259484388",
    "sqldate": "20130714",
    "monthyear": "201307",
    "year": "2013",
    "fractiondate": "2013.5315",
    "eventcode": "190",
    "quadclass": "4",
    "nummentions": "2",
    "numsources": "1",
    "numarticles": "2",
    "avgtone": "1.60427807486631",
    "sourceurl": "http://www.duluthnewstribune.com/event/article/id/272451/group/homepage/",
    "feature_id": "647438",
    "feature_name": "Mankato",
    "state_alpha": "MN",
    "county_name": "Blue Earth",
    "county_numeric": "013",
    "prim_lat_dec": "44.1636",
    "prim_long_dec": "-93.9994",
    "elev_in_m": "253",
    "elev_in_ft": "830",
    "lat": 44.1636,
    "long": -93.9994
  },
  {
    "globaleventid": "259484384",
    "sqldate": "20130714",
    "monthyear": "201307",
    "year": "2013",
    "fractiondate": "2013.5315",
    "eventcode": "190",
    "quadclass": "4",
    "nummentions": "2",
    "numsources": "1",
    "numarticles": "2",
    "avgtone": "1.60427807486631",
    "sourceurl": "http://www.duluthnewstribune.com/event/article/id/272451/group/homepage/",
    "feature_id": "647438",
    "feature_name": "Mankato",
    "state_alpha": "MN",
    "county_name": "Blue Earth",
    "county_numeric": "013",
    "prim_lat_dec": "44.1636",
    "prim_long_dec": "-93.9994",
    "elev_in_m": "253",
    "elev_in_ft": "830",
    "lat": 44.1636,
    "long": -93.9994
  },
  {
    "globaleventid": "259484383",
    "sqldate": "20130714",
    "monthyear": "201307",
    "year": "2013",
    "fractiondate": "2013.5315",
    "eventcode": "190",
    "quadclass": "4",
    "nummentions": "10",
    "numsources": "1",
    "numarticles": "10",
    "avgtone": "1.52963671128107",
    "sourceurl": "http://washingtoninformer.com/news/2013/jul/13/zimmerman-found-not-guilty/",
    "feature_id": "531871",
    "feature_name": "Washington",
    "state_alpha": "DC",
    "county_name": "District of Columbia",
    "county_numeric": "001",
    "prim_lat_dec": "38.8951",
    "prim_long_dec": "-77.0364",
    "elev_in_m": "7",
    "elev_in_ft": "23",
    "lat": 38.8951,
    "long": -77.0364
  },
  {
    "globaleventid": "259487852",
    "sqldate": "20130714",
    "monthyear": "201307",
    "year": "2013",
    "fractiondate": "2013.5315",
    "eventcode": "110",
    "quadclass": "3",
    "nummentions": "20",
    "numsources": "2",
    "numarticles": "20",
    "avgtone": "2.38529920649126",
    "sourceurl": "http://www.chron.com/news/world/article/Pope-spends-day-in-hill-town-jokes-with-residents-4664419.php",
    "feature_id": "1380948",
    "feature_name": "Houston",
    "state_alpha": "TX",
    "county_name": "Harris",
    "county_numeric": "201",
    "prim_lat_dec": "29.7633",
    "prim_long_dec": "-95.3633",
    "elev_in_m": "11",
    "elev_in_ft": "36",
    "lat": 29.7633,
    "long": -95.3633
  },
  {
    "globaleventid": "259487784",
    "sqldate": "20130714",
    "monthyear": "201307",
    "year": "2013",
    "fractiondate": "2013.5315",
    "eventcode": "190",
    "quadclass": "4",
    "nummentions": "50",
    "numsources": "5",
    "numarticles": "42",
    "avgtone": "2.72689222541467",
    "sourceurl": "http://qctimes.com/news/state-and-regional/illinois/clergy-call-for-calm-after-zimmerman-verdict/article_f87763a1-548c-5d64-9668-546b9c0a1f66.html",
    "feature_id": "423587",
    "feature_name": "Chicago",
    "state_alpha": "IL",
    "county_name": "Cook",
    "county_numeric": "031",
    "prim_lat_dec": "41.85",
    "prim_long_dec": "-87.6501",
    "elev_in_m": "179",
    "elev_in_ft": "587",
    "lat": 41.85,
    "long": -87.6501
  },
  {
    "globaleventid": "259487760",
    "sqldate": "20130714",
    "monthyear": "201307",
    "year": "2013",
    "fractiondate": "2013.5315",
    "eventcode": "120",
    "quadclass": "3",
    "nummentions": "1",
    "numsources": "1",
    "numarticles": "1",
    "avgtone": "3.59435173299101",
    "sourceurl": "http://trailblazersblog.dallasnews.com/2013/07/greg-abbott-makes-it-official-hes-running-for-governor.html/",
    "feature_id": "1380951",
    "feature_name": "San Antonio",
    "state_alpha": "TX",
    "county_name": "Bexar",
    "county_numeric": "029",
    "prim_lat_dec": "29.4241",
    "prim_long_dec": "-98.4936",
    "elev_in_m": "198",
    "elev_in_ft": "650",
    "lat": 29.4241,
    "long": -98.4936
  },
  {
    "globaleventid": "259487743",
    "sqldate": "20130714",
    "monthyear": "201307",
    "year": "2013",
    "fractiondate": "2013.5315",
    "eventcode": "110",
    "quadclass": "3",
    "nummentions": "6",
    "numsources": "1",
    "numarticles": "6",
    "avgtone": "1.24869927159209",
    "sourceurl": "http://www.wamc.org/post/retire-phrase-wouldnt-be-scandal-europe",
    "feature_id": "531871",
    "feature_name": "Washington",
    "state_alpha": "DC",
    "county_name": "District of Columbia",
    "county_numeric": "001",
    "prim_lat_dec": "38.8951",
    "prim_long_dec": "-77.0364",
    "elev_in_m": "7",
    "elev_in_ft": "23",
    "lat": 38.8951,
    "long": -77.0364
  },
  {
    "globaleventid": "259487712",
    "sqldate": "20130714",
    "monthyear": "201307",
    "year": "2013",
    "fractiondate": "2013.5315",
    "eventcode": "173",
    "quadclass": "4",
    "nummentions": "8",
    "numsources": "2",
    "numarticles": "8",
    "avgtone": "2.37050043898157",
    "sourceurl": "http://www.wusa9.com/news/article/266421/158/PHOTOS-Protesters-React-To-Zimmerman-Verdict",
    "feature_id": "288240",
    "feature_name": "Orlando",
    "state_alpha": "FL",
    "county_name": "Orange",
    "county_numeric": "095",
    "prim_lat_dec": "28.5383",
    "prim_long_dec": "-81.3792",
    "elev_in_m": "31",
    "elev_in_ft": "102",
    "lat": 28.5383,
    "long": -81.3792
  },
  {
    "globaleventid": "259487707",
    "sqldate": "20130714",
    "monthyear": "201307",
    "year": "2013",
    "fractiondate": "2013.5315",
    "eventcode": "141",
    "quadclass": "3",
    "nummentions": "2",
    "numsources": "2",
    "numarticles": "2",
    "avgtone": "1.87032418952619",
    "sourceurl": "http://www.yorkdispatch.com/ci_23656053/protesters-zimmerman-acquittal-march-calif",
    "feature_id": "277593",
    "feature_name": "San Francisco",
    "state_alpha": "CA",
    "county_name": "San Francisco",
    "county_numeric": "075",
    "prim_lat_dec": "37.775",
    "prim_long_dec": "-122.419",
    "elev_in_m": "16",
    "elev_in_ft": "52",
    "lat": 37.775,
    "long": -122.419
  },
  {
    "globaleventid": "259487706",
    "sqldate": "20130714",
    "monthyear": "201307",
    "year": "2013",
    "fractiondate": "2013.5315",
    "eventcode": "141",
    "quadclass": "3",
    "nummentions": "1",
    "numsources": "1",
    "numarticles": "1",
    "avgtone": "1.86046511627907",
    "sourceurl": "http://www.washingtonpost.com/national/protesters-of-acquittal-in-trayvon-martin-shooting-take-to-the-streets-of-sf-la-and-oakland/2013/07/14/8990e248-ec62-11e2-b46e-f15eec37b46c_story.html",
    "feature_id": "277593",
    "feature_name": "San Francisco",
    "state_alpha": "CA",
    "county_name": "San Francisco",
    "county_numeric": "075",
    "prim_lat_dec": "37.775",
    "prim_long_dec": "-122.419",
    "elev_in_m": "16",
    "elev_in_ft": "52",
    "lat": 37.775,
    "long": -122.419
  },
  {
    "globaleventid": "259487704",
    "sqldate": "20130714",
    "monthyear": "201307",
    "year": "2013",
    "fractiondate": "2013.5315",
    "eventcode": "141",
    "quadclass": "3",
    "nummentions": "5",
    "numsources": "5",
    "numarticles": "5",
    "avgtone": "2.13130561514069",
    "sourceurl": "http://heraldbulletin.com/breakingnews/x596946971/Protesters-of-Zimmerman-acquittal-march-in-California",
    "feature_id": "277593",
    "feature_name": "San Francisco",
    "state_alpha": "CA",
    "county_name": "San Francisco",
    "county_numeric": "075",
    "prim_lat_dec": "37.775",
    "prim_long_dec": "-122.419",
    "elev_in_m": "16",
    "elev_in_ft": "52",
    "lat": 37.775,
    "long": -122.419
  },
  {
    "globaleventid": "259487702",
    "sqldate": "20130714",
    "monthyear": "201307",
    "year": "2013",
    "fractiondate": "2013.5315",
    "eventcode": "141",
    "quadclass": "3",
    "nummentions": "1",
    "numsources": "1",
    "numarticles": "1",
    "avgtone": "1.97044334975369",
    "sourceurl": "http://www.660news.com/2013/07/14/acquittal-in-trayvon-martin-death-sparks-protest-in-4-calif-cities-vandalism-hits-oakland/",
    "feature_id": "277593",
    "feature_name": "San Francisco",
    "state_alpha": "CA",
    "county_name": "San Francisco",
    "county_numeric": "075",
    "prim_lat_dec": "37.775",
    "prim_long_dec": "-122.419",
    "elev_in_m": "16",
    "elev_in_ft": "52",
    "lat": 37.775,
    "long": -122.419
  },
  {
    "globaleventid": "259487701",
    "sqldate": "20130714",
    "monthyear": "201307",
    "year": "2013",
    "fractiondate": "2013.5315",
    "eventcode": "141",
    "quadclass": "3",
    "nummentions": "1",
    "numsources": "1",
    "numarticles": "1",
    "avgtone": "2.20588235294118",
    "sourceurl": "http://www.winnipegfreepress.com/world/acquittal-in-trayvon-martin-death-sparks-protest-in-4-calif-cities-vandalism-hits-oakland-215427591.html",
    "feature_id": "277593",
    "feature_name": "San Francisco",
    "state_alpha": "CA",
    "county_name": "San Francisco",
    "county_numeric": "075",
    "prim_lat_dec": "37.775",
    "prim_long_dec": "-122.419",
    "elev_in_m": "16",
    "elev_in_ft": "52",
    "lat": 37.775,
    "long": -122.419
  },
  {
    "globaleventid": "259487699",
    "sqldate": "20130714",
    "monthyear": "201307",
    "year": "2013",
    "fractiondate": "2013.5315",
    "eventcode": "141",
    "quadclass": "3",
    "nummentions": "4",
    "numsources": "2",
    "numarticles": "4",
    "avgtone": "2.6465122927387",
    "sourceurl": "http://www.kentucky.com/2013/07/14/2714334/protesters-of-zimmerman-acquittal.html",
    "feature_id": "1732788",
    "feature_name": "Leimert Park",
    "state_alpha": "CA",
    "county_name": "Los Angeles",
    "county_numeric": "037",
    "prim_lat_dec": "34.007",
    "prim_long_dec": "-118.331",
    "elev_in_m": "37",
    "elev_in_ft": "121",
    "lat": 34.007,
    "long": -118.331
  },
  {
    "globaleventid": "259487698",
    "sqldate": "20130714",
    "monthyear": "201307",
    "year": "2013",
    "fractiondate": "2013.5315",
    "eventcode": "141",
    "quadclass": "3",
    "nummentions": "18",
    "numsources": "2",
    "numarticles": "18",
    "avgtone": "2.53988862628947",
    "sourceurl": "http://www.huffingtonpost.com/2013/07/14/zimmerman-verdict-protesters_n_3594276.html?utm_hp_ref=los-angeles&ir=Los%20Angeles",
    "feature_id": "1662328",
    "feature_name": "Los Angeles",
    "state_alpha": "CA",
    "county_name": "Los Angeles",
    "county_numeric": "037",
    "prim_lat_dec": "34.0522",
    "prim_long_dec": "-118.244",
    "elev_in_m": "89",
    "elev_in_ft": "292",
    "lat": 34.0522,
    "long": -118.244
  },
  {
    "globaleventid": "259487697",
    "sqldate": "20130714",
    "monthyear": "201307",
    "year": "2013",
    "fractiondate": "2013.5315",
    "eventcode": "141",
    "quadclass": "3",
    "nummentions": "1",
    "numsources": "1",
    "numarticles": "1",
    "avgtone": "3.06748466257669",
    "sourceurl": "http://www.ktvn.com/story/22834917/protesters-of-zimmerman-acquittal-march-in-la-sf",
    "feature_id": "277593",
    "feature_name": "San Francisco",
    "state_alpha": "CA",
    "county_name": "San Francisco",
    "county_numeric": "075",
    "prim_lat_dec": "37.775",
    "prim_long_dec": "-122.419",
    "elev_in_m": "16",
    "elev_in_ft": "52",
    "lat": 37.775,
    "long": -122.419
  },
  {
    "globaleventid": "259487696",
    "sqldate": "20130714",
    "monthyear": "201307",
    "year": "2013",
    "fractiondate": "2013.5315",
    "eventcode": "141",
    "quadclass": "3",
    "nummentions": "1",
    "numsources": "1",
    "numarticles": "1",
    "avgtone": "3.06748466257669",
    "sourceurl": "http://www.ktvn.com/story/22834917/protesters-of-zimmerman-acquittal-march-in-la-sf",
    "feature_id": "1662328",
    "feature_name": "Los Angeles",
    "state_alpha": "CA",
    "county_name": "Los Angeles",
    "county_numeric": "037",
    "prim_lat_dec": "34.0522",
    "prim_long_dec": "-118.244",
    "elev_in_m": "89",
    "elev_in_ft": "292",
    "lat": 34.0522,
    "long": -118.244
  },
  {
    "globaleventid": "259487695",
    "sqldate": "20130714",
    "monthyear": "201307",
    "year": "2013",
    "fractiondate": "2013.5315",
    "eventcode": "141",
    "quadclass": "3",
    "nummentions": "14",
    "numsources": "2",
    "numarticles": "14",
    "avgtone": "2.45996131634481",
    "sourceurl": "http://www.therepublic.com/view/story/db67cc06b1f74be6afcb87f2127c89fc/WI--Neighborhood-Watch-Wisconsin-Reax",
    "feature_id": "1577901",
    "feature_name": "Milwaukee",
    "state_alpha": "WI",
    "county_name": "Milwaukee",
    "county_numeric": "079",
    "prim_lat_dec": "43.0389",
    "prim_long_dec": "-87.9065",
    "elev_in_m": "187",
    "elev_in_ft": "614",
    "lat": 43.0389,
    "long": -87.9065
  },
  {
    "globaleventid": "259487694",
    "sqldate": "20130714",
    "monthyear": "201307",
    "year": "2013",
    "fractiondate": "2013.5315",
    "eventcode": "111",
    "quadclass": "3",
    "nummentions": "8",
    "numsources": "1",
    "numarticles": "8",
    "avgtone": "1.00334448160535",
    "sourceurl": "http://www.marinij.com/ci_23658656/protesters-san-francisco-oakland-gather-denounce-zimmerman-verdict",
    "feature_id": "277593",
    "feature_name": "San Francisco",
    "state_alpha": "CA",
    "county_name": "San Francisco",
    "county_numeric": "075",
    "prim_lat_dec": "37.775",
    "prim_long_dec": "-122.419",
    "elev_in_m": "16",
    "elev_in_ft": "52",
    "lat": 37.775,
    "long": -122.419
  },
  {
    "globaleventid": "259487693",
    "sqldate": "20130714",
    "monthyear": "201307",
    "year": "2013",
    "fractiondate": "2013.5315",
    "eventcode": "111",
    "quadclass": "3",
    "nummentions": "18",
    "numsources": "2",
    "numarticles": "18",
    "avgtone": "1.82046413082308",
    "sourceurl": "http://www.mercurynews.com/breaking-news/ci_23657590/protesters-san-francisco-oakland-gather-denounce-zimmerman-verdict",
    "feature_id": "277566",
    "feature_name": "Oakland",
    "state_alpha": "CA",
    "county_name": "Alameda",
    "county_numeric": "001",
    "prim_lat_dec": "37.8044",
    "prim_long_dec": "-122.271",
    "elev_in_m": "13",
    "elev_in_ft": "43",
    "lat": 37.8044,
    "long": -122.271
  },
  {
    "globaleventid": "259487692",
    "sqldate": "20130714",
    "monthyear": "201307",
    "year": "2013",
    "fractiondate": "2013.5315",
    "eventcode": "111",
    "quadclass": "3",
    "nummentions": "1",
    "numsources": "1",
    "numarticles": "1",
    "avgtone": "3.06748466257669",
    "sourceurl": "http://www.ktvn.com/story/22834917/protesters-of-zimmerman-acquittal-march-in-la-sf",
    "feature_id": "1662328",
    "feature_name": "Los Angeles",
    "state_alpha": "CA",
    "county_name": "Los Angeles",
    "county_numeric": "037",
    "prim_lat_dec": "34.0522",
    "prim_long_dec": "-118.244",
    "elev_in_m": "89",
    "elev_in_ft": "292",
    "lat": 34.0522,
    "long": -118.244
  },
  {
    "globaleventid": "259487691",
    "sqldate": "20130714",
    "monthyear": "201307",
    "year": "2013",
    "fractiondate": "2013.5315",
    "eventcode": "110",
    "quadclass": "3",
    "nummentions": "1",
    "numsources": "1",
    "numarticles": "1",
    "avgtone": "1.66666666666667",
    "sourceurl": "http://www.ktvn.com/story/22835157/protesters-of-zimmerman-acquittal-march-in-la-sf",
    "feature_id": "277593",
    "feature_name": "San Francisco",
    "state_alpha": "CA",
    "county_name": "San Francisco",
    "county_numeric": "075",
    "prim_lat_dec": "37.775",
    "prim_long_dec": "-122.419",
    "elev_in_m": "16",
    "elev_in_ft": "52",
    "lat": 37.775,
    "long": -122.419
  },
  {
    "globaleventid": "259487690",
    "sqldate": "20130714",
    "monthyear": "201307",
    "year": "2013",
    "fractiondate": "2013.5315",
    "eventcode": "110",
    "quadclass": "3",
    "nummentions": "1",
    "numsources": "1",
    "numarticles": "1",
    "avgtone": "1.45631067961165",
    "sourceurl": "http://www.bayoubuzz.com/us-news/item/502869-zimmerman-protests-stay-mostly-calm-in-california",
    "feature_id": "288004",
    "feature_name": "Oakland",
    "state_alpha": "FL",
    "county_name": "Orange",
    "county_numeric": "095",
    "prim_lat_dec": "28.555",
    "prim_long_dec": "-81.6331",
    "elev_in_m": "36",
    "elev_in_ft": "118",
    "lat": 28.555,
    "long": -81.6331
  },
  {
    "globaleventid": "259487689",
    "sqldate": "20130714",
    "monthyear": "201307",
    "year": "2013",
    "fractiondate": "2013.5315",
    "eventcode": "110",
    "quadclass": "3",
    "nummentions": "3",
    "numsources": "1",
    "numarticles": "3",
    "avgtone": "1.69902912621359",
    "sourceurl": "http://www.news-sentinel.com/apps/pbcs.dll/article?AID=/20130714/NEWS/130719824",
    "feature_id": "277593",
    "feature_name": "San Francisco",
    "state_alpha": "CA",
    "county_name": "San Francisco",
    "county_numeric": "075",
    "prim_lat_dec": "37.775",
    "prim_long_dec": "-122.419",
    "elev_in_m": "16",
    "elev_in_ft": "52",
    "lat": 37.775,
    "long": -122.419
  },
  {
    "globaleventid": "259487688",
    "sqldate": "20130714",
    "monthyear": "201307",
    "year": "2013",
    "fractiondate": "2013.5315",
    "eventcode": "110",
    "quadclass": "3",
    "nummentions": "3",
    "numsources": "1",
    "numarticles": "3",
    "avgtone": "2.6890756302521",
    "sourceurl": "http://www.ctvnews.ca/world/george-zimmerman-acquittal-sparks-protests-in-4-calif-cities-1.1366479",
    "feature_id": "277566",
    "feature_name": "Oakland",
    "state_alpha": "CA",
    "county_name": "Alameda",
    "county_numeric": "001",
    "prim_lat_dec": "37.8044",
    "prim_long_dec": "-122.271",
    "elev_in_m": "13",
    "elev_in_ft": "43",
    "lat": 37.8044,
    "long": -122.271
  },
  {
    "globaleventid": "259487686",
    "sqldate": "20130714",
    "monthyear": "201307",
    "year": "2013",
    "fractiondate": "2013.5315",
    "eventcode": "110",
    "quadclass": "3",
    "nummentions": "1",
    "numsources": "1",
    "numarticles": "1",
    "avgtone": "1.23456790123457",
    "sourceurl": "http://www.nwaonline.com/news/2013/jul/14/protesters-zimmerman-acquittal-march-california/?news",
    "feature_id": "1732788",
    "feature_name": "Leimert Park",
    "state_alpha": "CA",
    "county_name": "Los Angeles",
    "county_numeric": "037",
    "prim_lat_dec": "34.007",
    "prim_long_dec": "-118.331",
    "elev_in_m": "37",
    "elev_in_ft": "121",
    "lat": 34.007,
    "long": -118.331
  },
  {
    "globaleventid": "259487685",
    "sqldate": "20130714",
    "monthyear": "201307",
    "year": "2013",
    "fractiondate": "2013.5315",
    "eventcode": "110",
    "quadclass": "3",
    "nummentions": "3",
    "numsources": "1",
    "numarticles": "3",
    "avgtone": "1.86046511627907",
    "sourceurl": "http://www.washingtonpost.com/national/protesters-of-acquittal-in-trayvon-martin-shooting-take-to-the-streets-of-sf-la-and-oakland/2013/07/14/8990e248-ec62-11e2-b46e-f15eec37b46c_story.html",
    "feature_id": "1659564",
    "feature_name": "Sacramento",
    "state_alpha": "CA",
    "county_name": "Sacramento",
    "county_numeric": "067",
    "prim_lat_dec": "38.5816",
    "prim_long_dec": "-121.494",
    "elev_in_m": "8",
    "elev_in_ft": "26",
    "lat": 38.5816,
    "long": -121.494
  },
  {
    "globaleventid": "259487684",
    "sqldate": "20130714",
    "monthyear": "201307",
    "year": "2013",
    "fractiondate": "2013.5315",
    "eventcode": "110",
    "quadclass": "3",
    "nummentions": "1",
    "numsources": "1",
    "numarticles": "1",
    "avgtone": "1.85873605947955",
    "sourceurl": "http://www.arkansasonline.com/news/2013/jul/14/protesters-zimmerman-acquittal-march-california/",
    "feature_id": "1659145",
    "feature_name": "Mission District",
    "state_alpha": "CA",
    "county_name": "San Francisco",
    "county_numeric": "075",
    "prim_lat_dec": "37.7599",
    "prim_long_dec": "-122.419",
    "elev_in_m": "13",
    "elev_in_ft": "43",
    "lat": 37.7599,
    "long": -122.419
  },
  {
    "globaleventid": "259487641",
    "sqldate": "20130714",
    "monthyear": "201307",
    "year": "2013",
    "fractiondate": "2013.5315",
    "eventcode": "141",
    "quadclass": "3",
    "nummentions": "2",
    "numsources": "1",
    "numarticles": "2",
    "avgtone": "2.35017626321974",
    "sourceurl": "http://www.stltoday.com/news/local/crime-and-courts/rally-in-st-louis-one-of-many-protesting-zimmerman-verdict/article_da112592-6c56-5246-ab70-3ac0358cd48c.html",
    "feature_id": "277566",
    "feature_name": "Oakland",
    "state_alpha": "CA",
    "county_name": "Alameda",
    "county_numeric": "001",
    "prim_lat_dec": "37.8044",
    "prim_long_dec": "-122.271",
    "elev_in_m": "13",
    "elev_in_ft": "43",
    "lat": 37.8044,
    "long": -122.271
  },
  {
    "globaleventid": "259487603",
    "sqldate": "20130714",
    "monthyear": "201307",
    "year": "2013",
    "fractiondate": "2013.5315",
    "eventcode": "180",
    "quadclass": "4",
    "nummentions": "2",
    "numsources": "1",
    "numarticles": "2",
    "avgtone": "1.01156069364162",
    "sourceurl": "http://www.denverpost.com/watercooler/ci_23652023/army-says-its-helicopters-buzzed-washington-city",
    "feature_id": "1524581",
    "feature_name": "Port Angeles",
    "state_alpha": "WA",
    "county_name": "Clallam",
    "county_numeric": "009",
    "prim_lat_dec": "48.1181",
    "prim_long_dec": "-123.431",
    "elev_in_m": "22",
    "elev_in_ft": "72",
    "lat": 48.1181,
    "long": -123.431
  },
  {
    "globaleventid": "259487513",
    "sqldate": "20130714",
    "monthyear": "201307",
    "year": "2013",
    "fractiondate": "2013.5315",
    "eventcode": "193",
    "quadclass": "4",
    "nummentions": "1",
    "numsources": "1",
    "numarticles": "1",
    "avgtone": "2.08333333333333",
    "sourceurl": "http://www.jamestownsun.com/event/article/id/190819/group/homepage/&c=wjSCKbW6AHFYd-HNL42z3K1I4GZzvnDHd8pVq5JWx6I&mkt=en-us",
    "feature_id": "1029648",
    "feature_name": "Jamestown",
    "state_alpha": "ND",
    "county_name": "Stutsman",
    "county_numeric": "093",
    "prim_lat_dec": "46.9105",
    "prim_long_dec": "-98.7084",
    "elev_in_m": "429",
    "elev_in_ft": "1407",
    "lat": 46.9105,
    "long": -98.7084
  },
  {
    "globaleventid": "259487511",
    "sqldate": "20130714",
    "monthyear": "201307",
    "year": "2013",
    "fractiondate": "2013.5315",
    "eventcode": "193",
    "quadclass": "4",
    "nummentions": "1",
    "numsources": "1",
    "numarticles": "1",
    "avgtone": "1.90114068441065",
    "sourceurl": "http://www.myfoxphoenix.com/story/22837246/jury-instructions-at-center-of-zimmerman-verdict",
    "feature_id": "295004",
    "feature_name": "Miami",
    "state_alpha": "FL",
    "county_name": "Miami-Dade",
    "county_numeric": "086",
    "prim_lat_dec": "25.7743",
    "prim_long_dec": "-80.1937",
    "elev_in_m": "2",
    "elev_in_ft": "7",
    "lat": 25.7743,
    "long": -80.1937
  },
  {
    "globaleventid": "259487510",
    "sqldate": "20130714",
    "monthyear": "201307",
    "year": "2013",
    "fractiondate": "2013.5315",
    "eventcode": "193",
    "quadclass": "4",
    "nummentions": "4",
    "numsources": "1",
    "numarticles": "4",
    "avgtone": "1.3215859030837",
    "sourceurl": "http://www.isciencetimes.com/articles/5625/20130712/george-zimmerman-trial-verdict-announced-jury-finds.htm",
    "feature_id": "290826",
    "feature_name": "Seminole",
    "state_alpha": "FL",
    "county_name": "Pinellas",
    "county_numeric": "103",
    "prim_lat_dec": "27.8397",
    "prim_long_dec": "-82.7912",
    "elev_in_m": "11",
    "elev_in_ft": "36",
    "lat": 27.8397,
    "long": -82.7912
  },
  {
    "globaleventid": "259487509",
    "sqldate": "20130714",
    "monthyear": "201307",
    "year": "2013",
    "fractiondate": "2013.5315",
    "eventcode": "193",
    "quadclass": "4",
    "nummentions": "1",
    "numsources": "1",
    "numarticles": "1",
    "avgtone": "2.08333333333333",
    "sourceurl": "http://www.jamestownsun.com/event/article/id/190819/group/homepage/&c=wjSCKbW6AHFYd-HNL42z3K1I4GZzvnDHd8pVq5JWx6I&mkt=en-us",
    "feature_id": "1029648",
    "feature_name": "Jamestown",
    "state_alpha": "ND",
    "county_name": "Stutsman",
    "county_numeric": "093",
    "prim_lat_dec": "46.9105",
    "prim_long_dec": "-98.7084",
    "elev_in_m": "429",
    "elev_in_ft": "1407",
    "lat": 46.9105,
    "long": -98.7084
  },
  {
    "globaleventid": "259487505",
    "sqldate": "20130714",
    "monthyear": "201307",
    "year": "2013",
    "fractiondate": "2013.5315",
    "eventcode": "190",
    "quadclass": "4",
    "nummentions": "1",
    "numsources": "1",
    "numarticles": "1",
    "avgtone": "0.62402496099844",
    "sourceurl": "http://www.washingtonpost.com/national/former-massachusetts-forensic-expert-testifies-about-remains-of-alleged-whitey-bulger-victims/2013/07/10/640a2296-e9c4-11e2-818e-aa29e855f3ab_story.html",
    "feature_id": "617565",
    "feature_name": "Boston",
    "state_alpha": "MA",
    "county_name": "Suffolk",
    "county_numeric": "025",
    "prim_lat_dec": "42.3584",
    "prim_long_dec": "-71.0598",
    "elev_in_m": "14",
    "elev_in_ft": "46",
    "lat": 42.3584,
    "long": -71.0598
  },
  {
    "globaleventid": "259487499",
    "sqldate": "20130714",
    "monthyear": "201307",
    "year": "2013",
    "fractiondate": "2013.5315",
    "eventcode": "173",
    "quadclass": "4",
    "nummentions": "2",
    "numsources": "1",
    "numarticles": "2",
    "avgtone": "1.96078431372549",
    "sourceurl": "http://wsau.com/news/articles/2013/jul/14/florida-jury-finds-george-zimmerman-not-guilty/",
    "feature_id": "288240",
    "feature_name": "Orlando",
    "state_alpha": "FL",
    "county_name": "Orange",
    "county_numeric": "095",
    "prim_lat_dec": "28.5383",
    "prim_long_dec": "-81.3792",
    "elev_in_m": "31",
    "elev_in_ft": "102",
    "lat": 28.5383,
    "long": -81.3792
  },
  {
    "globaleventid": "259487498",
    "sqldate": "20130714",
    "monthyear": "201307",
    "year": "2013",
    "fractiondate": "2013.5315",
    "eventcode": "173",
    "quadclass": "4",
    "nummentions": "4",
    "numsources": "1",
    "numarticles": "4",
    "avgtone": "1.96078431372549",
    "sourceurl": "http://wsau.com/news/articles/2013/jul/14/florida-jury-finds-george-zimmerman-not-guilty/",
    "feature_id": "288240",
    "feature_name": "Orlando",
    "state_alpha": "FL",
    "county_name": "Orange",
    "county_numeric": "095",
    "prim_lat_dec": "28.5383",
    "prim_long_dec": "-81.3792",
    "elev_in_m": "31",
    "elev_in_ft": "102",
    "lat": 28.5383,
    "long": -81.3792
  },
  {
    "globaleventid": "259487494",
    "sqldate": "20130714",
    "monthyear": "201307",
    "year": "2013",
    "fractiondate": "2013.5315",
    "eventcode": "173",
    "quadclass": "4",
    "nummentions": "1",
    "numsources": "1",
    "numarticles": "1",
    "avgtone": "1.5625",
    "sourceurl": "http://www.commercialappeal.com/news/2013/jul/14/woman-charged-seeking-have-husband-killed/?CID=happeningnow",
    "feature_id": "78542",
    "feature_name": "Texarkana",
    "state_alpha": "AR",
    "county_name": "Miller",
    "county_numeric": "091",
    "prim_lat_dec": "33.4418",
    "prim_long_dec": "-94.0377",
    "elev_in_m": "110",
    "elev_in_ft": "361",
    "lat": 33.4418,
    "long": -94.0377
  },
  {
    "globaleventid": "259487493",
    "sqldate": "20130714",
    "monthyear": "201307",
    "year": "2013",
    "fractiondate": "2013.5315",
    "eventcode": "173",
    "quadclass": "4",
    "nummentions": "2",
    "numsources": "1",
    "numarticles": "2",
    "avgtone": "1.51515151515152",
    "sourceurl": "http://www.boston.com/news/local/massachusetts/2013/07/14/man-with-pellet-gun-alcohol-arrested-after-taking-photos-john-kerry-beacon-hill-home/Gortuj7KegBArzu2KoEqVP/story.html",
    "feature_id": "619512",
    "feature_name": "Beacon Hill",
    "state_alpha": "MA",
    "county_name": "Suffolk",
    "county_numeric": "025",
    "prim_lat_dec": "42.3587",
    "prim_long_dec": "-71.0678",
    "elev_in_m": "28",
    "elev_in_ft": "92",
    "lat": 42.3587,
    "long": -71.0678
  },
  {
    "globaleventid": "259487491",
    "sqldate": "20130714",
    "monthyear": "201307",
    "year": "2013",
    "fractiondate": "2013.5315",
    "eventcode": "173",
    "quadclass": "4",
    "nummentions": "5",
    "numsources": "2",
    "numarticles": "5",
    "avgtone": "2.31852998372822",
    "sourceurl": "http://www.isciencetimes.com/articles/5625/20130712/george-zimmerman-trial-verdict-announced-jury-finds.htm",
    "feature_id": "290826",
    "feature_name": "Seminole",
    "state_alpha": "FL",
    "county_name": "Pinellas",
    "county_numeric": "103",
    "prim_lat_dec": "27.8397",
    "prim_long_dec": "-82.7912",
    "elev_in_m": "11",
    "elev_in_ft": "36",
    "lat": 27.8397,
    "long": -82.7912
  },
  {
    "globaleventid": "259487487",
    "sqldate": "20130714",
    "monthyear": "201307",
    "year": "2013",
    "fractiondate": "2013.5315",
    "eventcode": "141",
    "quadclass": "3",
    "nummentions": "8",
    "numsources": "1",
    "numarticles": "8",
    "avgtone": "1.85873605947955",
    "sourceurl": "http://www.reuters.com/article/2013/07/15/us-usa-florida-shooting-protests-idUSBRE96E00D20130715?feedType=RSS&feedName=domesticNews",
    "feature_id": "612993",
    "feature_name": "Roxbury",
    "state_alpha": "MA",
    "county_name": "Suffolk",
    "county_numeric": "025",
    "prim_lat_dec": "42.3251",
    "prim_long_dec": "-71.0953",
    "elev_in_m": "47",
    "elev_in_ft": "154",
    "lat": 42.3251,
    "long": -71.0953
  },
  {
    "globaleventid": "259487486",
    "sqldate": "20130714",
    "monthyear": "201307",
    "year": "2013",
    "fractiondate": "2013.5315",
    "eventcode": "141",
    "quadclass": "3",
    "nummentions": "10",
    "numsources": "1",
    "numarticles": "10",
    "avgtone": "2.60416666666667",
    "sourceurl": "http://www.washingtonpost.com/national/ap-photos-trayvon-martin-supporters-rally-around-us-after-zimmermans-acquittal/2013/07/14/74cbab04-ecf3-11e2-b46e-f15eec37b46c_story.html",
    "feature_id": "531871",
    "feature_name": "Washington",
    "state_alpha": "DC",
    "county_name": "District of Columbia",
    "county_numeric": "001",
    "prim_lat_dec": "38.8951",
    "prim_long_dec": "-77.0364",
    "elev_in_m": "7",
    "elev_in_ft": "23",
    "lat": 38.8951,
    "long": -77.0364
  },
  {
    "globaleventid": "259487482",
    "sqldate": "20130714",
    "monthyear": "201307",
    "year": "2013",
    "fractiondate": "2013.5315",
    "eventcode": "130",
    "quadclass": "3",
    "nummentions": "5",
    "numsources": "1",
    "numarticles": "5",
    "avgtone": "2.11187214611872",
    "sourceurl": "http://www.frontline.in/world-affairs/snowden-saga/article4894149.ece",
    "feature_id": "531871",
    "feature_name": "Washington",
    "state_alpha": "DC",
    "county_name": "District of Columbia",
    "county_numeric": "001",
    "prim_lat_dec": "38.8951",
    "prim_long_dec": "-77.0364",
    "elev_in_m": "7",
    "elev_in_ft": "23",
    "lat": 38.8951,
    "long": -77.0364
  },
  {
    "globaleventid": "259487330",
    "sqldate": "20130714",
    "monthyear": "201307",
    "year": "2013",
    "fractiondate": "2013.5315",
    "eventcode": "175",
    "quadclass": "4",
    "nummentions": "2",
    "numsources": "1",
    "numarticles": "2",
    "avgtone": "1.94986072423398",
    "sourceurl": "http://www.theglobeandmail.com/news/world/thousands-march-in-ny-in-reaction-to-zimmerman-verdict/article13214482/?cmpid=rss1&utm_source=feedburner&utm_medium=feed&utm_campaign=Feed%3A+TheGlobeAndMail-International+%28The+Globe+and+Mail+-+World+News%29",
    "feature_id": "612993",
    "feature_name": "Roxbury",
    "state_alpha": "MA",
    "county_name": "Suffolk",
    "county_numeric": "025",
    "prim_lat_dec": "42.3251",
    "prim_long_dec": "-71.0953",
    "elev_in_m": "47",
    "elev_in_ft": "154",
    "lat": 42.3251,
    "long": -71.0953
  },
  {
    "globaleventid": "259487327",
    "sqldate": "20130714",
    "monthyear": "201307",
    "year": "2013",
    "fractiondate": "2013.5315",
    "eventcode": "175",
    "quadclass": "4",
    "nummentions": "2",
    "numsources": "1",
    "numarticles": "2",
    "avgtone": "1.94986072423398",
    "sourceurl": "http://www.theglobeandmail.com/news/world/thousands-march-in-ny-in-reaction-to-zimmerman-verdict/article13214482/?cmpid=rss1&utm_source=feedburner&utm_medium=feed&utm_campaign=Feed%3A+TheGlobeAndMail-International+%28The+Globe+and+Mail+-+World+News%29",
    "feature_id": "617565",
    "feature_name": "Boston",
    "state_alpha": "MA",
    "county_name": "Suffolk",
    "county_numeric": "025",
    "prim_lat_dec": "42.3584",
    "prim_long_dec": "-71.0598",
    "elev_in_m": "14",
    "elev_in_ft": "46",
    "lat": 42.3584,
    "long": -71.0598
  },
  {
    "globaleventid": "259487261",
    "sqldate": "20130714",
    "monthyear": "201307",
    "year": "2013",
    "fractiondate": "2013.5315",
    "eventcode": "171",
    "quadclass": "4",
    "nummentions": "5",
    "numsources": "1",
    "numarticles": "5",
    "avgtone": "0.0",
    "sourceurl": "http://www.theoaklandpress.com/articles/2013/07/14/news/state/doc51e303025c6fd693686883.txt",
    "feature_id": "1615042",
    "feature_name": "Traverse City",
    "state_alpha": "MI",
    "county_name": "Grand Traverse",
    "county_numeric": "055",
    "prim_lat_dec": "44.7631",
    "prim_long_dec": "-85.6206",
    "elev_in_m": "182",
    "elev_in_ft": "597",
    "lat": 44.7631,
    "long": -85.6206
  },
  {
    "globaleventid": "259487208",
    "sqldate": "20130714",
    "monthyear": "201307",
    "year": "2013",
    "fractiondate": "2013.5315",
    "eventcode": "190",
    "quadclass": "4",
    "nummentions": "1",
    "numsources": "1",
    "numarticles": "1",
    "avgtone": "1.61662817551963",
    "sourceurl": "http://metro.co.uk/2013/07/14/seven-police-officers-injured-in-second-night-of-belfast-rioting-3881823/?ITO=news-sitemap",
    "feature_id": "1191775",
    "feature_name": "Woodvale",
    "state_alpha": "PA",
    "county_name": "Cambria",
    "county_numeric": "021",
    "prim_lat_dec": "40.3354",
    "prim_long_dec": "-78.9036",
    "elev_in_m": "369",
    "elev_in_ft": "1211",
    "lat": 40.3354,
    "long": -78.9036
  },
  {
    "globaleventid": "259487165",
    "sqldate": "20130714",
    "monthyear": "201307",
    "year": "2013",
    "fractiondate": "2013.5315",
    "eventcode": "190",
    "quadclass": "4",
    "nummentions": "1",
    "numsources": "1",
    "numarticles": "1",
    "avgtone": "1.76470588235294",
    "sourceurl": "http://www.usnews.com/news/us/articles/2013/07/13/nyc-case-casts-light-on-west-african-mining-fight",
    "feature_id": "971945",
    "feature_name": "Manhattan",
    "state_alpha": "NY",
    "county_name": "New York",
    "county_numeric": "061",
    "prim_lat_dec": "40.7834",
    "prim_long_dec": "-73.9662",
    "elev_in_m": "35",
    "elev_in_ft": "115",
    "lat": 40.7834,
    "long": -73.9662
  },
  {
    "globaleventid": "259486991",
    "sqldate": "20130714",
    "monthyear": "201307",
    "year": "2013",
    "fractiondate": "2013.5315",
    "eventcode": "190",
    "quadclass": "4",
    "nummentions": "2",
    "numsources": "1",
    "numarticles": "2",
    "avgtone": "3.74848851269649",
    "sourceurl": "http://blogs.ajc.com/atlanta-forward/2013/07/14/unacceptable-behavior/&c=C3Q2WW3XwZFzOouPJIaqdgSRTaNDabJzaS8H0L36CeY&mkt=en-us/",
    "feature_id": "351615",
    "feature_name": "Atlanta",
    "state_alpha": "GA",
    "county_name": "Fulton",
    "county_numeric": "121",
    "prim_lat_dec": "33.749",
    "prim_long_dec": "-84.388",
    "elev_in_m": "320",
    "elev_in_ft": "1050",
    "lat": 33.749,
    "long": -84.388
  },
  {
    "globaleventid": "259486981",
    "sqldate": "20130714",
    "monthyear": "201307",
    "year": "2013",
    "fractiondate": "2013.5315",
    "eventcode": "111",
    "quadclass": "3",
    "nummentions": "10",
    "numsources": "1",
    "numarticles": "10",
    "avgtone": "1.40679953106682",
    "sourceurl": "http://www.cbsnews.com/8301-201_162-57593685/military-guantanamo-hunger-strike-recedes-by-25-percent/",
    "feature_id": "531871",
    "feature_name": "Washington",
    "state_alpha": "DC",
    "county_name": "District of Columbia",
    "county_numeric": "001",
    "prim_lat_dec": "38.8951",
    "prim_long_dec": "-77.0364",
    "elev_in_m": "7",
    "elev_in_ft": "23",
    "lat": 38.8951,
    "long": -77.0364
  },
  {
    "globaleventid": "259486911",
    "sqldate": "20130714",
    "monthyear": "201307",
    "year": "2013",
    "fractiondate": "2013.5315",
    "eventcode": "112",
    "quadclass": "3",
    "nummentions": "1",
    "numsources": "1",
    "numarticles": "1",
    "avgtone": "2.82352941176471",
    "sourceurl": "http://www.greentechmedia.com/articles/read/bloom-energy-begins-fuel-cell-production-in-delaware",
    "feature_id": "214385",
    "feature_name": "Newark",
    "state_alpha": "DE",
    "county_name": "New Castle",
    "county_numeric": "003",
    "prim_lat_dec": "39.6837",
    "prim_long_dec": "-75.7497",
    "elev_in_m": "39",
    "elev_in_ft": "128",
    "lat": 39.6837,
    "long": -75.7497
  },
  {
    "globaleventid": "259486901",
    "sqldate": "20130714",
    "monthyear": "201307",
    "year": "2013",
    "fractiondate": "2013.5315",
    "eventcode": "190",
    "quadclass": "4",
    "nummentions": "2",
    "numsources": "1",
    "numarticles": "2",
    "avgtone": "2.67857142857143",
    "sourceurl": "http://www.nbcnews.com/id/52472168/ns/local_news-delaware_valley_pa_nj/t/th-birthday-party-hamilton-township-ends-gunfire-dead/&c=Wpo5ZZ8sbEo8PST4LglIy1-QVo1OO7XcPplB7_uqTnQ&mkt=en-us",
    "feature_id": "884540",
    "feature_name": "Trenton",
    "state_alpha": "NJ",
    "county_name": "Mercer",
    "county_numeric": "021",
    "prim_lat_dec": "40.2171",
    "prim_long_dec": "-74.7429",
    "elev_in_m": "18",
    "elev_in_ft": "59",
    "lat": 40.2171,
    "long": -74.7429
  },
  {
    "globaleventid": "259486899",
    "sqldate": "20130714",
    "monthyear": "201307",
    "year": "2013",
    "fractiondate": "2013.5315",
    "eventcode": "190",
    "quadclass": "4",
    "nummentions": "1",
    "numsources": "1",
    "numarticles": "1",
    "avgtone": "1.71428571428571",
    "sourceurl": "http://durangoherald.com/article/20130713/NEWS03/130719789/-1/s",
    "feature_id": "444871",
    "feature_name": "Trenton",
    "state_alpha": "IN",
    "county_name": "Blackford",
    "county_numeric": "009",
    "prim_lat_dec": "40.45",
    "prim_long_dec": "-85.2389",
    "elev_in_m": "274",
    "elev_in_ft": "899",
    "lat": 40.45,
    "long": -85.2389
  },
  {
    "globaleventid": "259486894",
    "sqldate": "20130714",
    "monthyear": "201307",
    "year": "2013",
    "fractiondate": "2013.5315",
    "eventcode": "173",
    "quadclass": "4",
    "nummentions": "5",
    "numsources": "1",
    "numarticles": "5",
    "avgtone": "3.7037037037037",
    "sourceurl": "http://www.mlive.com/news/flint/index.ssf/2013/07/flint_man_pleads_guilty_to_usi.html",
    "feature_id": "627081",
    "feature_name": "Grand Blanc",
    "state_alpha": "MI",
    "county_name": "Genesee",
    "county_numeric": "049",
    "prim_lat_dec": "42.9275",
    "prim_long_dec": "-83.63",
    "elev_in_m": "256",
    "elev_in_ft": "840",
    "lat": 42.9275,
    "long": -83.63
  },
  {
    "globaleventid": "259486886",
    "sqldate": "20130714",
    "monthyear": "201307",
    "year": "2013",
    "fractiondate": "2013.5315",
    "eventcode": "173",
    "quadclass": "4",
    "nummentions": "3",
    "numsources": "1",
    "numarticles": "3",
    "avgtone": "1.5625",
    "sourceurl": "http://www.commercialappeal.com/news/2013/jul/14/woman-charged-seeking-have-husband-killed/?CID=happeningnow",
    "feature_id": "78542",
    "feature_name": "Texarkana",
    "state_alpha": "AR",
    "county_name": "Miller",
    "county_numeric": "091",
    "prim_lat_dec": "33.4418",
    "prim_long_dec": "-94.0377",
    "elev_in_m": "110",
    "elev_in_ft": "361",
    "lat": 33.4418,
    "long": -94.0377
  },
  {
    "globaleventid": "259486885",
    "sqldate": "20130714",
    "monthyear": "201307",
    "year": "2013",
    "fractiondate": "2013.5315",
    "eventcode": "173",
    "quadclass": "4",
    "nummentions": "1",
    "numsources": "1",
    "numarticles": "1",
    "avgtone": "3.7037037037037",
    "sourceurl": "http://www.mlive.com/news/flint/index.ssf/2013/07/flint_man_pleads_guilty_to_usi.html",
    "feature_id": "627081",
    "feature_name": "Grand Blanc",
    "state_alpha": "MI",
    "county_name": "Genesee",
    "county_numeric": "049",
    "prim_lat_dec": "42.9275",
    "prim_long_dec": "-83.63",
    "elev_in_m": "256",
    "elev_in_ft": "840",
    "lat": 42.9275,
    "long": -83.63
  },
  {
    "globaleventid": "259486883",
    "sqldate": "20130714",
    "monthyear": "201307",
    "year": "2013",
    "fractiondate": "2013.5315",
    "eventcode": "173",
    "quadclass": "4",
    "nummentions": "2",
    "numsources": "1",
    "numarticles": "2",
    "avgtone": "0.0",
    "sourceurl": "http://www.contracostatimes.com/california/ci_23659033/search-continues-missing-oakland-toddler",
    "feature_id": "277566",
    "feature_name": "Oakland",
    "state_alpha": "CA",
    "county_name": "Alameda",
    "county_numeric": "001",
    "prim_lat_dec": "37.8044",
    "prim_long_dec": "-122.271",
    "elev_in_m": "13",
    "elev_in_ft": "43",
    "lat": 37.8044,
    "long": -122.271
  },
  {
    "globaleventid": "259486878",
    "sqldate": "20130714",
    "monthyear": "201307",
    "year": "2013",
    "fractiondate": "2013.5315",
    "eventcode": "141",
    "quadclass": "3",
    "nummentions": "4",
    "numsources": "2",
    "numarticles": "4",
    "avgtone": "2.3268131651557",
    "sourceurl": "http://www.ctpost.com/local/article/City-events-set-to-protest-Zimmerman-verdict-4665150.php",
    "feature_id": "285205",
    "feature_name": "Lafayette",
    "state_alpha": "FL",
    "county_name": "Leon",
    "county_numeric": "073",
    "prim_lat_dec": "30.428",
    "prim_long_dec": "-84.2163",
    "elev_in_m": "61",
    "elev_in_ft": "200",
    "lat": 30.428,
    "long": -84.2163
  },
  {
    "globaleventid": "259486877",
    "sqldate": "20130714",
    "monthyear": "201307",
    "year": "2013",
    "fractiondate": "2013.5315",
    "eventcode": "141",
    "quadclass": "3",
    "nummentions": "10",
    "numsources": "2",
    "numarticles": "10",
    "avgtone": "2.32705951911707",
    "sourceurl": "http://www.ctpost.com/local/article/City-events-set-to-protest-Zimmerman-verdict-4665150.php",
    "feature_id": "285205",
    "feature_name": "Lafayette",
    "state_alpha": "FL",
    "county_name": "Leon",
    "county_numeric": "073",
    "prim_lat_dec": "30.428",
    "prim_long_dec": "-84.2163",
    "elev_in_m": "61",
    "elev_in_ft": "200",
    "lat": 30.428,
    "long": -84.2163
  },
  {
    "globaleventid": "259486876",
    "sqldate": "20130714",
    "monthyear": "201307",
    "year": "2013",
    "fractiondate": "2013.5315",
    "eventcode": "130",
    "quadclass": "3",
    "nummentions": "1",
    "numsources": "1",
    "numarticles": "1",
    "avgtone": "2.30088495575221",
    "sourceurl": "http://www.twincities.com/crime/ci_23660162/new-murder-trial-begins-accused-oakdale-mother&c=4XrzCSEG1Nu333J_XSh0Nd9t7OPiizvkH_EXxlXgWvI&mkt=en-us",
    "feature_id": "654516",
    "feature_name": "Oakdale",
    "state_alpha": "MN",
    "county_name": "Washington",
    "county_numeric": "163",
    "prim_lat_dec": "44.963",
    "prim_long_dec": "-92.9649",
    "elev_in_m": "326",
    "elev_in_ft": "1070",
    "lat": 44.963,
    "long": -92.9649
  },
  {
    "globaleventid": "259486873",
    "sqldate": "20130714",
    "monthyear": "201307",
    "year": "2013",
    "fractiondate": "2013.5315",
    "eventcode": "120",
    "quadclass": "3",
    "nummentions": "4",
    "numsources": "1",
    "numarticles": "4",
    "avgtone": "0.0",
    "sourceurl": "http://www.krwg.org/post/new-mexico-could-lose-public-defenders",
    "feature_id": "899715",
    "feature_name": "Las Cruces",
    "state_alpha": "NM",
    "county_name": "Doa Ana",
    "county_numeric": "013",
    "prim_lat_dec": "32.3123",
    "prim_long_dec": "-106.778",
    "elev_in_m": "1191",
    "elev_in_ft": "3907",
    "lat": 32.3123,
    "long": -106.778
  },
  {
    "globaleventid": "259486872",
    "sqldate": "20130714",
    "monthyear": "201307",
    "year": "2013",
    "fractiondate": "2013.5315",
    "eventcode": "120",
    "quadclass": "3",
    "nummentions": "2",
    "numsources": "1",
    "numarticles": "2",
    "avgtone": "0.62402496099844",
    "sourceurl": "http://www.washingtonpost.com/national/former-massachusetts-forensic-expert-testifies-about-remains-of-alleged-whitey-bulger-victims/2013/07/10/640a2296-e9c4-11e2-818e-aa29e855f3ab_story.html",
    "feature_id": "617565",
    "feature_name": "Boston",
    "state_alpha": "MA",
    "county_name": "Suffolk",
    "county_numeric": "025",
    "prim_lat_dec": "42.3584",
    "prim_long_dec": "-71.0598",
    "elev_in_m": "14",
    "elev_in_ft": "46",
    "lat": 42.3584,
    "long": -71.0598
  },
  {
    "globaleventid": "259486871",
    "sqldate": "20130714",
    "monthyear": "201307",
    "year": "2013",
    "fractiondate": "2013.5315",
    "eventcode": "120",
    "quadclass": "3",
    "nummentions": "4",
    "numsources": "1",
    "numarticles": "4",
    "avgtone": "3.75",
    "sourceurl": "http://www.news.com.au/breaking-news/world/protests-in-us-as-jury-acquits-zimmerman/story-e6frfkui-1226679370884?from=public_rss",
    "feature_id": "1662328",
    "feature_name": "Los Angeles",
    "state_alpha": "CA",
    "county_name": "Los Angeles",
    "county_numeric": "037",
    "prim_lat_dec": "34.0522",
    "prim_long_dec": "-118.244",
    "elev_in_m": "89",
    "elev_in_ft": "292",
    "lat": 34.0522,
    "long": -118.244
  },
  {
    "globaleventid": "259486870",
    "sqldate": "20130714",
    "monthyear": "201307",
    "year": "2013",
    "fractiondate": "2013.5315",
    "eventcode": "120",
    "quadclass": "3",
    "nummentions": "6",
    "numsources": "1",
    "numarticles": "6",
    "avgtone": "2.82258064516129",
    "sourceurl": "http://www.mysanantonio.com/news/crime/article/Ind-Supreme-Court-will-not-review-Hankins-case-4663865.php",
    "feature_id": "1380951",
    "feature_name": "San Antonio",
    "state_alpha": "TX",
    "county_name": "Bexar",
    "county_numeric": "029",
    "prim_lat_dec": "29.4241",
    "prim_long_dec": "-98.4936",
    "elev_in_m": "198",
    "elev_in_ft": "650",
    "lat": 29.4241,
    "long": -98.4936
  },
  {
    "globaleventid": "259486868",
    "sqldate": "20130714",
    "monthyear": "201307",
    "year": "2013",
    "fractiondate": "2013.5315",
    "eventcode": "115",
    "quadclass": "3",
    "nummentions": "10",
    "numsources": "1",
    "numarticles": "10",
    "avgtone": "4.15472779369628",
    "sourceurl": "http://www.southcoasttoday.com/apps/pbcs.dll/article?AID=/20130713/NEWS/307130332/-1/NEWSMAP",
    "feature_id": "531871",
    "feature_name": "Washington",
    "state_alpha": "DC",
    "county_name": "District of Columbia",
    "county_numeric": "001",
    "prim_lat_dec": "38.8951",
    "prim_long_dec": "-77.0364",
    "elev_in_m": "7",
    "elev_in_ft": "23",
    "lat": 38.8951,
    "long": -77.0364
  },
  {
    "globaleventid": "259486866",
    "sqldate": "20130714",
    "monthyear": "201307",
    "year": "2013",
    "fractiondate": "2013.5315",
    "eventcode": "115",
    "quadclass": "3",
    "nummentions": "4",
    "numsources": "1",
    "numarticles": "4",
    "avgtone": "3.75",
    "sourceurl": "http://www.news.com.au/breaking-news/world/protests-in-us-as-jury-acquits-zimmerman/story-e6frfkui-1226679370884?from=public_rss",
    "feature_id": "1662328",
    "feature_name": "Los Angeles",
    "state_alpha": "CA",
    "county_name": "Los Angeles",
    "county_numeric": "037",
    "prim_lat_dec": "34.0522",
    "prim_long_dec": "-118.244",
    "elev_in_m": "89",
    "elev_in_ft": "292",
    "lat": 34.0522,
    "long": -118.244
  },
  {
    "globaleventid": "259486854",
    "sqldate": "20130714",
    "monthyear": "201307",
    "year": "2013",
    "fractiondate": "2013.5315",
    "eventcode": "110",
    "quadclass": "3",
    "nummentions": "1",
    "numsources": "1",
    "numarticles": "1",
    "avgtone": "2.04081632653061",
    "sourceurl": "http://www.greenwichtime.com/news/crime/article/NY-judge-dismisses-conviction-against-12-veterans-4663357.php",
    "feature_id": "971945",
    "feature_name": "Manhattan",
    "state_alpha": "NY",
    "county_name": "New York",
    "county_numeric": "061",
    "prim_lat_dec": "40.7834",
    "prim_long_dec": "-73.9662",
    "elev_in_m": "35",
    "elev_in_ft": "115",
    "lat": 40.7834,
    "long": -73.9662
  },
  {
    "globaleventid": "259486741",
    "sqldate": "20130714",
    "monthyear": "201307",
    "year": "2013",
    "fractiondate": "2013.5315",
    "eventcode": "180",
    "quadclass": "4",
    "nummentions": "4",
    "numsources": "1",
    "numarticles": "4",
    "avgtone": "0.451467268623025",
    "sourceurl": "http://www.mysanantonio.com/news/crime/article/Prosecutors-New-law-doesn-t-make-old-crimes-OK-4663603.php",
    "feature_id": "1380951",
    "feature_name": "San Antonio",
    "state_alpha": "TX",
    "county_name": "Bexar",
    "county_numeric": "029",
    "prim_lat_dec": "29.4241",
    "prim_long_dec": "-98.4936",
    "elev_in_m": "198",
    "elev_in_ft": "650",
    "lat": 29.4241,
    "long": -98.4936
  },
  {
    "globaleventid": "259486734",
    "sqldate": "20130714",
    "monthyear": "201307",
    "year": "2013",
    "fractiondate": "2013.5315",
    "eventcode": "172",
    "quadclass": "4",
    "nummentions": "16",
    "numsources": "1",
    "numarticles": "16",
    "avgtone": "1.37581462708182",
    "sourceurl": "http://www.telegram.com/article/20130714/NEWS/107149852/1160/SPECIALSECTIONS04&c=tvDnN0VQPMl1Zq-oGxkgI1_uTnA41Su8z7qDVXzMn_U&mkt=en-us",
    "feature_id": "617867",
    "feature_name": "Worcester",
    "state_alpha": "MA",
    "county_name": "Worcester",
    "county_numeric": "027",
    "prim_lat_dec": "42.2626",
    "prim_long_dec": "-71.8023",
    "elev_in_m": "146",
    "elev_in_ft": "479",
    "lat": 42.2626,
    "long": -71.8023
  },
  {
    "globaleventid": "259486726",
    "sqldate": "20130714",
    "monthyear": "201307",
    "year": "2013",
    "fractiondate": "2013.5315",
    "eventcode": "112",
    "quadclass": "3",
    "nummentions": "3",
    "numsources": "2",
    "numarticles": "3",
    "avgtone": "1.49533753199562",
    "sourceurl": "http://www.grandhaventribune.com/article/565256",
    "feature_id": "1624839",
    "feature_name": "Port Huron",
    "state_alpha": "MI",
    "county_name": "St. Clair",
    "county_numeric": "147",
    "prim_lat_dec": "42.9709",
    "prim_long_dec": "-82.4249",
    "elev_in_m": "185",
    "elev_in_ft": "607",
    "lat": 42.9709,
    "long": -82.4249
  },
  {
    "globaleventid": "259486617",
    "sqldate": "20130714",
    "monthyear": "201307",
    "year": "2013",
    "fractiondate": "2013.5315",
    "eventcode": "172",
    "quadclass": "4",
    "nummentions": "1",
    "numsources": "1",
    "numarticles": "1",
    "avgtone": "4.74898236092266",
    "sourceurl": "http://lancasteronline.com/article/local/871999_Same-sex-debate-at-standstill-in-Pa-.html",
    "feature_id": "1196685",
    "feature_name": "West Lampeter",
    "state_alpha": "PA",
    "county_name": "Lancaster",
    "county_numeric": "071",
    "prim_lat_dec": "40.0304",
    "prim_long_dec": "-76.2702",
    "elev_in_m": "90",
    "elev_in_ft": "295",
    "lat": 40.0304,
    "long": -76.2702
  },
  {
    "globaleventid": "259486616",
    "sqldate": "20130714",
    "monthyear": "201307",
    "year": "2013",
    "fractiondate": "2013.5315",
    "eventcode": "112",
    "quadclass": "3",
    "nummentions": "2",
    "numsources": "1",
    "numarticles": "2",
    "avgtone": "1.68067226890756",
    "sourceurl": "http://www.hispanicbusiness.com/2013/7/14/obama_putin_discuss_snowden.htm",
    "feature_id": "531871",
    "feature_name": "Washington",
    "state_alpha": "DC",
    "county_name": "District of Columbia",
    "county_numeric": "001",
    "prim_lat_dec": "38.8951",
    "prim_long_dec": "-77.0364",
    "elev_in_m": "7",
    "elev_in_ft": "23",
    "lat": 38.8951,
    "long": -77.0364
  },
  {
    "globaleventid": "259486597",
    "sqldate": "20130714",
    "monthyear": "201307",
    "year": "2013",
    "fractiondate": "2013.5315",
    "eventcode": "141",
    "quadclass": "3",
    "nummentions": "1",
    "numsources": "1",
    "numarticles": "1",
    "avgtone": "2.4",
    "sourceurl": "http://www.sacbee.com/2013/07/14/5565018/dan-walters-which-voting-system.html",
    "feature_id": "1659564",
    "feature_name": "Sacramento",
    "state_alpha": "CA",
    "county_name": "Sacramento",
    "county_numeric": "067",
    "prim_lat_dec": "38.5816",
    "prim_long_dec": "-121.494",
    "elev_in_m": "8",
    "elev_in_ft": "26",
    "lat": 38.5816,
    "long": -121.494
  },
  {
    "globaleventid": "259486596",
    "sqldate": "20130714",
    "monthyear": "201307",
    "year": "2013",
    "fractiondate": "2013.5315",
    "eventcode": "141",
    "quadclass": "3",
    "nummentions": "1",
    "numsources": "1",
    "numarticles": "1",
    "avgtone": "3.38600451467269",
    "sourceurl": "http://www.fresnobee.com/2013/07/13/3386511/dan-walters-what-is-the-best-election.html",
    "feature_id": "1659564",
    "feature_name": "Sacramento",
    "state_alpha": "CA",
    "county_name": "Sacramento",
    "county_numeric": "067",
    "prim_lat_dec": "38.5816",
    "prim_long_dec": "-121.494",
    "elev_in_m": "8",
    "elev_in_ft": "26",
    "lat": 38.5816,
    "long": -121.494
  },
  {
    "globaleventid": "259486595",
    "sqldate": "20130714",
    "monthyear": "201307",
    "year": "2013",
    "fractiondate": "2013.5315",
    "eventcode": "141",
    "quadclass": "3",
    "nummentions": "1",
    "numsources": "1",
    "numarticles": "1",
    "avgtone": "3.07017543859649",
    "sourceurl": "http://www.sanluisobispo.com/2013/07/14/2582087/dan-walters-which-voting-system.html",
    "feature_id": "1652663",
    "feature_name": "Anaheim",
    "state_alpha": "CA",
    "county_name": "Orange",
    "county_numeric": "059",
    "prim_lat_dec": "33.8353",
    "prim_long_dec": "-117.915",
    "elev_in_m": "49",
    "elev_in_ft": "161",
    "lat": 33.8353,
    "long": -117.915
  },
  {
    "globaleventid": "259486590",
    "sqldate": "20130714",
    "monthyear": "201307",
    "year": "2013",
    "fractiondate": "2013.5315",
    "eventcode": "120",
    "quadclass": "3",
    "nummentions": "6",
    "numsources": "1",
    "numarticles": "6",
    "avgtone": "3.49344978165939",
    "sourceurl": "http://www.chron.com/news/article/SC-hospitals-to-test-newborns-for-heart-defects-4663664.php",
    "feature_id": "1383058",
    "feature_name": "Carolina",
    "state_alpha": "TX",
    "county_name": "Walker",
    "county_numeric": "471",
    "prim_lat_dec": "30.7938",
    "prim_long_dec": "-95.3969",
    "elev_in_m": "88",
    "elev_in_ft": "289",
    "lat": 30.7938,
    "long": -95.3969
  },
  {
    "globaleventid": "259486560",
    "sqldate": "20130714",
    "monthyear": "201307",
    "year": "2013",
    "fractiondate": "2013.5315",
    "eventcode": "182",
    "quadclass": "4",
    "nummentions": "5",
    "numsources": "1",
    "numarticles": "5",
    "avgtone": "0.453514739229025",
    "sourceurl": "http://www.gobogalusa.com/news/breaking_news/article_1fba5724-ec34-11e2-860e-0019bb2963f4.html",
    "feature_id": "1629985",
    "feature_name": "New Orleans",
    "state_alpha": "LA",
    "county_name": "Orleans",
    "county_numeric": "071",
    "prim_lat_dec": "29.9546",
    "prim_long_dec": "-90.0751",
    "elev_in_m": "0",
    "elev_in_ft": "0",
    "lat": 29.9546,
    "long": -90.0751
  },
  {
    "globaleventid": "259486504",
    "sqldate": "20130714",
    "monthyear": "201307",
    "year": "2013",
    "fractiondate": "2013.5315",
    "eventcode": "1014",
    "quadclass": "3",
    "nummentions": "2",
    "numsources": "1",
    "numarticles": "2",
    "avgtone": "0.87463556851312",
    "sourceurl": "http://www.buenosairesherald.com/article/136024/human-rights-groups-complain-of-spying",
    "feature_id": "531871",
    "feature_name": "Washington",
    "state_alpha": "DC",
    "county_name": "District of Columbia",
    "county_numeric": "001",
    "prim_lat_dec": "38.8951",
    "prim_long_dec": "-77.0364",
    "elev_in_m": "7",
    "elev_in_ft": "23",
    "lat": 38.8951,
    "long": -77.0364
  },
  {
    "globaleventid": "259486452",
    "sqldate": "20130714",
    "monthyear": "201307",
    "year": "2013",
    "fractiondate": "2013.5315",
    "eventcode": "174",
    "quadclass": "4",
    "nummentions": "3",
    "numsources": "1",
    "numarticles": "3",
    "avgtone": "0.831024930747922",
    "sourceurl": "http://uk.reuters.com/article/2013/06/27/uk-usa-security-snowden-idUKBRE95Q0SH20130627?feedType=RSS&feedName=worldNews",
    "feature_id": "531871",
    "feature_name": "Washington",
    "state_alpha": "DC",
    "county_name": "District of Columbia",
    "county_numeric": "001",
    "prim_lat_dec": "38.8951",
    "prim_long_dec": "-77.0364",
    "elev_in_m": "7",
    "elev_in_ft": "23",
    "lat": 38.8951,
    "long": -77.0364
  },
  {
    "globaleventid": "259486442",
    "sqldate": "20130714",
    "monthyear": "201307",
    "year": "2013",
    "fractiondate": "2013.5315",
    "eventcode": "100",
    "quadclass": "3",
    "nummentions": "10",
    "numsources": "1",
    "numarticles": "10",
    "avgtone": "3.09278350515464",
    "sourceurl": "http://zeenews.india.com/news/world/support-landmark-immigration-bill-obama-to-republicans_862169.html",
    "feature_id": "531871",
    "feature_name": "Washington",
    "state_alpha": "DC",
    "county_name": "District of Columbia",
    "county_numeric": "001",
    "prim_lat_dec": "38.8951",
    "prim_long_dec": "-77.0364",
    "elev_in_m": "7",
    "elev_in_ft": "23",
    "lat": 38.8951,
    "long": -77.0364
  },
  {
    "globaleventid": "259486434",
    "sqldate": "20130714",
    "monthyear": "201307",
    "year": "2013",
    "fractiondate": "2013.5315",
    "eventcode": "193",
    "quadclass": "4",
    "nummentions": "6",
    "numsources": "1",
    "numarticles": "6",
    "avgtone": "2.85714285714286",
    "sourceurl": "http://www.theglobeandmail.com/news/world/barack-obama-urges-calm-in-wake-of-zimmerman-verdict/article13211408/?cmpid=rss1",
    "feature_id": "290826",
    "feature_name": "Seminole",
    "state_alpha": "FL",
    "county_name": "Pinellas",
    "county_numeric": "103",
    "prim_lat_dec": "27.8397",
    "prim_long_dec": "-82.7912",
    "elev_in_m": "11",
    "elev_in_ft": "36",
    "lat": 27.8397,
    "long": -82.7912
  },
  {
    "globaleventid": "259486432",
    "sqldate": "20130714",
    "monthyear": "201307",
    "year": "2013",
    "fractiondate": "2013.5315",
    "eventcode": "112",
    "quadclass": "3",
    "nummentions": "2",
    "numsources": "1",
    "numarticles": "2",
    "avgtone": "2.75862068965517",
    "sourceurl": "http://www.newser.com/story/170962/obama-this-is-how-we-should-honor-trayvon.html",
    "feature_id": "531871",
    "feature_name": "Washington",
    "state_alpha": "DC",
    "county_name": "District of Columbia",
    "county_numeric": "001",
    "prim_lat_dec": "38.8951",
    "prim_long_dec": "-77.0364",
    "elev_in_m": "7",
    "elev_in_ft": "23",
    "lat": 38.8951,
    "long": -77.0364
  },
  {
    "globaleventid": "259486428",
    "sqldate": "20130714",
    "monthyear": "201307",
    "year": "2013",
    "fractiondate": "2013.5315",
    "eventcode": "100",
    "quadclass": "3",
    "nummentions": "5",
    "numsources": "1",
    "numarticles": "5",
    "avgtone": "2.72873194221509",
    "sourceurl": "http://www.usatoday.com/story/opinion/editorials/2013/07/13/trayvon-martin-george-zimmerman-verdict-editorials-debates/2515089/",
    "feature_id": "288240",
    "feature_name": "Orlando",
    "state_alpha": "FL",
    "county_name": "Orange",
    "county_numeric": "095",
    "prim_lat_dec": "28.5383",
    "prim_long_dec": "-81.3792",
    "elev_in_m": "31",
    "elev_in_ft": "102",
    "lat": 28.5383,
    "long": -81.3792
  },
  {
    "globaleventid": "259486360",
    "sqldate": "20130714",
    "monthyear": "201307",
    "year": "2013",
    "fractiondate": "2013.5315",
    "eventcode": "193",
    "quadclass": "4",
    "nummentions": "4",
    "numsources": "1",
    "numarticles": "4",
    "avgtone": "2.7906976744186",
    "sourceurl": "http://web.orange.co.uk/article/news/trayvon_verdict_protesters_rally_across_us",
    "feature_id": "412884",
    "feature_name": "Manhattan",
    "state_alpha": "IL",
    "county_name": "Will",
    "county_numeric": "197",
    "prim_lat_dec": "41.4225",
    "prim_long_dec": "-87.9859",
    "elev_in_m": "208",
    "elev_in_ft": "682",
    "lat": 41.4225,
    "long": -87.9859
  },
  {
    "globaleventid": "259486359",
    "sqldate": "20130714",
    "monthyear": "201307",
    "year": "2013",
    "fractiondate": "2013.5315",
    "eventcode": "193",
    "quadclass": "4",
    "nummentions": "2",
    "numsources": "1",
    "numarticles": "2",
    "avgtone": "2.85714285714286",
    "sourceurl": "http://www.theglobeandmail.com/news/world/barack-obama-urges-calm-in-wake-of-zimmerman-verdict/article13211408/?cmpid=rss1",
    "feature_id": "290826",
    "feature_name": "Seminole",
    "state_alpha": "FL",
    "county_name": "Pinellas",
    "county_numeric": "103",
    "prim_lat_dec": "27.8397",
    "prim_long_dec": "-82.7912",
    "elev_in_m": "11",
    "elev_in_ft": "36",
    "lat": 27.8397,
    "long": -82.7912
  },
  {
    "globaleventid": "259486358",
    "sqldate": "20130714",
    "monthyear": "201307",
    "year": "2013",
    "fractiondate": "2013.5315",
    "eventcode": "193",
    "quadclass": "4",
    "nummentions": "2",
    "numsources": "1",
    "numarticles": "2",
    "avgtone": "2.7906976744186",
    "sourceurl": "http://au.lifestyle.yahoo.com/marie-claire/features/reports/article/-/18002311/president-barack-obama-calls-for-calm-in-the-wake-of-trayvon-martin-verdict/",
    "feature_id": "277593",
    "feature_name": "San Francisco",
    "state_alpha": "CA",
    "county_name": "San Francisco",
    "county_numeric": "075",
    "prim_lat_dec": "37.775",
    "prim_long_dec": "-122.419",
    "elev_in_m": "16",
    "elev_in_ft": "52",
    "lat": 37.775,
    "long": -122.419
  },
  {
    "globaleventid": "259486357",
    "sqldate": "20130714",
    "monthyear": "201307",
    "year": "2013",
    "fractiondate": "2013.5315",
    "eventcode": "193",
    "quadclass": "4",
    "nummentions": "8",
    "numsources": "1",
    "numarticles": "8",
    "avgtone": "2.47129129260002",
    "sourceurl": "http://www.philly.com/philly/news/breaking/20130715_Debate_rages_over_verdict_in_Martin_case.html",
    "feature_id": "1209052",
    "feature_name": "Philadelphia",
    "state_alpha": "PA",
    "county_name": "Philadelphia",
    "county_numeric": "101",
    "prim_lat_dec": "39.9523",
    "prim_long_dec": "-75.1638",
    "elev_in_m": "14",
    "elev_in_ft": "46",
    "lat": 39.9523,
    "long": -75.1638
  },
  {
    "globaleventid": "259486356",
    "sqldate": "20130714",
    "monthyear": "201307",
    "year": "2013",
    "fractiondate": "2013.5315",
    "eventcode": "193",
    "quadclass": "4",
    "nummentions": "6",
    "numsources": "3",
    "numarticles": "6",
    "avgtone": "0.0",
    "sourceurl": "http://www.reviewonline.com/page/content.detail/id/343449/Murder-suicide-suspected-in-2-deaths-in-Ohio-.html?isap=1&nav=5038",
    "feature_id": "1080996",
    "feature_name": "Columbus",
    "state_alpha": "OH",
    "county_name": "Franklin",
    "county_numeric": "049",
    "prim_lat_dec": "39.9612",
    "prim_long_dec": "-82.9988",
    "elev_in_m": "238",
    "elev_in_ft": "781",
    "lat": 39.9612,
    "long": -82.9988
  },
  {
    "globaleventid": "259486355",
    "sqldate": "20130714",
    "monthyear": "201307",
    "year": "2013",
    "fractiondate": "2013.5315",
    "eventcode": "193",
    "quadclass": "4",
    "nummentions": "6",
    "numsources": "3",
    "numarticles": "6",
    "avgtone": "0.0",
    "sourceurl": "http://www.reviewonline.com/page/content.detail/id/343449/Murder-suicide-suspected-in-2-deaths-in-Ohio-.html?isap=1&nav=5038",
    "feature_id": "1080996",
    "feature_name": "Columbus",
    "state_alpha": "OH",
    "county_name": "Franklin",
    "county_numeric": "049",
    "prim_lat_dec": "39.9612",
    "prim_long_dec": "-82.9988",
    "elev_in_m": "238",
    "elev_in_ft": "781",
    "lat": 39.9612,
    "long": -82.9988
  },
  {
    "globaleventid": "259486352",
    "sqldate": "20130714",
    "monthyear": "201307",
    "year": "2013",
    "fractiondate": "2013.5315",
    "eventcode": "190",
    "quadclass": "4",
    "nummentions": "4",
    "numsources": "1",
    "numarticles": "4",
    "avgtone": "3.32434860736748",
    "sourceurl": "http://www.detroitnews.com/article/20130714/METRO01/307140049/Zimmerman-verdict-ignites-protests?odyssey=tab%7Ctopnews%7Ctext%7CFRONTPAGE",
    "feature_id": "1617959",
    "feature_name": "Detroit",
    "state_alpha": "MI",
    "county_name": "Wayne",
    "county_numeric": "163",
    "prim_lat_dec": "42.3314",
    "prim_long_dec": "-83.0458",
    "elev_in_m": "182",
    "elev_in_ft": "597",
    "lat": 42.3314,
    "long": -83.0458
  },
  {
    "globaleventid": "259486346",
    "sqldate": "20130714",
    "monthyear": "201307",
    "year": "2013",
    "fractiondate": "2013.5315",
    "eventcode": "190",
    "quadclass": "4",
    "nummentions": "4",
    "numsources": "1",
    "numarticles": "4",
    "avgtone": "1.72166427546628",
    "sourceurl": "http://www.independent.co.uk/news/world/americas/obama-appeals-for-calm-as-trayvon-martin-killer-george-zimmerman-is-cleared-of-murder-8708250.html",
    "feature_id": "531871",
    "feature_name": "Washington",
    "state_alpha": "DC",
    "county_name": "District of Columbia",
    "county_numeric": "001",
    "prim_lat_dec": "38.8951",
    "prim_long_dec": "-77.0364",
    "elev_in_m": "7",
    "elev_in_ft": "23",
    "lat": 38.8951,
    "long": -77.0364
  },
  {
    "globaleventid": "259486344",
    "sqldate": "20130714",
    "monthyear": "201307",
    "year": "2013",
    "fractiondate": "2013.5315",
    "eventcode": "190",
    "quadclass": "4",
    "nummentions": "4",
    "numsources": "1",
    "numarticles": "4",
    "avgtone": "2.46598639455782",
    "sourceurl": "http://thehill.com/blogs/blog-briefing-room/news/310885-dems-civil-rights-groups-urge-doj-to-act-after-zimmerman-verdict",
    "feature_id": "529313",
    "feature_name": "Capitol Hill",
    "state_alpha": "DC",
    "county_name": "District of Columbia",
    "county_numeric": "001",
    "prim_lat_dec": "38.889",
    "prim_long_dec": "-77.0003",
    "elev_in_m": "28",
    "elev_in_ft": "92",
    "lat": 38.889,
    "long": -77.0003
  },
  {
    "globaleventid": "259486343",
    "sqldate": "20130714",
    "monthyear": "201307",
    "year": "2013",
    "fractiondate": "2013.5315",
    "eventcode": "190",
    "quadclass": "4",
    "nummentions": "2",
    "numsources": "1",
    "numarticles": "2",
    "avgtone": "2.7906976744186",
    "sourceurl": "http://au.lifestyle.yahoo.com/marie-claire/features/reports/article/-/18002311/president-barack-obama-calls-for-calm-in-the-wake-of-trayvon-martin-verdict/",
    "feature_id": "277593",
    "feature_name": "San Francisco",
    "state_alpha": "CA",
    "county_name": "San Francisco",
    "county_numeric": "075",
    "prim_lat_dec": "37.775",
    "prim_long_dec": "-122.419",
    "elev_in_m": "16",
    "elev_in_ft": "52",
    "lat": 37.775,
    "long": -122.419
  },
  {
    "globaleventid": "259486341",
    "sqldate": "20130714",
    "monthyear": "201307",
    "year": "2013",
    "fractiondate": "2013.5315",
    "eventcode": "190",
    "quadclass": "4",
    "nummentions": "4",
    "numsources": "1",
    "numarticles": "4",
    "avgtone": "0.458715596330275",
    "sourceurl": "http://www.wrbl.com/story/22834285/opelika-church-on-fire",
    "feature_id": "152814",
    "feature_name": "Opelika",
    "state_alpha": "AL",
    "county_name": "Lee",
    "county_numeric": "081",
    "prim_lat_dec": "32.6454",
    "prim_long_dec": "-85.3783",
    "elev_in_m": "246",
    "elev_in_ft": "807",
    "lat": 32.6454,
    "long": -85.3783
  },
  {
    "globaleventid": "259486336",
    "sqldate": "20130714",
    "monthyear": "201307",
    "year": "2013",
    "fractiondate": "2013.5315",
    "eventcode": "174",
    "quadclass": "4",
    "nummentions": "2",
    "numsources": "1",
    "numarticles": "2",
    "avgtone": "0.831024930747922",
    "sourceurl": "http://uk.reuters.com/article/2013/06/27/uk-usa-security-snowden-idUKBRE95Q0SH20130627?feedType=RSS&feedName=worldNews",
    "feature_id": "531871",
    "feature_name": "Washington",
    "state_alpha": "DC",
    "county_name": "District of Columbia",
    "county_numeric": "001",
    "prim_lat_dec": "38.8951",
    "prim_long_dec": "-77.0364",
    "elev_in_m": "7",
    "elev_in_ft": "23",
    "lat": 38.8951,
    "long": -77.0364
  },
  {
    "globaleventid": "259486329",
    "sqldate": "20130714",
    "monthyear": "201307",
    "year": "2013",
    "fractiondate": "2013.5315",
    "eventcode": "173",
    "quadclass": "4",
    "nummentions": "4",
    "numsources": "1",
    "numarticles": "4",
    "avgtone": "0.0",
    "sourceurl": "http://www.foxnews.com/us/2013/07/14/man-arrested-outside-john-kerry-boston-home-had-alcohol-and-was-seen-taking/",
    "feature_id": "617565",
    "feature_name": "Boston",
    "state_alpha": "MA",
    "county_name": "Suffolk",
    "county_numeric": "025",
    "prim_lat_dec": "42.3584",
    "prim_long_dec": "-71.0598",
    "elev_in_m": "14",
    "elev_in_ft": "46",
    "lat": 42.3584,
    "long": -71.0598
  },
  {
    "globaleventid": "259486328",
    "sqldate": "20130714",
    "monthyear": "201307",
    "year": "2013",
    "fractiondate": "2013.5315",
    "eventcode": "173",
    "quadclass": "4",
    "nummentions": "1",
    "numsources": "1",
    "numarticles": "1",
    "avgtone": "1.8641810918775",
    "sourceurl": "http://www.leadertelegram.com/news/daily_updates/article_69d840ee-ec40-11e2-bf6d-0019bb2963f4.html",
    "feature_id": "549070",
    "feature_name": "Carolina",
    "state_alpha": "LA",
    "county_name": "Bienville",
    "county_numeric": "013",
    "prim_lat_dec": "32.196",
    "prim_long_dec": "-92.9377",
    "elev_in_m": "71",
    "elev_in_ft": "233",
    "lat": 32.196,
    "long": -92.9377
  },
  {
    "globaleventid": "259486327",
    "sqldate": "20130714",
    "monthyear": "201307",
    "year": "2013",
    "fractiondate": "2013.5315",
    "eventcode": "173",
    "quadclass": "4",
    "nummentions": "12",
    "numsources": "3",
    "numarticles": "12",
    "avgtone": "3.27598038955078",
    "sourceurl": "http://www.washingtonpost.com/politics/courts_law/obama-calls-for-reflection-peace-after-zimmerman-found-not-guilty-in-death-of-trayvon-martin/2013/07/14/673ec662-ecba-11e2-b46e-f15eec37b46c_story.html",
    "feature_id": "531871",
    "feature_name": "Washington",
    "state_alpha": "DC",
    "county_name": "District of Columbia",
    "county_numeric": "001",
    "prim_lat_dec": "38.8951",
    "prim_long_dec": "-77.0364",
    "elev_in_m": "7",
    "elev_in_ft": "23",
    "lat": 38.8951,
    "long": -77.0364
  },
  {
    "globaleventid": "259486326",
    "sqldate": "20130714",
    "monthyear": "201307",
    "year": "2013",
    "fractiondate": "2013.5315",
    "eventcode": "173",
    "quadclass": "4",
    "nummentions": "14",
    "numsources": "2",
    "numarticles": "14",
    "avgtone": "3.73576360864497",
    "sourceurl": "http://www.alaskadispatch.com/article/20130714/president-obama-trayvon-martins-death-tragedy-america",
    "feature_id": "285263",
    "feature_name": "Lake Mary",
    "state_alpha": "FL",
    "county_name": "Seminole",
    "county_numeric": "117",
    "prim_lat_dec": "28.7589",
    "prim_long_dec": "-81.3178",
    "elev_in_m": "19",
    "elev_in_ft": "62",
    "lat": 28.7589,
    "long": -81.3178
  },
  {
    "globaleventid": "259486325",
    "sqldate": "20130714",
    "monthyear": "201307",
    "year": "2013",
    "fractiondate": "2013.5315",
    "eventcode": "173",
    "quadclass": "4",
    "nummentions": "4",
    "numsources": "2",
    "numarticles": "4",
    "avgtone": "3.54258810101298",
    "sourceurl": "http://au.lifestyle.yahoo.com/marie-claire/features/reports/article/-/18002311/president-barack-obama-calls-for-calm-in-the-wake-of-trayvon-martin-verdict/",
    "feature_id": "277593",
    "feature_name": "San Francisco",
    "state_alpha": "CA",
    "county_name": "San Francisco",
    "county_numeric": "075",
    "prim_lat_dec": "37.775",
    "prim_long_dec": "-122.419",
    "elev_in_m": "16",
    "elev_in_ft": "52",
    "lat": 37.775,
    "long": -122.419
  },
  {
    "globaleventid": "259486324",
    "sqldate": "20130714",
    "monthyear": "201307",
    "year": "2013",
    "fractiondate": "2013.5315",
    "eventcode": "173",
    "quadclass": "4",
    "nummentions": "4",
    "numsources": "1",
    "numarticles": "4",
    "avgtone": "4.69798657718121",
    "sourceurl": "http://www.winnipegfreepress.com/breakingnews/obama-calls-for-reflection-peace-after-zimmerman-found-not-guilty-in-death-of-trayvon-martin-215446351.html",
    "feature_id": "2484782",
    "feature_name": "Winnipeg",
    "state_alpha": "FL",
    "county_name": "Hillsborough",
    "county_numeric": "057",
    "prim_lat_dec": "28.0165",
    "prim_long_dec": "-82.4544",
    "elev_in_m": "8",
    "elev_in_ft": "26",
    "lat": 28.0165,
    "long": -82.4544
  },
  {
    "globaleventid": "259486323",
    "sqldate": "20130714",
    "monthyear": "201307",
    "year": "2013",
    "fractiondate": "2013.5315",
    "eventcode": "173",
    "quadclass": "4",
    "nummentions": "4",
    "numsources": "1",
    "numarticles": "4",
    "avgtone": "3.32434860736748",
    "sourceurl": "http://www.detroitnews.com/article/20130714/METRO01/307140049/Zimmerman-verdict-ignites-protests?odyssey=tab%7Ctopnews%7Ctext%7CFRONTPAGE",
    "feature_id": "1617959",
    "feature_name": "Detroit",
    "state_alpha": "MI",
    "county_name": "Wayne",
    "county_numeric": "163",
    "prim_lat_dec": "42.3314",
    "prim_long_dec": "-83.0458",
    "elev_in_m": "182",
    "elev_in_ft": "597",
    "lat": 42.3314,
    "long": -83.0458
  },
  {
    "globaleventid": "259486316",
    "sqldate": "20130714",
    "monthyear": "201307",
    "year": "2013",
    "fractiondate": "2013.5315",
    "eventcode": "129",
    "quadclass": "3",
    "nummentions": "2",
    "numsources": "1",
    "numarticles": "2",
    "avgtone": "4.00763358778626",
    "sourceurl": "http://www.montereyherald.com/opinion/ci_23659110/rebekah-peeples-massengill-five-myths-about-wal-mart",
    "feature_id": "1802959",
    "feature_name": "Staten Island",
    "state_alpha": "NY",
    "county_name": "Richmond",
    "county_numeric": "085",
    "prim_lat_dec": "40.5834",
    "prim_long_dec": "-74.1496",
    "elev_in_m": "49",
    "elev_in_ft": "161",
    "lat": 40.5834,
    "long": -74.1496
  },
  {
    "globaleventid": "259486309",
    "sqldate": "20130714",
    "monthyear": "201307",
    "year": "2013",
    "fractiondate": "2013.5315",
    "eventcode": "1123",
    "quadclass": "3",
    "nummentions": "2",
    "numsources": "1",
    "numarticles": "2",
    "avgtone": "4.18604651162791",
    "sourceurl": "http://www.shanghaidaily.com/article/article_xinhua.asp?id=153226",
    "feature_id": "531871",
    "feature_name": "Washington",
    "state_alpha": "DC",
    "county_name": "District of Columbia",
    "county_numeric": "001",
    "prim_lat_dec": "38.8951",
    "prim_long_dec": "-77.0364",
    "elev_in_m": "7",
    "elev_in_ft": "23",
    "lat": 38.8951,
    "long": -77.0364
  },
  {
    "globaleventid": "259486303",
    "sqldate": "20130714",
    "monthyear": "201307",
    "year": "2013",
    "fractiondate": "2013.5315",
    "eventcode": "112",
    "quadclass": "3",
    "nummentions": "2",
    "numsources": "1",
    "numarticles": "2",
    "avgtone": "2.07792207792208",
    "sourceurl": "http://www.boiseweekly.com/boise/george-zimmerman-not-guilty-of-murder-in-trayvon-martin-trial/Content?oid=2896260",
    "feature_id": "1516763",
    "feature_name": "Boise",
    "state_alpha": "WA",
    "county_name": "King",
    "county_numeric": "033",
    "prim_lat_dec": "47.1804",
    "prim_long_dec": "-122.016",
    "elev_in_m": "221",
    "elev_in_ft": "725",
    "lat": 47.1804,
    "long": -122.016
  },
  {
    "globaleventid": "259486036",
    "sqldate": "20130714",
    "monthyear": "201307",
    "year": "2013",
    "fractiondate": "2013.5315",
    "eventcode": "193",
    "quadclass": "4",
    "nummentions": "20",
    "numsources": "1",
    "numarticles": "10",
    "avgtone": "3.62844702467344",
    "sourceurl": "http://news.yahoo.com/senates-draft-cybersecurity-bill-uncontroversial-unambitious-125158663.html",
    "feature_id": "531871",
    "feature_name": "Washington",
    "state_alpha": "DC",
    "county_name": "District of Columbia",
    "county_numeric": "001",
    "prim_lat_dec": "38.8951",
    "prim_long_dec": "-77.0364",
    "elev_in_m": "7",
    "elev_in_ft": "23",
    "lat": 38.8951,
    "long": -77.0364
  },
  {
    "globaleventid": "259486035",
    "sqldate": "20130714",
    "monthyear": "201307",
    "year": "2013",
    "fractiondate": "2013.5315",
    "eventcode": "120",
    "quadclass": "3",
    "nummentions": "10",
    "numsources": "2",
    "numarticles": "10",
    "avgtone": "2.36058684295878",
    "sourceurl": "http://english.cntv.cn/20130714/102772.shtml",
    "feature_id": "531871",
    "feature_name": "Washington",
    "state_alpha": "DC",
    "county_name": "District of Columbia",
    "county_numeric": "001",
    "prim_lat_dec": "38.8951",
    "prim_long_dec": "-77.0364",
    "elev_in_m": "7",
    "elev_in_ft": "23",
    "lat": 38.8951,
    "long": -77.0364
  },
  {
    "globaleventid": "259485983",
    "sqldate": "20130714",
    "monthyear": "201307",
    "year": "2013",
    "fractiondate": "2013.5315",
    "eventcode": "112",
    "quadclass": "3",
    "nummentions": "8",
    "numsources": "1",
    "numarticles": "8",
    "avgtone": "2.4",
    "sourceurl": "http://www.mis-asia.com/resource/legal/snowden-says-us-is-using-historically-disproportionate-aggression-to-nab-him/?page=2&c=2lglLpKErnDbtHLN9EJbO7fExq3BodiAju8GzFr2Vfg&mkt=en-us",
    "feature_id": "531871",
    "feature_name": "Washington",
    "state_alpha": "DC",
    "county_name": "District of Columbia",
    "county_numeric": "001",
    "prim_lat_dec": "38.8951",
    "prim_long_dec": "-77.0364",
    "elev_in_m": "7",
    "elev_in_ft": "23",
    "lat": 38.8951,
    "long": -77.0364
  },
  {
    "globaleventid": "259485955",
    "sqldate": "20130714",
    "monthyear": "201307",
    "year": "2013",
    "fractiondate": "2013.5315",
    "eventcode": "111",
    "quadclass": "3",
    "nummentions": "10",
    "numsources": "1",
    "numarticles": "10",
    "avgtone": "2.18300046446818",
    "sourceurl": "http://www.guardian.co.uk/commentisfree/2013/jul/14/al-jazeera-marwan-bishara-email?utm_source=feedburner&utm_medium=feed&utm_campaign=Feed%3A+theguardian%2Fmedia%2Frss+%28Media%29",
    "feature_id": "423587",
    "feature_name": "Chicago",
    "state_alpha": "IL",
    "county_name": "Cook",
    "county_numeric": "031",
    "prim_lat_dec": "41.85",
    "prim_long_dec": "-87.6501",
    "elev_in_m": "179",
    "elev_in_ft": "587",
    "lat": 41.85,
    "long": -87.6501
  },