[
  {
    "globaleventid": 273966561,
    "sqldate": 20131031,
    "monthyear": 201310,
    "year": 2013,
    "fractiondate": "2013.8247",
    "eventcode": 190,
    "quadclass": 4,
    "nummentions": 4,
    "numsources": 1,
    "numarticles": 4,
    "avgtone": "0.0",
    "sourceurl": "http://www.utahindependent.com/index.php/sid/218102641/scat/bcecd7f88c90b7a3",
    "feature_id": "1427343",
    "feature_name": "Deseret",
    "state_alpha": "UT",
    "county_name": "Millard",
    "county_numeric": "027",
    "prim_lat_dec": "39.286901",
    "prim_long_dec": "-112.652727",
    "elev_in_m": "1399",
    "elev_in_ft": "4590",
    "lat": 39.286901,
    "long": -112.652727
  },
  {
    "globaleventid": 273966560,
    "sqldate": 20131031,
    "monthyear": 201310,
    "year": 2013,
    "fractiondate": "2013.8247",
    "eventcode": 190,
    "quadclass": 4,
    "nummentions": 6,
    "numsources": 1,
    "numarticles": 6,
    "avgtone": "0.330578512396694",
    "sourceurl": "http://navajotimes.com/news/2013/1013/103113blotter.php",
    "feature_id": "12802",
    "feature_name": "Tuba City",
    "state_alpha": "AZ",
    "county_name": "Coconino",
    "county_numeric": "005",
    "prim_lat_dec": "36.1349928",
    "prim_long_dec": "-111.2398625",
    "elev_in_m": "1512",
    "elev_in_ft": "4961",
    "lat": 36.1349928,
    "long": -111.2398625
  },
  {
    "globaleventid": 273966559,
    "sqldate": 20131031,
    "monthyear": 201310,
    "year": 2013,
    "fractiondate": "2013.8247",
    "eventcode": 190,
    "quadclass": 4,
    "nummentions": 7,
    "numsources": 1,
    "numarticles": 7,
    "avgtone": "2.24719101123596",
    "sourceurl": "http://www.nydailynews.com/news/national/calif-13-year-old-stay-jailed-killing-neo-nazi-dad-article-1.1503263",
    "feature_id": "1061611",
    "feature_name": "Riverside",
    "state_alpha": "OH",
    "county_name": "Hamilton",
    "county_numeric": "061",
    "prim_lat_dec": "39.0775598",
    "prim_long_dec": "-84.6030001",
    "elev_in_m": "153",
    "elev_in_ft": "502",
    "lat": 39.0775598,
    "long": -84.6030001
  },
  {
    "globaleventid": 273966556,
    "sqldate": 20131031,
    "monthyear": 201310,
    "year": 2013,
    "fractiondate": "2013.8247",
    "eventcode": 182,
    "quadclass": 4,
    "nummentions": 12,
    "numsources": 1,
    "numarticles": 12,
    "avgtone": "1.0",
    "sourceurl": "http://www.abajournal.com/news/article/are_haunted_houses_liable_for_fright_injuries_louisiana_opinions_answer_in_/",
    "feature_id": "1209052",
    "feature_name": "Philadelphia",
    "state_alpha": "PA",
    "county_name": "Philadelphia",
    "county_numeric": "101",
    "prim_lat_dec": "39.952335",
    "prim_long_dec": "-75.163789",
    "elev_in_m": "14",
    "elev_in_ft": "46",
    "lat": 39.952335,
    "long": -75.163789
  },
  {
    "globaleventid": 273966550,
    "sqldate": 20131031,
    "monthyear": 201310,
    "year": 2013,
    "fractiondate": "2013.8247",
    "eventcode": 180,
    "quadclass": 4,
    "nummentions": 4,
    "numsources": 1,
    "numarticles": 4,
    "avgtone": "1.86567164179104",
    "sourceurl": "http://www.kpcnews.com/news/state/article_138b6229-1fd5-5b9f-849f-1235914eef71.html",
    "feature_id": "452890",
    "feature_name": "Indianapolis",
    "state_alpha": "IN",
    "county_name": "Marion",
    "county_numeric": "097",
    "prim_lat_dec": "39.7683765",
    "prim_long_dec": "-86.1580423",
    "elev_in_m": "219",
    "elev_in_ft": "718",
    "lat": 39.7683765,
    "long": -86.1580423
  },
  {
    "globaleventid": 273966549,
    "sqldate": 20131031,
    "monthyear": 201310,
    "year": 2013,
    "fractiondate": "2013.8247",
    "eventcode": 180,
    "quadclass": 4,
    "nummentions": 2,
    "numsources": 1,
    "numarticles": 2,
    "avgtone": "2.52365930599369",
    "sourceurl": "http://www.ctpost.com/news/crime/article/Ind-panel-studies-high-rate-of-teen-sex-assaults-4941623.php",
    "feature_id": "452890",
    "feature_name": "Indianapolis",
    "state_alpha": "IN",
    "county_name": "Marion",
    "county_numeric": "097",
    "prim_lat_dec": "39.7683765",
    "prim_long_dec": "-86.1580423",
    "elev_in_m": "219",
    "elev_in_ft": "718",
    "lat": 39.7683765,
    "long": -86.1580423
  },
  {
    "globaleventid": 273966548,
    "sqldate": 20131031,
    "monthyear": 201310,
    "year": 2013,
    "fractiondate": "2013.8247",
    "eventcode": 180,
    "quadclass": 4,
    "nummentions": 48,
    "numsources": 3,
    "numarticles": 30,
    "avgtone": "2.38139487672444",
    "sourceurl": "http://www.ctpost.com/news/crime/article/Ind-panel-studies-high-rate-of-teen-sex-assaults-4941623.php",
    "feature_id": "452890",
    "feature_name": "Indianapolis",
    "state_alpha": "IN",
    "county_name": "Marion",
    "county_numeric": "097",
    "prim_lat_dec": "39.7683765",
    "prim_long_dec": "-86.1580423",
    "elev_in_m": "219",
    "elev_in_ft": "718",
    "lat": 39.7683765,
    "long": -86.1580423
  },
  {
    "globaleventid": 273966546,
    "sqldate": 20131031,
    "monthyear": 201310,
    "year": 2013,
    "fractiondate": "2013.8247",
    "eventcode": 174,
    "quadclass": 4,
    "nummentions": 2,
    "numsources": 1,
    "numarticles": 2,
    "avgtone": "0.297619047619048",
    "sourceurl": "http://losangeles.cbslocal.com/2013/10/31/beverly-hills-rabbi-arrested-on-sex-abuse-charges-prepares-for-extradition-to-ny/",
    "feature_id": "944840",
    "feature_name": "Brooklyn",
    "state_alpha": "NY",
    "county_name": "Delaware",
    "county_numeric": "025",
    "prim_lat_dec": "42.3442482",
    "prim_long_dec": "-75.1704468",
    "elev_in_m": "366",
    "elev_in_ft": "1201",
    "lat": 42.3442482,
    "long": -75.1704468
  },
  {
    "globaleventid": 273966543,
    "sqldate": 20131031,
    "monthyear": 201310,
    "year": 2013,
    "fractiondate": "2013.8247",
    "eventcode": 173,
    "quadclass": 4,
    "nummentions": 4,
    "numsources": 1,
    "numarticles": 4,
    "avgtone": "2.18068535825545",
    "sourceurl": "http://www.cnn.com/2013/10/31/us/fundamentalist-church-of-jesus-christ-of-latter-day-saints-fast-facts/index.html",
    "feature_id": "3123",
    "feature_name": "Colorado City",
    "state_alpha": "AZ",
    "county_name": "Mohave",
    "county_numeric": "015",
    "prim_lat_dec": "36.9902621",
    "prim_long_dec": "-112.9757702",
    "elev_in_m": "1517",
    "elev_in_ft": "4977",
    "lat": 36.9902621,
    "long": -112.9757702
  },
  {
    "globaleventid": 273966529,
    "sqldate": 20131031,
    "monthyear": 201310,
    "year": 2013,
    "fractiondate": "2013.8247",
    "eventcode": 173,
    "quadclass": 4,
    "nummentions": 2,
    "numsources": 1,
    "numarticles": 2,
    "avgtone": "1.70940170940171",
    "sourceurl": "http://www.wics.com/news/top-stories/stories/vid_13992.shtml",
    "feature_id": "407044",
    "feature_name": "Decatur",
    "state_alpha": "IL",
    "county_name": "Macon",
    "county_numeric": "115",
    "prim_lat_dec": "39.8403147",
    "prim_long_dec": "-88.9548001",
    "elev_in_m": "206",
    "elev_in_ft": "676",
    "lat": 39.8403147,
    "long": -88.9548001
  },
  {
    "globaleventid": 273966521,
    "sqldate": 20131031,
    "monthyear": 201310,
    "year": 2013,
    "fractiondate": "2013.8247",
    "eventcode": 173,
    "quadclass": 4,
    "nummentions": 2,
    "numsources": 1,
    "numarticles": 2,
    "avgtone": "1.43884892086331",
    "sourceurl": "http://www.bostonstar.com/index.php/sid/218099547/scat/141778e5a055112e",
    "feature_id": "617565",
    "feature_name": "Boston",
    "state_alpha": "MA",
    "county_name": "Suffolk",
    "county_numeric": "025",
    "prim_lat_dec": "42.3584308",
    "prim_long_dec": "-71.0597732",
    "elev_in_m": "14",
    "elev_in_ft": "46",
    "lat": 42.3584308,
    "long": -71.0597732
  },
  {
    "globaleventid": 273966513,
    "sqldate": 20131031,
    "monthyear": 201310,
    "year": 2013,
    "fractiondate": "2013.8247",
    "eventcode": 173,
    "quadclass": 4,
    "nummentions": 2,
    "numsources": 1,
    "numarticles": 2,
    "avgtone": "2.2703818369453",
    "sourceurl": "http://www.mlive.com/news/saginaw/index.ssf/2013/10/first-degree_murder_conviction.html",
    "feature_id": "620777",
    "feature_name": "Bay City",
    "state_alpha": "MI",
    "county_name": "Bay",
    "county_numeric": "017",
    "prim_lat_dec": "43.5944677",
    "prim_long_dec": "-83.8888648",
    "elev_in_m": "181",
    "elev_in_ft": "594",
    "lat": 43.5944677,
    "long": -83.8888648
  },
  {
    "globaleventid": 273966511,
    "sqldate": 20131031,
    "monthyear": 201310,
    "year": 2013,
    "fractiondate": "2013.8247",
    "eventcode": 173,
    "quadclass": 4,
    "nummentions": 23,
    "numsources": 3,
    "numarticles": 23,
    "avgtone": "0.90377028228309",
    "sourceurl": "http://www.foxnews.com/us/2013/10/31/judge-woman-accused-paint-splashing-vandalism-at-dc-landmarks-incompetent-to/",
    "feature_id": "531871",
    "feature_name": "Washington",
    "state_alpha": "DC",
    "county_name": "District of Columbia",
    "county_numeric": "001",
    "prim_lat_dec": "38.8951118",
    "prim_long_dec": "-77.0363658",
    "elev_in_m": "7",
    "elev_in_ft": "23",
    "lat": 38.8951118,
    "long": -77.0363658
  },
  {
    "globaleventid": 273966507,
    "sqldate": 20131031,
    "monthyear": 201310,
    "year": 2013,
    "fractiondate": "2013.8247",
    "eventcode": 173,
    "quadclass": 4,
    "nummentions": 2,
    "numsources": 1,
    "numarticles": 2,
    "avgtone": "0.912408759124087",
    "sourceurl": "http://www.daily-tribune.com/view/full_story/23938147/article-Bartow-Blotter-10-29?instance=most_popular",
    "feature_id": "355017",
    "feature_name": "Cartersville",
    "state_alpha": "GA",
    "county_name": "Bartow",
    "county_numeric": "015",
    "prim_lat_dec": "34.1650972",
    "prim_long_dec": "-84.7999383",
    "elev_in_m": "234",
    "elev_in_ft": "768",
    "lat": 34.1650972,
    "long": -84.7999383
  },
  {
    "globaleventid": 273966506,
    "sqldate": 20131031,
    "monthyear": 201310,
    "year": 2013,
    "fractiondate": "2013.8247",
    "eventcode": 173,
    "quadclass": 4,
    "nummentions": 1,
    "numsources": 1,
    "numarticles": 1,
    "avgtone": "0.912408759124087",
    "sourceurl": "http://www.daily-tribune.com/view/full_story/23938147/article-Bartow-Blotter-10-29?instance=most_popular",
    "feature_id": "332152",
    "feature_name": "Kingston",
    "state_alpha": "GA",
    "county_name": "Bartow",
    "county_numeric": "015",
    "prim_lat_dec": "34.2370391",
    "prim_long_dec": "-84.9441098",
    "elev_in_m": "214",
    "elev_in_ft": "702",
    "lat": 34.2370391,
    "long": -84.9441098
  },
  {
    "globaleventid": 273966504,
    "sqldate": 20131031,
    "monthyear": 201310,
    "year": 2013,
    "fractiondate": "2013.8247",
    "eventcode": 173,
    "quadclass": 4,
    "nummentions": 2,
    "numsources": 1,
    "numarticles": 2,
    "avgtone": "0.516795865633075",
    "sourceurl": "http://www.13wmaz.com/news/georgia/article/251640/52/US-Attorney-to-press-investigation-of-Valdosta-death",
    "feature_id": "332301",
    "feature_name": "Macon",
    "state_alpha": "GA",
    "county_name": "Bibb",
    "county_numeric": "021",
    "prim_lat_dec": "32.8406946",
    "prim_long_dec": "-83.6324022",
    "elev_in_m": "113",
    "elev_in_ft": "371",
    "lat": 32.8406946,
    "long": -83.6324022
  },
  {
    "globaleventid": 273966502,
    "sqldate": 20131031,
    "monthyear": 201310,
    "year": 2013,
    "fractiondate": "2013.8247",
    "eventcode": 173,
    "quadclass": 4,
    "nummentions": 10,
    "numsources": 1,
    "numarticles": 10,
    "avgtone": "2.30547550432277",
    "sourceurl": "http://www.miamiherald.com/2013/10/31/3723434/man-says-he-was-drunk-angry-when.html",
    "feature_id": "295004",
    "feature_name": "Miami",
    "state_alpha": "FL",
    "county_name": "Miami-Dade",
    "county_numeric": "086",
    "prim_lat_dec": "25.7742658",
    "prim_long_dec": "-80.1936589",
    "elev_in_m": "2",
    "elev_in_ft": "7",
    "lat": 25.7742658,
    "long": -80.1936589
  },
  {
    "globaleventid": 273966501,
    "sqldate": 20131031,
    "monthyear": 201310,
    "year": 2013,
    "fractiondate": "2013.8247",
    "eventcode": 173,
    "quadclass": 4,
    "nummentions": 2,
    "numsources": 1,
    "numarticles": 2,
    "avgtone": "0.330578512396694",
    "sourceurl": "http://navajotimes.com/news/2013/1013/103113blotter.php",
    "feature_id": "2861",
    "feature_name": "Chinle",
    "state_alpha": "AZ",
    "county_name": "Apache",
    "county_numeric": "001",
    "prim_lat_dec": "36.1544483",
    "prim_long_dec": "-109.5526072",
    "elev_in_m": "1683",
    "elev_in_ft": "5522",
    "lat": 36.1544483,
    "long": -109.5526072
  },
  {
    "globaleventid": 273966499,
    "sqldate": 20131031,
    "monthyear": 201310,
    "year": 2013,
    "fractiondate": "2013.8247",
    "eventcode": 173,
    "quadclass": 4,
    "nummentions": 4,
    "numsources": 1,
    "numarticles": 4,
    "avgtone": "1.19047619047619",
    "sourceurl": "http://www.mercurynews.com/california/ci_24425214/5-california-things-know-thursday",
    "feature_id": "1652728",
    "feature_name": "Irwindale",
    "state_alpha": "CA",
    "county_name": "Los Angeles",
    "county_numeric": "037",
    "prim_lat_dec": "34.1069527",
    "prim_long_dec": "-117.9353413",
    "elev_in_m": "143",
    "elev_in_ft": "469",
    "lat": 34.1069527,
    "long": -117.9353413
  },
  {
    "globaleventid": 273966498,
    "sqldate": 20131031,
    "monthyear": 201310,
    "year": 2013,
    "fractiondate": "2013.8247",
    "eventcode": 173,
    "quadclass": 4,
    "nummentions": 7,
    "numsources": 1,
    "numarticles": 7,
    "avgtone": "1.59151193633952",
    "sourceurl": "http://www.latimes.com/local/lanow/la-me-ln-professor-child-porn-20131031,0,2990593.story",
    "feature_id": "1652689",
    "feature_name": "Compton",
    "state_alpha": "CA",
    "county_name": "Los Angeles",
    "county_numeric": "037",
    "prim_lat_dec": "33.8958492",
    "prim_long_dec": "-118.2200712",
    "elev_in_m": "21",
    "elev_in_ft": "69",
    "lat": 33.8958492,
    "long": -118.2200712
  },
  {
    "globaleventid": 273966497,
    "sqldate": 20131031,
    "monthyear": 201310,
    "year": 2013,
    "fractiondate": "2013.8247",
    "eventcode": 173,
    "quadclass": 4,
    "nummentions": 4,
    "numsources": 1,
    "numarticles": 4,
    "avgtone": "3.39912280701754",
    "sourceurl": "http://www.wwltv.com/news/Magistrate-judge-retires-after-39-years--229959941.html",
    "feature_id": "1629985",
    "feature_name": "New Orleans",
    "state_alpha": "LA",
    "county_name": "Orleans",
    "county_numeric": "071",
    "prim_lat_dec": "29.9546482",
    "prim_long_dec": "-90.075072",
    "elev_in_m": "0",
    "elev_in_ft": "0",
    "lat": 29.9546482,
    "long": -90.075072
  },
  {
    "globaleventid": 273966494,
    "sqldate": 20131031,
    "monthyear": 201310,
    "year": 2013,
    "fractiondate": "2013.8247",
    "eventcode": 173,
    "quadclass": 4,
    "nummentions": 3,
    "numsources": 1,
    "numarticles": 3,
    "avgtone": "3.06406685236769",
    "sourceurl": "http://www.dailyprogress.com/news/local/state-supreme-court-upholds-huguely-trial-camera-ban/article_e9fc8bac-4291-11e3-8722-001a4bcf6878.html",
    "feature_id": "1498463",
    "feature_name": "Charlottesville",
    "state_alpha": "VA",
    "county_name": "Charlottesville (city)",
    "county_numeric": "540",
    "prim_lat_dec": "38.0293059",
    "prim_long_dec": "-78.4766781",
    "elev_in_m": "142",
    "elev_in_ft": "466",
    "lat": 38.0293059,
    "long": -78.4766781
  },
  {
    "globaleventid": 273966492,
    "sqldate": 20131031,
    "monthyear": 201310,
    "year": 2013,
    "fractiondate": "2013.8247",
    "eventcode": 173,
    "quadclass": 4,
    "nummentions": 4,
    "numsources": 1,
    "numarticles": 4,
    "avgtone": "1.25588697017268",
    "sourceurl": "http://www.presstv.ir/detail/2013/10/31/332304/natwest/",
    "feature_id": "1380948",
    "feature_name": "Houston",
    "state_alpha": "TX",
    "county_name": "Harris",
    "county_numeric": "201",
    "prim_lat_dec": "29.7632836",
    "prim_long_dec": "-95.3632715",
    "elev_in_m": "11",
    "elev_in_ft": "36",
    "lat": 29.7632836,
    "long": -95.3632715
  },
  {
    "globaleventid": 273966490,
    "sqldate": 20131031,
    "monthyear": 201310,
    "year": 2013,
    "fractiondate": "2013.8247",
    "eventcode": 173,
    "quadclass": 4,
    "nummentions": 2,
    "numsources": 1,
    "numarticles": 2,
    "avgtone": "0.330578512396694",
    "sourceurl": "http://navajotimes.com/news/2013/1013/103113blotter.php",
    "feature_id": "12802",
    "feature_name": "Tuba City",
    "state_alpha": "AZ",
    "county_name": "Coconino",
    "county_numeric": "005",
    "prim_lat_dec": "36.1349928",
    "prim_long_dec": "-111.2398625",
    "elev_in_m": "1512",
    "elev_in_ft": "4961",
    "lat": 36.1349928,
    "long": -111.2398625
  },
  {
    "globaleventid": 273966484,
    "sqldate": 20131031,
    "monthyear": 201310,
    "year": 2013,
    "fractiondate": "2013.8247",
    "eventcode": 1721,
    "quadclass": 4,
    "nummentions": 2,
    "numsources": 1,
    "numarticles": 2,
    "avgtone": "2.98913043478261",
    "sourceurl": "http://au.news.yahoo.com/thewest/lifestyle/a/-/lifestyle/19621728/us-sauce-factory-escapes-closure-in-spicy-smell-row/",
    "feature_id": "1662328",
    "feature_name": "Los Angeles",
    "state_alpha": "CA",
    "county_name": "Los Angeles",
    "county_numeric": "037",
    "prim_lat_dec": "34.0522342",
    "prim_long_dec": "-118.2436849",
    "elev_in_m": "89",
    "elev_in_ft": "292",
    "lat": 34.0522342,
    "long": -118.2436849
  },
  {
    "globaleventid": 273966481,
    "sqldate": 20131031,
    "monthyear": 201310,
    "year": 2013,
    "fractiondate": "2013.8247",
    "eventcode": 172,
    "quadclass": 4,
    "nummentions": 4,
    "numsources": 1,
    "numarticles": 4,
    "avgtone": "2.0",
    "sourceurl": "http://www.huffingtonpost.com/2013/10/31/cheryl-brown-nycha_n_4181711.html",
    "feature_id": "2080623",
    "feature_name": "East River Houses",
    "state_alpha": "NY",
    "county_name": "New York",
    "county_numeric": "061",
    "prim_lat_dec": "40.7133333",
    "prim_long_dec": "-73.9791667",
    "elev_in_m": "5",
    "elev_in_ft": "16",
    "lat": 40.7133333,
    "long": -73.9791667
  },
  {
    "globaleventid": 273966480,
    "sqldate": 20131031,
    "monthyear": 201310,
    "year": 2013,
    "fractiondate": "2013.8247",
    "eventcode": 172,
    "quadclass": 4,
    "nummentions": 2,
    "numsources": 1,
    "numarticles": 2,
    "avgtone": "3.06406685236769",
    "sourceurl": "http://www.dailyprogress.com/news/local/state-supreme-court-upholds-huguely-trial-camera-ban/article_e9fc8bac-4291-11e3-8722-001a4bcf6878.html",
    "feature_id": "1498463",
    "feature_name": "Charlottesville",
    "state_alpha": "VA",
    "county_name": "Charlottesville (city)",
    "county_numeric": "540",
    "prim_lat_dec": "38.0293059",
    "prim_long_dec": "-78.4766781",
    "elev_in_m": "142",
    "elev_in_ft": "466",
    "lat": 38.0293059,
    "long": -78.4766781
  },
  {
    "globaleventid": 273966479,
    "sqldate": 20131031,
    "monthyear": 201310,
    "year": 2013,
    "fractiondate": "2013.8247",
    "eventcode": 172,
    "quadclass": 4,
    "nummentions": 6,
    "numsources": 3,
    "numarticles": 6,
    "avgtone": "2.3770923073897",
    "sourceurl": "http://www.newschannel5.com/story/23842254/chattanooga-judge-questions-closure-of-center?t=2013-10-31T13:08:36Z",
    "feature_id": "1307240",
    "feature_name": "Chattanooga",
    "state_alpha": "TN",
    "county_name": "Hamilton",
    "county_numeric": "065",
    "prim_lat_dec": "35.0456297",
    "prim_long_dec": "-85.3096801",
    "elev_in_m": "206",
    "elev_in_ft": "676",
    "lat": 35.0456297,
    "long": -85.3096801
  },
  {
    "globaleventid": 273966478,
    "sqldate": 20131031,
    "monthyear": 201310,
    "year": 2013,
    "fractiondate": "2013.8247",
    "eventcode": 172,
    "quadclass": 4,
    "nummentions": 2,
    "numsources": 1,
    "numarticles": 2,
    "avgtone": "2.58620689655172",
    "sourceurl": "http://www.newschannel5.com/story/14877337/tennessee-news-minute?t=2013-10-31T19:35:02Z",
    "feature_id": "1273213",
    "feature_name": "Union City",
    "state_alpha": "TN",
    "county_name": "Obion",
    "county_numeric": "131",
    "prim_lat_dec": "36.4242303",
    "prim_long_dec": "-89.0570096",
    "elev_in_m": "102",
    "elev_in_ft": "335",
    "lat": 36.4242303,
    "long": -89.0570096
  },
  {
    "globaleventid": 273966477,
    "sqldate": 20131031,
    "monthyear": 201310,
    "year": 2013,
    "fractiondate": "2013.8247",
    "eventcode": 1712,
    "quadclass": 4,
    "nummentions": 20,
    "numsources": 2,
    "numarticles": 20,
    "avgtone": "0.66075465136498",
    "sourceurl": "http://www.foxnews.com/us/2013/10/31/judge-woman-accused-paint-splashing-vandalism-at-dc-landmarks-incompetent-to/",
    "feature_id": "531871",
    "feature_name": "Washington",
    "state_alpha": "DC",
    "county_name": "District of Columbia",
    "county_numeric": "001",
    "prim_lat_dec": "38.8951118",
    "prim_long_dec": "-77.0363658",
    "elev_in_m": "7",
    "elev_in_ft": "23",
    "lat": 38.8951118,
    "long": -77.0363658
  },
  {
    "globaleventid": 273966474,
    "sqldate": 20131031,
    "monthyear": 201310,
    "year": 2013,
    "fractiondate": "2013.8247",
    "eventcode": 160,
    "quadclass": 4,
    "nummentions": 10,
    "numsources": 1,
    "numarticles": 10,
    "avgtone": "3.17662007623888",
    "sourceurl": "http://www.duluthnewstribune.com/event/article/id/282220/",
    "feature_id": "655030",
    "feature_name": "Minneapolis",
    "state_alpha": "MN",
    "county_name": "Hennepin",
    "county_numeric": "053",
    "prim_lat_dec": "44.9799654",
    "prim_long_dec": "-93.2638361",
    "elev_in_m": "253",
    "elev_in_ft": "830",
    "lat": 44.9799654,
    "long": -93.2638361
  },
  {
    "globaleventid": 273966473,
    "sqldate": 20131031,
    "monthyear": 201310,
    "year": 2013,
    "fractiondate": "2013.8247",
    "eventcode": 160,
    "quadclass": 4,
    "nummentions": 2,
    "numsources": 1,
    "numarticles": 2,
    "avgtone": "1.3745704467354",
    "sourceurl": "http://www.santacruzsentinel.com/rss/ci_24422141",
    "feature_id": "1655847",
    "feature_name": "Brookdale",
    "state_alpha": "CA",
    "county_name": "Santa Cruz",
    "county_numeric": "087",
    "prim_lat_dec": "37.1063361",
    "prim_long_dec": "-122.1060755",
    "elev_in_m": "135",
    "elev_in_ft": "443",
    "lat": 37.1063361,
    "long": -122.1060755
  },
  {
    "globaleventid": 273966467,
    "sqldate": 20131031,
    "monthyear": 201310,
    "year": 2013,
    "fractiondate": "2013.8247",
    "eventcode": 1241,
    "quadclass": 3,
    "nummentions": 20,
    "numsources": 2,
    "numarticles": 20,
    "avgtone": "2.83687943262411",
    "sourceurl": "http://www.contracostatimes.com/california/ci_24425197/ca-widow-fraud-scam-must-pay-115m-victims&c=lCfKPdmpHCGqUUDFpmkIxTDKXfI6dviN5HUQG1T17vk&mkt=en-us",
    "feature_id": "277606",
    "feature_name": "Fresno",
    "state_alpha": "CA",
    "county_name": "Fresno",
    "county_numeric": "019",
    "prim_lat_dec": "36.7477272",
    "prim_long_dec": "-119.7723661",
    "elev_in_m": "94",
    "elev_in_ft": "308",
    "lat": 36.7477272,
    "long": -119.7723661
  },
  {
    "globaleventid": 273966455,
    "sqldate": 20131031,
    "monthyear": 201310,
    "year": 2013,
    "fractiondate": "2013.8247",
    "eventcode": 120,
    "quadclass": 3,
    "nummentions": 4,
    "numsources": 1,
    "numarticles": 4,
    "avgtone": "3.17662007623888",
    "sourceurl": "http://www.duluthnewstribune.com/event/article/id/282220/",
    "feature_id": "655030",
    "feature_name": "Minneapolis",
    "state_alpha": "MN",
    "county_name": "Hennepin",
    "county_numeric": "053",
    "prim_lat_dec": "44.9799654",
    "prim_long_dec": "-93.2638361",
    "elev_in_m": "253",
    "elev_in_ft": "830",
    "lat": 44.9799654,
    "long": -93.2638361
  },
  {
    "globaleventid": 273966454,
    "sqldate": 20131031,
    "monthyear": 201310,
    "year": 2013,
    "fractiondate": "2013.8247",
    "eventcode": 120,
    "quadclass": 3,
    "nummentions": 4,
    "numsources": 1,
    "numarticles": 4,
    "avgtone": "3.17662007623888",
    "sourceurl": "http://www.duluthnewstribune.com/event/article/id/282220/",
    "feature_id": "655030",
    "feature_name": "Minneapolis",
    "state_alpha": "MN",
    "county_name": "Hennepin",
    "county_numeric": "053",
    "prim_lat_dec": "44.9799654",
    "prim_long_dec": "-93.2638361",
    "elev_in_m": "253",
    "elev_in_ft": "830",
    "lat": 44.9799654,
    "long": -93.2638361
  },
  {
    "globaleventid": 273966453,
    "sqldate": 20131031,
    "monthyear": 201310,
    "year": 2013,
    "fractiondate": "2013.8247",
    "eventcode": 120,
    "quadclass": 3,
    "nummentions": 6,
    "numsources": 1,
    "numarticles": 6,
    "avgtone": "1.06382978723404",
    "sourceurl": "http://www.allgov.com/news/top-stories/members-of-congress-avoid-first-ever-testimony-by-pakistani-drone-war-victims?news=851534",
    "feature_id": "531871",
    "feature_name": "Washington",
    "state_alpha": "DC",
    "county_name": "District of Columbia",
    "county_numeric": "001",
    "prim_lat_dec": "38.8951118",
    "prim_long_dec": "-77.0363658",
    "elev_in_m": "7",
    "elev_in_ft": "23",
    "lat": 38.8951118,
    "long": -77.0363658
  },
  {
    "globaleventid": 273966451,
    "sqldate": 20131031,
    "monthyear": 201310,
    "year": 2013,
    "fractiondate": "2013.8247",
    "eventcode": 120,
    "quadclass": 3,
    "nummentions": 6,
    "numsources": 1,
    "numarticles": 6,
    "avgtone": "3.5031847133758",
    "sourceurl": "http://www.miamiherald.com/2013/10/31/3723696/supreme-court-denies-appeal-of.html",
    "feature_id": "295004",
    "feature_name": "Miami",
    "state_alpha": "FL",
    "county_name": "Miami-Dade",
    "county_numeric": "086",
    "prim_lat_dec": "25.7742658",
    "prim_long_dec": "-80.1936589",
    "elev_in_m": "2",
    "elev_in_ft": "7",
    "lat": 25.7742658,
    "long": -80.1936589
  },
  {
    "globaleventid": 273966450,
    "sqldate": 20131031,
    "monthyear": 201310,
    "year": 2013,
    "fractiondate": "2013.8247",
    "eventcode": 120,
    "quadclass": 3,
    "nummentions": 1,
    "numsources": 1,
    "numarticles": 1,
    "avgtone": "0.854700854700855",
    "sourceurl": "http://www.businessweek.com/news/2013-10-31/victoria-s-secret-delta-websites-caught-in-translation-spat",
    "feature_id": "277593",
    "feature_name": "San Francisco",
    "state_alpha": "CA",
    "county_name": "San Francisco",
    "county_numeric": "075",
    "prim_lat_dec": "37.775",
    "prim_long_dec": "-122.4194444",
    "elev_in_m": "16",
    "elev_in_ft": "52",
    "lat": 37.775,
    "long": -122.4194444
  },
  {
    "globaleventid": 273966448,
    "sqldate": 20131031,
    "monthyear": 201310,
    "year": 2013,
    "fractiondate": "2013.8247",
    "eventcode": 120,
    "quadclass": 3,
    "nummentions": 2,
    "numsources": 1,
    "numarticles": 2,
    "avgtone": "3.76569037656904",
    "sourceurl": "http://www.kpbs.org/news/2013/oct/31/sara-kruzan-killed-pimp-teen-goes-free/",
    "feature_id": "253387",
    "feature_name": "Riverside",
    "state_alpha": "CA",
    "county_name": "Sacramento",
    "county_numeric": "067",
    "prim_lat_dec": "38.5190734",
    "prim_long_dec": "-121.5205112",
    "elev_in_m": "3",
    "elev_in_ft": "10",
    "lat": 38.5190734,
    "long": -121.5205112
  },
  {
    "globaleventid": 273966447,
    "sqldate": 20131031,
    "monthyear": 201310,
    "year": 2013,
    "fractiondate": "2013.8247",
    "eventcode": 120,
    "quadclass": 3,
    "nummentions": 10,
    "numsources": 1,
    "numarticles": 10,
    "avgtone": "0.0",
    "sourceurl": "http://www.koaa.com/news/judge-rejects-death-penalty-motion/",
    "feature_id": "201738",
    "feature_name": "Denver",
    "state_alpha": "CO",
    "county_name": "Denver",
    "county_numeric": "031",
    "prim_lat_dec": "39.7391536",
    "prim_long_dec": "-104.9847034",
    "elev_in_m": "1609",
    "elev_in_ft": "5279",
    "lat": 39.7391536,
    "long": -104.9847034
  },
  {
    "globaleventid": 273966446,
    "sqldate": 20131031,
    "monthyear": 201310,
    "year": 2013,
    "fractiondate": "2013.8247",
    "eventcode": 120,
    "quadclass": 3,
    "nummentions": 12,
    "numsources": 1,
    "numarticles": 12,
    "avgtone": "2.27839930741105",
    "sourceurl": "http://blog.al.com/tuscaloosa/2013/10/tuscaloosa_school_board_electi.html",
    "feature_id": "153742",
    "feature_name": "Tuscaloosa",
    "state_alpha": "AL",
    "county_name": "Tuscaloosa",
    "county_numeric": "125",
    "prim_lat_dec": "33.2098407",
    "prim_long_dec": "-87.5691735",
    "elev_in_m": "67",
    "elev_in_ft": "220",
    "lat": 33.2098407,
    "long": -87.5691735
  },
  {
    "globaleventid": 273966437,
    "sqldate": 20131031,
    "monthyear": 201310,
    "year": 2013,
    "fractiondate": "2013.8247",
    "eventcode": 115,
    "quadclass": 3,
    "nummentions": 4,
    "numsources": 1,
    "numarticles": 4,
    "avgtone": "3.17662007623888",
    "sourceurl": "http://www.duluthnewstribune.com/event/article/id/282220/",
    "feature_id": "655030",
    "feature_name": "Minneapolis",
    "state_alpha": "MN",
    "county_name": "Hennepin",
    "county_numeric": "053",
    "prim_lat_dec": "44.9799654",
    "prim_long_dec": "-93.2638361",
    "elev_in_m": "253",
    "elev_in_ft": "830",
    "lat": 44.9799654,
    "long": -93.2638361
  },
  {
    "globaleventid": 273966436,
    "sqldate": 20131031,
    "monthyear": 201310,
    "year": 2013,
    "fractiondate": "2013.8247",
    "eventcode": 115,
    "quadclass": 3,
    "nummentions": 8,
    "numsources": 1,
    "numarticles": 8,
    "avgtone": "2.12765957446809",
    "sourceurl": "http://www.thonline.com/news/iowa-illinois-wisconsin/article_97132259-1921-55b8-ac2a-ba74a8734de2.html",
    "feature_id": "415751",
    "feature_name": "Plainfield",
    "state_alpha": "IL",
    "county_name": "Will",
    "county_numeric": "197",
    "prim_lat_dec": "41.6269745",
    "prim_long_dec": "-88.2039539",
    "elev_in_m": "188",
    "elev_in_ft": "617",
    "lat": 41.6269745,
    "long": -88.2039539
  },
  {
    "globaleventid": 273966435,
    "sqldate": 20131031,
    "monthyear": 201310,
    "year": 2013,
    "fractiondate": "2013.8247",
    "eventcode": 115,
    "quadclass": 3,
    "nummentions": 2,
    "numsources": 1,
    "numarticles": 2,
    "avgtone": "1.75438596491228",
    "sourceurl": "http://www.prweb.com/releases/2013/11/prweb11288226.htm",
    "feature_id": "1661377",
    "feature_name": "San Diego",
    "state_alpha": "CA",
    "county_name": "San Diego",
    "county_numeric": "073",
    "prim_lat_dec": "32.7153292",
    "prim_long_dec": "-117.1572551",
    "elev_in_m": "19",
    "elev_in_ft": "62",
    "lat": 32.7153292,
    "long": -117.1572551
  },
  {
    "globaleventid": 273966434,
    "sqldate": 20131031,
    "monthyear": 201310,
    "year": 2013,
    "fractiondate": "2013.8247",
    "eventcode": 115,
    "quadclass": 3,
    "nummentions": 1,
    "numsources": 1,
    "numarticles": 1,
    "avgtone": "2.11640211640212",
    "sourceurl": "http://www.highlandnews.net/articles/2013/10/31/news/doc526ffa7f7ef7c794777556.txt",
    "feature_id": "1661375",
    "feature_name": "San Bernardino",
    "state_alpha": "CA",
    "county_name": "San Bernardino",
    "county_numeric": "071",
    "prim_lat_dec": "34.1083449",
    "prim_long_dec": "-117.2897652",
    "elev_in_m": "321",
    "elev_in_ft": "1053",
    "lat": 34.1083449,
    "long": -117.2897652
  },
  {
    "globaleventid": 273966433,
    "sqldate": 20131031,
    "monthyear": 201310,
    "year": 2013,
    "fractiondate": "2013.8247",
    "eventcode": 115,
    "quadclass": 3,
    "nummentions": 16,
    "numsources": 2,
    "numarticles": 16,
    "avgtone": "0.712185725871857",
    "sourceurl": "http://www.wsaw.com/home/headlines/229957681.html",
    "feature_id": "1576312",
    "feature_name": "Waukesha",
    "state_alpha": "WI",
    "county_name": "Waukesha",
    "county_numeric": "133",
    "prim_lat_dec": "43.0116784",
    "prim_long_dec": "-88.2314813",
    "elev_in_m": "249",
    "elev_in_ft": "817",
    "lat": 43.0116784,
    "long": -88.2314813
  },
  {
    "globaleventid": 273966431,
    "sqldate": 20131031,
    "monthyear": 201310,
    "year": 2013,
    "fractiondate": "2013.8247",
    "eventcode": 114,
    "quadclass": 3,
    "nummentions": 10,
    "numsources": 1,
    "numarticles": 10,
    "avgtone": "2.73224043715847",
    "sourceurl": "http://www.industryweek.com/environment/california-sauce-factory-escapes-closing-spicy-smell-dispute",
    "feature_id": "1662328",
    "feature_name": "Los Angeles",
    "state_alpha": "CA",
    "county_name": "Los Angeles",
    "county_numeric": "037",
    "prim_lat_dec": "34.0522342",
    "prim_long_dec": "-118.2436849",
    "elev_in_m": "89",
    "elev_in_ft": "292",
    "lat": 34.0522342,
    "long": -118.2436849
  },
  {
    "globaleventid": 273966428,
    "sqldate": 20131031,
    "monthyear": 201310,
    "year": 2013,
    "fractiondate": "2013.8247",
    "eventcode": 112,
    "quadclass": 3,
    "nummentions": 2,
    "numsources": 1,
    "numarticles": 2,
    "avgtone": "2.34741784037559",
    "sourceurl": "http://www.kentucky.com/2013/10/31/2905058/woman-accused-of-paint-vandalism.html",
    "feature_id": "531871",
    "feature_name": "Washington",
    "state_alpha": "DC",
    "county_name": "District of Columbia",
    "county_numeric": "001",
    "prim_lat_dec": "38.8951118",
    "prim_long_dec": "-77.0363658",
    "elev_in_m": "7",
    "elev_in_ft": "23",
    "lat": 38.8951118,
    "long": -77.0363658
  },
  {
    "globaleventid": 273966419,
    "sqldate": 20131031,
    "monthyear": 201310,
    "year": 2013,
    "fractiondate": "2013.8247",
    "eventcode": 112,
    "quadclass": 3,
    "nummentions": 6,
    "numsources": 3,
    "numarticles": 6,
    "avgtone": "2.84221937907639",
    "sourceurl": "http://www.thv11.com/news/story.aspx?storyid=285684",
    "feature_id": "56839",
    "feature_name": "Morrilton",
    "state_alpha": "AR",
    "county_name": "Conway",
    "county_numeric": "029",
    "prim_lat_dec": "35.1509173",
    "prim_long_dec": "-92.7440538",
    "elev_in_m": "117",
    "elev_in_ft": "384",
    "lat": 35.1509173,
    "long": -92.7440538
  },
  {
    "globaleventid": 273966418,
    "sqldate": 20131031,
    "monthyear": 201310,
    "year": 2013,
    "fractiondate": "2013.8247",
    "eventcode": 112,
    "quadclass": 3,
    "nummentions": 33,
    "numsources": 6,
    "numarticles": 33,
    "avgtone": "1.73009695628273",
    "sourceurl": "http://www.foxnews.com/us/2013/10/31/judge-woman-accused-paint-splashing-vandalism-at-dc-landmarks-incompetent-to/",
    "feature_id": "531871",
    "feature_name": "Washington",
    "state_alpha": "DC",
    "county_name": "District of Columbia",
    "county_numeric": "001",
    "prim_lat_dec": "38.8951118",
    "prim_long_dec": "-77.0363658",
    "elev_in_m": "7",
    "elev_in_ft": "23",
    "lat": 38.8951118,
    "long": -77.0363658
  },
  {
    "globaleventid": 273966416,
    "sqldate": 20131031,
    "monthyear": 201310,
    "year": 2013,
    "fractiondate": "2013.8247",
    "eventcode": 112,
    "quadclass": 3,
    "nummentions": 2,
    "numsources": 1,
    "numarticles": 2,
    "avgtone": "0.0",
    "sourceurl": "http://www.koaa.com/news/man-accused-of-selling-fake-broncos-tickets-255707/",
    "feature_id": "201738",
    "feature_name": "Denver",
    "state_alpha": "CO",
    "county_name": "Denver",
    "county_numeric": "031",
    "prim_lat_dec": "39.7391536",
    "prim_long_dec": "-104.9847034",
    "elev_in_m": "1609",
    "elev_in_ft": "5279",
    "lat": 39.7391536,
    "long": -104.9847034
  },
  {
    "globaleventid": 273966413,
    "sqldate": 20131031,
    "monthyear": 201310,
    "year": 2013,
    "fractiondate": "2013.8247",
    "eventcode": 112,
    "quadclass": 3,
    "nummentions": 4,
    "numsources": 1,
    "numarticles": 4,
    "avgtone": "0.0",
    "sourceurl": "http://www.koaa.com/news/man-accused-of-selling-fake-broncos-tickets-255707/",
    "feature_id": "201738",
    "feature_name": "Denver",
    "state_alpha": "CO",
    "county_name": "Denver",
    "county_numeric": "031",
    "prim_lat_dec": "39.7391536",
    "prim_long_dec": "-104.9847034",
    "elev_in_m": "1609",
    "elev_in_ft": "5279",
    "lat": 39.7391536,
    "long": -104.9847034
  },
  {
    "globaleventid": 273966411,
    "sqldate": 20131031,
    "monthyear": 201310,
    "year": 2013,
    "fractiondate": "2013.8247",
    "eventcode": 112,
    "quadclass": 3,
    "nummentions": 8,
    "numsources": 1,
    "numarticles": 8,
    "avgtone": "2.18687872763419",
    "sourceurl": "http://www.pe.com/local-news/riverside-county/temecula/temecula-headlines-index/20131031-temecula-plea-agreement-in-miss-teen-usa-sextortion-case.ece",
    "feature_id": "1662328",
    "feature_name": "Los Angeles",
    "state_alpha": "CA",
    "county_name": "Los Angeles",
    "county_numeric": "037",
    "prim_lat_dec": "34.0522342",
    "prim_long_dec": "-118.2436849",
    "elev_in_m": "89",
    "elev_in_ft": "292",
    "lat": 34.0522342,
    "long": -118.2436849
  },
  {
    "globaleventid": 273966402,
    "sqldate": 20131031,
    "monthyear": 201310,
    "year": 2013,
    "fractiondate": "2013.8247",
    "eventcode": 111,
    "quadclass": 3,
    "nummentions": 6,
    "numsources": 1,
    "numarticles": 6,
    "avgtone": "1.4367816091954",
    "sourceurl": "http://www.washingtonpost.com/local/virginia-politics/mcauliffe-trounces-cuccinelli-in-late-donations-in-virginia-governors-race/2013/10/31/f0749b7a-423a-11e3-a751-f032898f2dbc_story.html?tid=hpModule_99d5f542-86a2-11e2-9d71-f0feafdd1394",
    "feature_id": "531871",
    "feature_name": "Washington",
    "state_alpha": "DC",
    "county_name": "District of Columbia",
    "county_numeric": "001",
    "prim_lat_dec": "38.8951118",
    "prim_long_dec": "-77.0363658",
    "elev_in_m": "7",
    "elev_in_ft": "23",
    "lat": 38.8951118,
    "long": -77.0363658
  },
  {
    "globaleventid": 273966400,
    "sqldate": 20131031,
    "monthyear": 201310,
    "year": 2013,
    "fractiondate": "2013.8247",
    "eventcode": 111,
    "quadclass": 3,
    "nummentions": 2,
    "numsources": 1,
    "numarticles": 2,
    "avgtone": "2.92275574112735",
    "sourceurl": "http://www.charlestoncitypaper.com/charleston/why-is-sc-supreme-court-not-following-law-on-timely-court-decisions/Content?oid=4797926",
    "feature_id": "531871",
    "feature_name": "Washington",
    "state_alpha": "DC",
    "county_name": "District of Columbia",
    "county_numeric": "001",
    "prim_lat_dec": "38.8951118",
    "prim_long_dec": "-77.0363658",
    "elev_in_m": "7",
    "elev_in_ft": "23",
    "lat": 38.8951118,
    "long": -77.0363658
  },
  {
    "globaleventid": 273966399,
    "sqldate": 20131031,
    "monthyear": 201310,
    "year": 2013,
    "fractiondate": "2013.8247",
    "eventcode": 111,
    "quadclass": 3,
    "nummentions": 8,
    "numsources": 1,
    "numarticles": 8,
    "avgtone": "1.14678899082569",
    "sourceurl": "http://herald-review.com/news/local/pair-convicted-in-stomping-death-of-veteran-granted-new-trials/article_17e84f72-41db-11e3-9b79-001a4bcf887a.html",
    "feature_id": "407044",
    "feature_name": "Decatur",
    "state_alpha": "IL",
    "county_name": "Macon",
    "county_numeric": "115",
    "prim_lat_dec": "39.8403147",
    "prim_long_dec": "-88.9548001",
    "elev_in_m": "206",
    "elev_in_ft": "676",
    "lat": 39.8403147,
    "long": -88.9548001
  },
  {
    "globaleventid": 273966397,
    "sqldate": 20131031,
    "monthyear": 201310,
    "year": 2013,
    "fractiondate": "2013.8247",
    "eventcode": 111,
    "quadclass": 3,
    "nummentions": 4,
    "numsources": 1,
    "numarticles": 4,
    "avgtone": "3.22147651006711",
    "sourceurl": "http://www.free-times.com/news/103113-is-s.c.-supreme-court-following-law-on-making-timely-decisions/",
    "feature_id": "1236083",
    "feature_name": "Carolina",
    "state_alpha": "SC",
    "county_name": "Dillon",
    "county_numeric": "033",
    "prim_lat_dec": "34.5746064",
    "prim_long_dec": "-79.438103",
    "elev_in_m": "39",
    "elev_in_ft": "128",
    "lat": 34.5746064,
    "long": -79.438103
  },
  {
    "globaleventid": 273966396,
    "sqldate": 20131031,
    "monthyear": 201310,
    "year": 2013,
    "fractiondate": "2013.8247",
    "eventcode": 111,
    "quadclass": 3,
    "nummentions": 2,
    "numsources": 1,
    "numarticles": 2,
    "avgtone": "3.22147651006711",
    "sourceurl": "http://www.free-times.com/news/103113-is-s.c.-supreme-court-following-law-on-making-timely-decisions/",
    "feature_id": "1221516",
    "feature_name": "Charleston",
    "state_alpha": "SC",
    "county_name": "Charleston",
    "county_numeric": "019",
    "prim_lat_dec": "32.7765656",
    "prim_long_dec": "-79.9309216",
    "elev_in_m": "3",
    "elev_in_ft": "10",
    "lat": 32.7765656,
    "long": -79.9309216
  },
  {
    "globaleventid": 273966394,
    "sqldate": 20131031,
    "monthyear": 201310,
    "year": 2013,
    "fractiondate": "2013.8247",
    "eventcode": 111,
    "quadclass": 3,
    "nummentions": 16,
    "numsources": 2,
    "numarticles": 16,
    "avgtone": "2.96096982658422",
    "sourceurl": "http://www.newsobserver.com/2013/10/30/3326083/ohio-opposes-condemned-killer.html",
    "feature_id": "1080996",
    "feature_name": "Columbus",
    "state_alpha": "OH",
    "county_name": "Franklin",
    "county_numeric": "049",
    "prim_lat_dec": "39.9611755",
    "prim_long_dec": "-82.9987942",
    "elev_in_m": "238",
    "elev_in_ft": "781",
    "lat": 39.9611755,
    "long": -82.9987942
  },
  {
    "globaleventid": 273966386,
    "sqldate": 20131031,
    "monthyear": 201310,
    "year": 2013,
    "fractiondate": "2013.8247",
    "eventcode": 110,
    "quadclass": 3,
    "nummentions": 6,
    "numsources": 1,
    "numarticles": 6,
    "avgtone": "1.13636363636364",
    "sourceurl": "http://www.examiner.com/article/no-charges-for-kansas-man-who-kicked-and-killed-small-dog",
    "feature_id": "479198",
    "feature_name": "Olathe",
    "state_alpha": "KS",
    "county_name": "Johnson",
    "county_numeric": "091",
    "prim_lat_dec": "38.8813958",
    "prim_long_dec": "-94.8191285",
    "elev_in_m": "316",
    "elev_in_ft": "1037",
    "lat": 38.8813958,
    "long": -94.8191285
  },
  {
    "globaleventid": 273966384,
    "sqldate": 20131031,
    "monthyear": 201310,
    "year": 2013,
    "fractiondate": "2013.8247",
    "eventcode": 110,
    "quadclass": 3,
    "nummentions": 8,
    "numsources": 1,
    "numarticles": 8,
    "avgtone": "1.94174757281553",
    "sourceurl": "http://www.miamiherald.com/2013/10/31/3723706/judge-denies-motion-to-halt-vote.html",
    "feature_id": "295004",
    "feature_name": "Miami",
    "state_alpha": "FL",
    "county_name": "Miami-Dade",
    "county_numeric": "086",
    "prim_lat_dec": "25.7742658",
    "prim_long_dec": "-80.1936589",
    "elev_in_m": "2",
    "elev_in_ft": "7",
    "lat": 25.7742658,
    "long": -80.1936589
  },
  {
    "globaleventid": 273966383,
    "sqldate": 20131031,
    "monthyear": 201310,
    "year": 2013,
    "fractiondate": "2013.8247",
    "eventcode": 110,
    "quadclass": 3,
    "nummentions": 1,
    "numsources": 1,
    "numarticles": 1,
    "avgtone": "1.34228187919463",
    "sourceurl": "http://www.miamiherald.com/2013/10/31/3723971/sweetwater-law-allowed-city-to.html",
    "feature_id": "291938",
    "feature_name": "Sweetwater",
    "state_alpha": "FL",
    "county_name": "Duval",
    "county_numeric": "031",
    "prim_lat_dec": "30.2696837",
    "prim_long_dec": "-81.7642658",
    "elev_in_m": "19",
    "elev_in_ft": "62",
    "lat": 30.2696837,
    "long": -81.7642658
  },
  {
    "globaleventid": 273966382,
    "sqldate": 20131031,
    "monthyear": 201310,
    "year": 2013,
    "fractiondate": "2013.8247",
    "eventcode": 110,
    "quadclass": 3,
    "nummentions": 8,
    "numsources": 1,
    "numarticles": 8,
    "avgtone": "0.867052023121387",
    "sourceurl": "http://www.suffolknewsherald.com/2013/10/31/court-upholds-tolls/",
    "feature_id": "1475706",
    "feature_name": "Tidewater",
    "state_alpha": "VA",
    "county_name": "Richmond",
    "county_numeric": "159",
    "prim_lat_dec": "37.8551367",
    "prim_long_dec": "-76.6985687",
    "elev_in_m": "9",
    "elev_in_ft": "30",
    "lat": 37.8551367,
    "long": -76.6985687
  },
  {
    "globaleventid": 273966381,
    "sqldate": 20131031,
    "monthyear": 201310,
    "year": 2013,
    "fractiondate": "2013.8247",
    "eventcode": 1053,
    "quadclass": 3,
    "nummentions": 72,
    "numsources": 19,
    "numarticles": 72,
    "avgtone": "1.23610670021909",
    "sourceurl": "http://www.thenewstribune.com/2013/10/30/2864754/after-2-years-in-jail-trial-for.html",
    "feature_id": "531871",
    "feature_name": "Washington",
    "state_alpha": "DC",
    "county_name": "District of Columbia",
    "county_numeric": "001",
    "prim_lat_dec": "38.8951118",
    "prim_long_dec": "-77.0363658",
    "elev_in_m": "7",
    "elev_in_ft": "23",
    "lat": 38.8951118,
    "long": -77.0363658
  },
  {
    "globaleventid": 273966378,
    "sqldate": 20131031,
    "monthyear": 201310,
    "year": 2013,
    "fractiondate": "2013.8247",
    "eventcode": 1053,
    "quadclass": 3,
    "nummentions": 3,
    "numsources": 1,
    "numarticles": 3,
    "avgtone": "1.38613861386139",
    "sourceurl": "http://www.miamiherald.com/2013/10/31/3722286/after-2-years-in-jail-trial-for.html",
    "feature_id": "295004",
    "feature_name": "Miami",
    "state_alpha": "FL",
    "county_name": "Miami-Dade",
    "county_numeric": "086",
    "prim_lat_dec": "25.7742658",
    "prim_long_dec": "-80.1936589",
    "elev_in_m": "2",
    "elev_in_ft": "7",
    "lat": 25.7742658,
    "long": -80.1936589
  },
  {
    "globaleventid": 273966376,
    "sqldate": 20131031,
    "monthyear": 201310,
    "year": 2013,
    "fractiondate": "2013.8247",
    "eventcode": 1041,
    "quadclass": 3,
    "nummentions": 24,
    "numsources": 3,
    "numarticles": 24,
    "avgtone": "1.1840103420706",
    "sourceurl": "http://www.thonline.com/news/iowa-illinois-wisconsin/article_97132259-1921-55b8-ac2a-ba74a8734de2.html",
    "feature_id": "1576312",
    "feature_name": "Waukesha",
    "state_alpha": "WI",
    "county_name": "Waukesha",
    "county_numeric": "133",
    "prim_lat_dec": "43.0116784",
    "prim_long_dec": "-88.2314813",
    "elev_in_m": "249",
    "elev_in_ft": "817",
    "lat": 43.0116784,
    "long": -88.2314813
  },
  {
    "globaleventid": 273966021,
    "sqldate": 20131031,
    "monthyear": 201310,
    "year": 2013,
    "fractiondate": "2013.8247",
    "eventcode": 1822,
    "quadclass": 4,
    "nummentions": 2,
    "numsources": 1,
    "numarticles": 2,
    "avgtone": "2.08768267223382",
    "sourceurl": "http://www.duquoin.com/article/20131031/NEWS/131039868/1003/NEWS",
    "feature_id": "407442",
    "feature_name": "Du Quoin",
    "state_alpha": "IL",
    "county_name": "Perry",
    "county_numeric": "145",
    "prim_lat_dec": "38.0114393",
    "prim_long_dec": "-89.2361935",
    "elev_in_m": "142",
    "elev_in_ft": "466",
    "lat": 38.0114393,
    "long": -89.2361935
  },
  {
    "globaleventid": 273966017,
    "sqldate": 20131031,
    "monthyear": 201310,
    "year": 2013,
    "fractiondate": "2013.8247",
    "eventcode": 154,
    "quadclass": 4,
    "nummentions": 4,
    "numsources": 1,
    "numarticles": 4,
    "avgtone": "2.87958115183246",
    "sourceurl": "http://reedleyexponent.com/articles/2013/10/31/news/doc526a9a5969e67478216520.txt",
    "feature_id": "531871",
    "feature_name": "Washington",
    "state_alpha": "DC",
    "county_name": "District of Columbia",
    "county_numeric": "001",
    "prim_lat_dec": "38.8951118",
    "prim_long_dec": "-77.0363658",
    "elev_in_m": "7",
    "elev_in_ft": "23",
    "lat": 38.8951118,
    "long": -77.0363658
  },
  {
    "globaleventid": 273965913,
    "sqldate": 20131031,
    "monthyear": 201310,
    "year": 2013,
    "fractiondate": "2013.8247",
    "eventcode": 173,
    "quadclass": 4,
    "nummentions": 6,
    "numsources": 1,
    "numarticles": 6,
    "avgtone": "0.0",
    "sourceurl": "http://origin.ny1.com/content/news/191564/california-police-arrest-brooklyn-rabbi-wanted-for-allegedly-sexually-molesting-boys",
    "feature_id": "1652672",
    "feature_name": "Beverly Hills",
    "state_alpha": "CA",
    "county_name": "Los Angeles",
    "county_numeric": "037",
    "prim_lat_dec": "34.0736204",
    "prim_long_dec": "-118.4003563",
    "elev_in_m": "79",
    "elev_in_ft": "259",
    "lat": 34.0736204,
    "long": -118.4003563
  },
  {
    "globaleventid": 273965912,
    "sqldate": 20131031,
    "monthyear": 201310,
    "year": 2013,
    "fractiondate": "2013.8247",
    "eventcode": 173,
    "quadclass": 4,
    "nummentions": 3,
    "numsources": 1,
    "numarticles": 3,
    "avgtone": "3.30123796423659",
    "sourceurl": "http://www.newsworks.org/index.php/local/item/61366-gloria-steinem-rabbi-arthur-waskow-will-be-honored-at-sold-out-roxborough-event-this-weekend",
    "feature_id": "1198198",
    "feature_name": "Roxborough",
    "state_alpha": "PA",
    "county_name": "Philadelphia",
    "county_numeric": "101",
    "prim_lat_dec": "40.0381674",
    "prim_long_dec": "-75.2224016",
    "elev_in_m": "92",
    "elev_in_ft": "302",
    "lat": 40.0381674,
    "long": -75.2224016
  },
  {
    "globaleventid": 273965883,
    "sqldate": 20131031,
    "monthyear": 201310,
    "year": 2013,
    "fractiondate": "2013.8247",
    "eventcode": 193,
    "quadclass": 4,
    "nummentions": 8,
    "numsources": 1,
    "numarticles": 8,
    "avgtone": "1.15702479338843",
    "sourceurl": "http://edition.cnn.com/2013/10/31/justice/virginia-tech-shooting-negligence-lawsuit/index.html",
    "feature_id": "121238",
    "feature_name": "Kingston",
    "state_alpha": "AL",
    "county_name": "Jefferson",
    "county_numeric": "073",
    "prim_lat_dec": "33.5381603",
    "prim_long_dec": "-86.7691562",
    "elev_in_m": "190",
    "elev_in_ft": "623",
    "lat": 33.5381603,
    "long": -86.7691562
  },
  {
    "globaleventid": 273965879,
    "sqldate": 20131031,
    "monthyear": 201310,
    "year": 2013,
    "fractiondate": "2013.8247",
    "eventcode": 173,
    "quadclass": 4,
    "nummentions": 1,
    "numsources": 1,
    "numarticles": 1,
    "avgtone": "0.912408759124087",
    "sourceurl": "http://www.daily-tribune.com/view/full_story/23938147/article-Bartow-Blotter-10-29?instance=most_popular",
    "feature_id": "332152",
    "feature_name": "Kingston",
    "state_alpha": "GA",
    "county_name": "Bartow",
    "county_numeric": "015",
    "prim_lat_dec": "34.2370391",
    "prim_long_dec": "-84.9441098",
    "elev_in_m": "214",
    "elev_in_ft": "702",
    "lat": 34.2370391,
    "long": -84.9441098
  },
  {
    "globaleventid": 273965878,
    "sqldate": 20131031,
    "monthyear": 201310,
    "year": 2013,
    "fractiondate": "2013.8247",
    "eventcode": 173,
    "quadclass": 4,
    "nummentions": 1,
    "numsources": 1,
    "numarticles": 1,
    "avgtone": "0.912408759124087",
    "sourceurl": "http://www.daily-tribune.com/view/full_story/23938147/article-Bartow-Blotter-10-29?instance=most_popular",
    "feature_id": "332152",
    "feature_name": "Kingston",
    "state_alpha": "GA",
    "county_name": "Bartow",
    "county_numeric": "015",
    "prim_lat_dec": "34.2370391",
    "prim_long_dec": "-84.9441098",
    "elev_in_m": "214",
    "elev_in_ft": "702",
    "lat": 34.2370391,
    "long": -84.9441098
  },
  {
    "globaleventid": 273965864,
    "sqldate": 20131031,
    "monthyear": 201310,
    "year": 2013,
    "fractiondate": "2013.8247",
    "eventcode": 120,
    "quadclass": 3,
    "nummentions": 2,
    "numsources": 1,
    "numarticles": 2,
    "avgtone": "3.30578512396694",
    "sourceurl": "http://georgetownvoice.com/2013/10/31/case-catholicism/?shared=email&msg=fail",
    "feature_id": "531871",
    "feature_name": "Washington",
    "state_alpha": "DC",
    "county_name": "District of Columbia",
    "county_numeric": "001",
    "prim_lat_dec": "38.8951118",
    "prim_long_dec": "-77.0363658",
    "elev_in_m": "7",
    "elev_in_ft": "23",
    "lat": 38.8951118,
    "long": -77.0363658
  },
  {
    "globaleventid": 273965861,
    "sqldate": 20131031,
    "monthyear": 201310,
    "year": 2013,
    "fractiondate": "2013.8247",
    "eventcode": 110,
    "quadclass": 3,
    "nummentions": 4,
    "numsources": 1,
    "numarticles": 4,
    "avgtone": "4.20475319926874",
    "sourceurl": "http://www.dailynewstranscript.com/news/x1565406436/Hundreds-nibbled-on-hit-dishes-at-Taste-Dedham",
    "feature_id": "612406",
    "feature_name": "West Roxbury",
    "state_alpha": "MA",
    "county_name": "Suffolk",
    "county_numeric": "025",
    "prim_lat_dec": "42.2792649",
    "prim_long_dec": "-71.1494972",
    "elev_in_m": "62",
    "elev_in_ft": "203",
    "lat": 42.2792649,
    "long": -71.1494972
  },
  {
    "globaleventid": 273965816,
    "sqldate": 20131031,
    "monthyear": 201310,
    "year": 2013,
    "fractiondate": "2013.8247",
    "eventcode": 141,
    "quadclass": 3,
    "nummentions": 1,
    "numsources": 1,
    "numarticles": 1,
    "avgtone": "1.9047619047619",
    "sourceurl": "http://www.israelnationalnews.com/News/News.aspx/173473",
    "feature_id": "201738",
    "feature_name": "Denver",
    "state_alpha": "CO",
    "county_name": "Denver",
    "county_numeric": "031",
    "prim_lat_dec": "39.7391536",
    "prim_long_dec": "-104.9847034",
    "elev_in_m": "1609",
    "elev_in_ft": "5279",
    "lat": 39.7391536,
    "long": -104.9847034
  },
  {
    "globaleventid": 273965646,
    "sqldate": 20131031,
    "monthyear": 201310,
    "year": 2013,
    "fractiondate": "2013.8247",
    "eventcode": 190,
    "quadclass": 4,
    "nummentions": 1,
    "numsources": 1,
    "numarticles": 1,
    "avgtone": "2.83639883833495",
    "sourceurl": "http://www.heritage.org/research/reports/2013/10/a-strong-and-focused-national-security-strategy",
    "feature_id": "531871",
    "feature_name": "Washington",
    "state_alpha": "DC",
    "county_name": "District of Columbia",
    "county_numeric": "001",
    "prim_lat_dec": "38.8951118",
    "prim_long_dec": "-77.0363658",
    "elev_in_m": "7",
    "elev_in_ft": "23",
    "lat": 38.8951118,
    "long": -77.0363658
  },
  {
    "globaleventid": 273965636,
    "sqldate": 20131031,
    "monthyear": 201310,
    "year": 2013,
    "fractiondate": "2013.8247",
    "eventcode": 122,
    "quadclass": 3,
    "nummentions": 5,
    "numsources": 3,
    "numarticles": 5,
    "avgtone": "2.58541067777097",
    "sourceurl": "http://www.idahostatesman.com/2013/10/31/2843331/iraqi-pm-us-aid-needed-to-battle.html",
    "feature_id": "529313",
    "feature_name": "Capitol Hill",
    "state_alpha": "DC",
    "county_name": "District of Columbia",
    "county_numeric": "001",
    "prim_lat_dec": "38.8890009",
    "prim_long_dec": "-77.0002537",
    "elev_in_m": "28",
    "elev_in_ft": "92",
    "lat": 38.8890009,
    "long": -77.0002537
  },
  {
    "globaleventid": 273965541,
    "sqldate": 20131031,
    "monthyear": 201310,
    "year": 2013,
    "fractiondate": "2013.8247",
    "eventcode": 173,
    "quadclass": 4,
    "nummentions": 10,
    "numsources": 1,
    "numarticles": 10,
    "avgtone": "2.31316725978648",
    "sourceurl": "http://www.debka.com/article/23399/Braced-for-imminent-nuclear-accord-with-Iran-US-pulls-away-from-military-option-IDF-stays-on-the-ready&c=kq23iVXTlPix7EmBgFH8pimBUWv98EoVpt7msmyiqvY&mkt=en-us",
    "feature_id": "531871",
    "feature_name": "Washington",
    "state_alpha": "DC",
    "county_name": "District of Columbia",
    "county_numeric": "001",
    "prim_lat_dec": "38.8951118",
    "prim_long_dec": "-77.0363658",
    "elev_in_m": "7",
    "elev_in_ft": "23",
    "lat": 38.8951118,
    "long": -77.0363658
  },
  {
    "globaleventid": 273965533,
    "sqldate": 20131031,
    "monthyear": 201310,
    "year": 2013,
    "fractiondate": "2013.8247",
    "eventcode": 163,
    "quadclass": 4,
    "nummentions": 30,
    "numsources": 3,
    "numarticles": 30,
    "avgtone": "1.76471198865449",
    "sourceurl": "http://www.reuters.com/article/2013/10/31/crude-japan-iran-idUSL3N0IK0ZA20131031",
    "feature_id": "531871",
    "feature_name": "Washington",
    "state_alpha": "DC",
    "county_name": "District of Columbia",
    "county_numeric": "001",
    "prim_lat_dec": "38.8951118",
    "prim_long_dec": "-77.0363658",
    "elev_in_m": "7",
    "elev_in_ft": "23",
    "lat": 38.8951118,
    "long": -77.0363658
  },
  {
    "globaleventid": 273965524,
    "sqldate": 20131031,
    "monthyear": 201310,
    "year": 2013,
    "fractiondate": "2013.8247",
    "eventcode": 160,
    "quadclass": 4,
    "nummentions": 1,
    "numsources": 1,
    "numarticles": 1,
    "avgtone": "3.75586854460094",
    "sourceurl": "http://www.providencejournal.com/opinion/editorials/20131031-turkey-turns-from-west.ece",
    "feature_id": "531871",
    "feature_name": "Washington",
    "state_alpha": "DC",
    "county_name": "District of Columbia",
    "county_numeric": "001",
    "prim_lat_dec": "38.8951118",
    "prim_long_dec": "-77.0363658",
    "elev_in_m": "7",
    "elev_in_ft": "23",
    "lat": 38.8951118,
    "long": -77.0363658
  },
  {
    "globaleventid": 273965510,
    "sqldate": 20131031,
    "monthyear": 201310,
    "year": 2013,
    "fractiondate": "2013.8247",
    "eventcode": 100,
    "quadclass": 3,
    "nummentions": 1,
    "numsources": 1,
    "numarticles": 1,
    "avgtone": "2.79265493496557",
    "sourceurl": "http://original.antiwar.com/justin/2013/10/31/the-deadenders/",
    "feature_id": "531871",
    "feature_name": "Washington",
    "state_alpha": "DC",
    "county_name": "District of Columbia",
    "county_numeric": "001",
    "prim_lat_dec": "38.8951118",
    "prim_long_dec": "-77.0363658",
    "elev_in_m": "7",
    "elev_in_ft": "23",
    "lat": 38.8951118,
    "long": -77.0363658
  },
  {
    "globaleventid": 273965327,
    "sqldate": 20131031,
    "monthyear": 201310,
    "year": 2013,
    "fractiondate": "2013.8247",
    "eventcode": 192,
    "quadclass": 4,
    "nummentions": 1,
    "numsources": 1,
    "numarticles": 1,
    "avgtone": "1.26582278481013",
    "sourceurl": "http://en.trend.az/regions/met/arabicr/2206463.html",
    "feature_id": "531871",
    "feature_name": "Washington",
    "state_alpha": "DC",
    "county_name": "District of Columbia",
    "county_numeric": "001",
    "prim_lat_dec": "38.8951118",
    "prim_long_dec": "-77.0363658",
    "elev_in_m": "7",
    "elev_in_ft": "23",
    "lat": 38.8951118,
    "long": -77.0363658
  },
  {
    "globaleventid": 273965324,
    "sqldate": 20131031,
    "monthyear": 201310,
    "year": 2013,
    "fractiondate": "2013.8247",
    "eventcode": 190,
    "quadclass": 4,
    "nummentions": 14,
    "numsources": 2,
    "numarticles": 14,
    "avgtone": "0.816574729618207",
    "sourceurl": "http://www.omantribune.com/index.php?page=news&id=154550&heading=News%20in%20Details",
    "feature_id": "531871",
    "feature_name": "Washington",
    "state_alpha": "DC",
    "county_name": "District of Columbia",
    "county_numeric": "001",
    "prim_lat_dec": "38.8951118",
    "prim_long_dec": "-77.0363658",
    "elev_in_m": "7",
    "elev_in_ft": "23",
    "lat": 38.8951118,
    "long": -77.0363658
  },
  {
    "globaleventid": 273965266,
    "sqldate": 20131031,
    "monthyear": 201310,
    "year": 2013,
    "fractiondate": "2013.8247",
    "eventcode": 186,
    "quadclass": 4,
    "nummentions": 2,
    "numsources": 1,
    "numarticles": 2,
    "avgtone": "2.09471766848816",
    "sourceurl": "http://www.ipsnews.net/2013/11/south-of-the-border-mining-is-king/",
    "feature_id": "531871",
    "feature_name": "Washington",
    "state_alpha": "DC",
    "county_name": "District of Columbia",
    "county_numeric": "001",
    "prim_lat_dec": "38.8951118",
    "prim_long_dec": "-77.0363658",
    "elev_in_m": "7",
    "elev_in_ft": "23",
    "lat": 38.8951118,
    "long": -77.0363658
  },
  {
    "globaleventid": 273965253,
    "sqldate": 20131031,
    "monthyear": 201310,
    "year": 2013,
    "fractiondate": "2013.8247",
    "eventcode": 110,
    "quadclass": 3,
    "nummentions": 2,
    "numsources": 1,
    "numarticles": 2,
    "avgtone": "3.85164051355207",
    "sourceurl": "http://rt.com/news/eu-delegation-nsa-answers-014/",
    "feature_id": "531871",
    "feature_name": "Washington",
    "state_alpha": "DC",
    "county_name": "District of Columbia",
    "county_numeric": "001",
    "prim_lat_dec": "38.8951118",
    "prim_long_dec": "-77.0363658",
    "elev_in_m": "7",
    "elev_in_ft": "23",
    "lat": 38.8951118,
    "long": -77.0363658
  },
  {
    "globaleventid": 273965177,
    "sqldate": 20131031,
    "monthyear": 201310,
    "year": 2013,
    "fractiondate": "2013.8247",
    "eventcode": 193,
    "quadclass": 4,
    "nummentions": 16,
    "numsources": 3,
    "numarticles": 16,
    "avgtone": "1.68284297663782",
    "sourceurl": "http://www.seacoastonline.com/apps/pbcs.dll/article?AID=/20131031/NEWS/131039940/-1/NEWSMAP",
    "feature_id": "561511",
    "feature_name": "Bald Mountain",
    "state_alpha": "ME",
    "county_name": "Oxford",
    "county_numeric": "017",
    "prim_lat_dec": "44.9547763",
    "prim_long_dec": "-70.7906248",
    "elev_in_m": "454",
    "elev_in_ft": "1489",
    "lat": 44.9547763,
    "long": -70.7906248
  },
  {
    "globaleventid": 273965176,
    "sqldate": 20131031,
    "monthyear": 201310,
    "year": 2013,
    "fractiondate": "2013.8247",
    "eventcode": 193,
    "quadclass": 4,
    "nummentions": 4,
    "numsources": 1,
    "numarticles": 2,
    "avgtone": "5.15653775322284",
    "sourceurl": "http://www.wickedlocal.com/marshfield/news/x1275637912/Veterans-Summit-to-take-place-in-Cohasset",
    "feature_id": "613802",
    "feature_name": "Cohasset",
    "state_alpha": "MA",
    "county_name": "Norfolk",
    "county_numeric": "021",
    "prim_lat_dec": "42.2417675",
    "prim_long_dec": "-70.8036544",
    "elev_in_m": "5",
    "elev_in_ft": "16",
    "lat": 42.2417675,
    "long": -70.8036544
  },
  {
    "globaleventid": 273965173,
    "sqldate": 20131031,
    "monthyear": 201310,
    "year": 2013,
    "fractiondate": "2013.8247",
    "eventcode": 193,
    "quadclass": 4,
    "nummentions": 8,
    "numsources": 1,
    "numarticles": 8,
    "avgtone": "0.413223140495868",
    "sourceurl": "http://www.wafb.com/story/23842982/father-shot-after-pushing-children-out-of-harms-way",
    "feature_id": "1629965",
    "feature_name": "Lafayette",
    "state_alpha": "LA",
    "county_name": "Lafayette",
    "county_numeric": "055",
    "prim_lat_dec": "30.2240897",
    "prim_long_dec": "-92.0198427",
    "elev_in_m": "11",
    "elev_in_ft": "36",
    "lat": 30.2240897,
    "long": -92.0198427
  },
  {
    "globaleventid": 273965172,
    "sqldate": 20131031,
    "monthyear": 201310,
    "year": 2013,
    "fractiondate": "2013.8247",
    "eventcode": 193,
    "quadclass": 4,
    "nummentions": 4,
    "numsources": 1,
    "numarticles": 4,
    "avgtone": "0.0",
    "sourceurl": "http://www.batonrougepost.com/index.php/sid/218103310/scat/3a72c8badb1b144e",
    "feature_id": "1290467",
    "feature_name": "Lafayette",
    "state_alpha": "TN",
    "county_name": "Macon",
    "county_numeric": "111",
    "prim_lat_dec": "36.5211623",
    "prim_long_dec": "-86.0263732",
    "elev_in_m": "292",
    "elev_in_ft": "958",
    "lat": 36.5211623,
    "long": -86.0263732
  },
  {
    "globaleventid": 273965167,
    "sqldate": 20131031,
    "monthyear": 201310,
    "year": 2013,
    "fractiondate": "2013.8247",
    "eventcode": 1821,
    "quadclass": 4,
    "nummentions": 4,
    "numsources": 1,
    "numarticles": 4,
    "avgtone": "0.78125",
    "sourceurl": "http://www.kpax.com/news/ex-montana-jail-nurse-charged-with-rape-back-in-court/",
    "feature_id": "787504",
    "feature_name": "Missoula",
    "state_alpha": "MT",
    "county_name": "Missoula",
    "county_numeric": "063",
    "prim_lat_dec": "46.872146",
    "prim_long_dec": "-113.9939982",
    "elev_in_m": "978",
    "elev_in_ft": "3209",
    "lat": 46.872146,
    "long": -113.9939982
  },
  {
    "globaleventid": 273965157,
    "sqldate": 20131031,
    "monthyear": 201310,
    "year": 2013,
    "fractiondate": "2013.8247",
    "eventcode": 173,
    "quadclass": 4,
    "nummentions": 10,
    "numsources": 1,
    "numarticles": 10,
    "avgtone": "0.975609756097561",
    "sourceurl": "http://www.washingtonpost.com/national/del-officials-mull-action-against-doctor-who-didnt-disclose-drunken-driving-convictions/2013/10/31/bd930aae-426f-11e3-b028-de922d7a3f47_story.html",
    "feature_id": "531871",
    "feature_name": "Washington",
    "state_alpha": "DC",
    "county_name": "District of Columbia",
    "county_numeric": "001",
    "prim_lat_dec": "38.8951118",
    "prim_long_dec": "-77.0363658",
    "elev_in_m": "7",
    "elev_in_ft": "23",
    "lat": 38.8951118,
    "long": -77.0363658
  },
  {
    "globaleventid": 273965156,
    "sqldate": 20131031,
    "monthyear": 201310,
    "year": 2013,
    "fractiondate": "2013.8247",
    "eventcode": 173,
    "quadclass": 4,
    "nummentions": 10,
    "numsources": 1,
    "numarticles": 10,
    "avgtone": "1.0752688172043",
    "sourceurl": "http://www.therepublic.com/view/story/2cae790b962742358bd9bfed9b184574/DE--Doctor-Disciplinary-Hearing",
    "feature_id": "217882",
    "feature_name": "Dover",
    "state_alpha": "DE",
    "county_name": "Kent",
    "county_numeric": "001",
    "prim_lat_dec": "39.158168",
    "prim_long_dec": "-75.5243682",
    "elev_in_m": "9",
    "elev_in_ft": "30",
    "lat": 39.158168,
    "long": -75.5243682
  },
  {
    "globaleventid": 273965153,
    "sqldate": 20131031,
    "monthyear": 201310,
    "year": 2013,
    "fractiondate": "2013.8247",
    "eventcode": 173,
    "quadclass": 4,
    "nummentions": 2,
    "numsources": 1,
    "numarticles": 2,
    "avgtone": "4.04411764705882",
    "sourceurl": "http://www.latimes.com/opinion/editorials/la-ed-conrad-murray-early-release-20131030,0,5640689.story",
    "feature_id": "1662328",
    "feature_name": "Los Angeles",
    "state_alpha": "CA",
    "county_name": "Los Angeles",
    "county_numeric": "037",
    "prim_lat_dec": "34.0522342",
    "prim_long_dec": "-118.2436849",
    "elev_in_m": "89",
    "elev_in_ft": "292",
    "lat": 34.0522342,
    "long": -118.2436849
  },
  {
    "globaleventid": 273965152,
    "sqldate": 20131031,
    "monthyear": 201310,
    "year": 2013,
    "fractiondate": "2013.8247",
    "eventcode": 173,
    "quadclass": 4,
    "nummentions": 4,
    "numsources": 2,
    "numarticles": 4,
    "avgtone": "0.672649121484051",
    "sourceurl": "http://www.contracostatimes.com/rss/ci_24425762",
    "feature_id": "277593",
    "feature_name": "San Francisco",
    "state_alpha": "CA",
    "county_name": "San Francisco",
    "county_numeric": "075",
    "prim_lat_dec": "37.775",
    "prim_long_dec": "-122.4194444",
    "elev_in_m": "16",
    "elev_in_ft": "52",
    "lat": 37.775,
    "long": -122.4194444
  },
  {
    "globaleventid": 273965151,
    "sqldate": 20131031,
    "monthyear": 201310,
    "year": 2013,
    "fractiondate": "2013.8247",
    "eventcode": 173,
    "quadclass": 4,
    "nummentions": 1,
    "numsources": 1,
    "numarticles": 1,
    "avgtone": "1.97368421052632",
    "sourceurl": "http://www.dailyjournal.net/view/story/17034c772f3b4b59a3e3df366438d0db/WI--Triple-Homicide-Wisconsin/",
    "feature_id": "1842544",
    "feature_name": "Mendota",
    "state_alpha": "WI",
    "county_name": "Dane",
    "county_numeric": "025",
    "prim_lat_dec": "43.1408276",
    "prim_long_dec": "-89.3912295",
    "elev_in_m": "277",
    "elev_in_ft": "909",
    "lat": 43.1408276,
    "long": -89.3912295
  },
  {
    "globaleventid": 273965150,
    "sqldate": 20131031,
    "monthyear": 201310,
    "year": 2013,
    "fractiondate": "2013.8247",
    "eventcode": 173,
    "quadclass": 4,
    "nummentions": 5,
    "numsources": 2,
    "numarticles": 5,
    "avgtone": "2.57160759040458",
    "sourceurl": "http://www.dailyjournal.net/view/story/17034c772f3b4b59a3e3df366438d0db/WI--Triple-Homicide-Wisconsin/",
    "feature_id": "1842544",
    "feature_name": "Mendota",
    "state_alpha": "WI",
    "county_name": "Dane",
    "county_numeric": "025",
    "prim_lat_dec": "43.1408276",
    "prim_long_dec": "-89.3912295",
    "elev_in_m": "277",
    "elev_in_ft": "909",
    "lat": 43.1408276,
    "long": -89.3912295
  },
  {
    "globaleventid": 273965144,
    "sqldate": 20131031,
    "monthyear": 201310,
    "year": 2013,
    "fractiondate": "2013.8247",
    "eventcode": 141,
    "quadclass": 3,
    "nummentions": 4,
    "numsources": 1,
    "numarticles": 4,
    "avgtone": "0.485436893203883",
    "sourceurl": "http://www.witn.com/news/headlines/NAACP-Rallies-To-Keep-Pungo-Vidant-Hospital-Open-229985751.html",
    "feature_id": "980929",
    "feature_name": "Belhaven",
    "state_alpha": "NC",
    "county_name": "Beaufort",
    "county_numeric": "013",
    "prim_lat_dec": "35.5401653",
    "prim_long_dec": "-76.6229874",
    "elev_in_m": "0",
    "elev_in_ft": "0",
    "lat": 35.5401653,
    "long": -76.6229874
  },
  {
    "globaleventid": 273965142,
    "sqldate": 20131031,
    "monthyear": 201310,
    "year": 2013,
    "fractiondate": "2013.8247",
    "eventcode": 128,
    "quadclass": 3,
    "nummentions": 10,
    "numsources": 1,
    "numarticles": 10,
    "avgtone": "4.38756855575868",
    "sourceurl": "http://www.prweb.com/releases/2013/10/prweb11280507.htm",
    "feature_id": "612296",
    "feature_name": "Brighton",
    "state_alpha": "MA",
    "county_name": "Suffolk",
    "county_numeric": "025",
    "prim_lat_dec": "42.3500971",
    "prim_long_dec": "-71.1564423",
    "elev_in_m": "27",
    "elev_in_ft": "89",
    "lat": 42.3500971,
    "long": -71.1564423
  },
  {
    "globaleventid": 273965141,
    "sqldate": 20131031,
    "monthyear": 201310,
    "year": 2013,
    "fractiondate": "2013.8247",
    "eventcode": 120,
    "quadclass": 3,
    "nummentions": 1,
    "numsources": 1,
    "numarticles": 1,
    "avgtone": "2.2517911975435",
    "sourceurl": "http://townhall.com/tipsheet/conncarroll/2013/10/31/debunking-the-debunkers-yes-obamacare-rate-shock-is-real-n1733694",
    "feature_id": "251391",
    "feature_name": "Westchester",
    "state_alpha": "CA",
    "county_name": "Los Angeles",
    "county_numeric": "037",
    "prim_lat_dec": "33.9597349",
    "prim_long_dec": "-118.4006322",
    "elev_in_m": "38",
    "elev_in_ft": "125",
    "lat": 33.9597349,
    "long": -118.4006322
  },
  {
    "globaleventid": 273965140,
    "sqldate": 20131031,
    "monthyear": 201310,
    "year": 2013,
    "fractiondate": "2013.8247",
    "eventcode": 120,
    "quadclass": 3,
    "nummentions": 1,
    "numsources": 1,
    "numarticles": 1,
    "avgtone": "2.2517911975435",
    "sourceurl": "http://townhall.com/tipsheet/conncarroll/2013/10/31/debunking-the-debunkers-yes-obamacare-rate-shock-is-real-n1733694",
    "feature_id": "251391",
    "feature_name": "Westchester",
    "state_alpha": "CA",
    "county_name": "Los Angeles",
    "county_numeric": "037",
    "prim_lat_dec": "33.9597349",
    "prim_long_dec": "-118.4006322",
    "elev_in_m": "38",
    "elev_in_ft": "125",
    "lat": 33.9597349,
    "long": -118.4006322
  },
  {
    "globaleventid": 273965136,
    "sqldate": 20131031,
    "monthyear": 201310,
    "year": 2013,
    "fractiondate": "2013.8247",
    "eventcode": 112,
    "quadclass": 3,
    "nummentions": 2,
    "numsources": 1,
    "numarticles": 2,
    "avgtone": "0.862068965517241",
    "sourceurl": "http://kfgo.com/news/articles/2013/oct/31/phony-plastic-surgeon-accused-of-using-silicone-for-botox/",
    "feature_id": "1335095",
    "feature_name": "Edinburg",
    "state_alpha": "TX",
    "county_name": "Hidalgo",
    "county_numeric": "215",
    "prim_lat_dec": "26.3017374",
    "prim_long_dec": "-98.1633433",
    "elev_in_m": "29",
    "elev_in_ft": "95",
    "lat": 26.3017374,
    "long": -98.1633433
  },
  {
    "globaleventid": 273965129,
    "sqldate": 20131031,
    "monthyear": 201310,
    "year": 2013,
    "fractiondate": "2013.8247",
    "eventcode": 112,
    "quadclass": 3,
    "nummentions": 9,
    "numsources": 1,
    "numarticles": 9,
    "avgtone": "1.28205128205128",
    "sourceurl": "http://www.wandtv.com/story/23846208/doctor-accused-of-inappropriately-touching-patients",
    "feature_id": "426595",
    "feature_name": "Springfield",
    "state_alpha": "IL",
    "county_name": "Sangamon",
    "county_numeric": "167",
    "prim_lat_dec": "39.8017171",
    "prim_long_dec": "-89.6437107",
    "elev_in_m": "183",
    "elev_in_ft": "600",
    "lat": 39.8017171,
    "long": -89.6437107
  },
  {
    "globaleventid": 273964942,
    "sqldate": 20131031,
    "monthyear": 201310,
    "year": 2013,
    "fractiondate": "2013.8247",
    "eventcode": 173,
    "quadclass": 4,
    "nummentions": 4,
    "numsources": 1,
    "numarticles": 4,
    "avgtone": "1.50753768844221",
    "sourceurl": "http://www.latimes.com/local/lanow/la-me-ln-doris-payne-jewel-thief-arrested-palm-desert-20131031,0,3418988.story",
    "feature_id": "1652792",
    "feature_name": "Santa Monica",
    "state_alpha": "CA",
    "county_name": "Los Angeles",
    "county_numeric": "037",
    "prim_lat_dec": "34.0194543",
    "prim_long_dec": "-118.4911912",
    "elev_in_m": "32",
    "elev_in_ft": "105",
    "lat": 34.0194543,
    "long": -118.4911912
  },
  {
    "globaleventid": 273964941,
    "sqldate": 20131031,
    "monthyear": 201310,
    "year": 2013,
    "fractiondate": "2013.8247",
    "eventcode": 173,
    "quadclass": 4,
    "nummentions": 4,
    "numsources": 2,
    "numarticles": 4,
    "avgtone": "1.04764953356503",
    "sourceurl": "http://www.dailymail.co.uk/news/article-2482692/Doris-strikes-Notorious-jewel-thief-83-bars-stealing-40-000-ring.html?ITO=1490&ns_campaign=1490",
    "feature_id": "1652767",
    "feature_name": "Palm Desert",
    "state_alpha": "CA",
    "county_name": "Riverside",
    "county_numeric": "065",
    "prim_lat_dec": "33.7222445",
    "prim_long_dec": "-116.3744556",
    "elev_in_m": "67",
    "elev_in_ft": "220",
    "lat": 33.7222445,
    "long": -116.3744556
  },
  {
    "globaleventid": 273964938,
    "sqldate": 20131031,
    "monthyear": 201310,
    "year": 2013,
    "fractiondate": "2013.8247",
    "eventcode": 173,
    "quadclass": 4,
    "nummentions": 2,
    "numsources": 1,
    "numarticles": 2,
    "avgtone": "1.50753768844221",
    "sourceurl": "http://www.latimes.com/local/lanow/la-me-ln-doris-payne-jewel-thief-arrested-palm-desert-20131031,0,3418988.story",
    "feature_id": "1652767",
    "feature_name": "Palm Desert",
    "state_alpha": "CA",
    "county_name": "Riverside",
    "county_numeric": "065",
    "prim_lat_dec": "33.7222445",
    "prim_long_dec": "-116.3744556",
    "elev_in_m": "67",
    "elev_in_ft": "220",
    "lat": 33.7222445,
    "long": -116.3744556
  },
  {
    "globaleventid": 273964936,
    "sqldate": 20131031,
    "monthyear": 201310,
    "year": 2013,
    "fractiondate": "2013.8247",
    "eventcode": 173,
    "quadclass": 4,
    "nummentions": 4,
    "numsources": 1,
    "numarticles": 4,
    "avgtone": "2.35260332677992",
    "sourceurl": "http://usnews.nbcnews.com/_news/2013/10/31/21264959-octogenarian-jewel-thief-nabbed-in-calif-ring-heist?lite",
    "feature_id": "1652767",
    "feature_name": "Palm Desert",
    "state_alpha": "CA",
    "county_name": "Riverside",
    "county_numeric": "065",
    "prim_lat_dec": "33.7222445",
    "prim_long_dec": "-116.3744556",
    "elev_in_m": "67",
    "elev_in_ft": "220",
    "lat": 33.7222445,
    "long": -116.3744556
  },
  {
    "globaleventid": 273964935,
    "sqldate": 20131031,
    "monthyear": 201310,
    "year": 2013,
    "fractiondate": "2013.8247",
    "eventcode": 173,
    "quadclass": 4,
    "nummentions": 4,
    "numsources": 1,
    "numarticles": 4,
    "avgtone": "1.03896103896104",
    "sourceurl": "http://www.dailymail.co.uk/news/article-2482692/Doris-strikes-Notorious-jewel-thief-83-bars-stealing-40-000-ring.html?ITO=1490&ns_campaign=1490",
    "feature_id": "1652767",
    "feature_name": "Palm Desert",
    "state_alpha": "CA",
    "county_name": "Riverside",
    "county_numeric": "065",
    "prim_lat_dec": "33.7222445",
    "prim_long_dec": "-116.3744556",
    "elev_in_m": "67",
    "elev_in_ft": "220",
    "lat": 33.7222445,
    "long": -116.3744556
  },
  {
    "globaleventid": 273964902,
    "sqldate": 20131031,
    "monthyear": 201310,
    "year": 2013,
    "fractiondate": "2013.8247",
    "eventcode": 180,
    "quadclass": 4,
    "nummentions": 14,
    "numsources": 2,
    "numarticles": 14,
    "avgtone": "2.46002832209729",
    "sourceurl": "http://www.airforcetimes.com/article/20131031/NEWS/310310028",
    "feature_id": "531871",
    "feature_name": "Washington",
    "state_alpha": "DC",
    "county_name": "District of Columbia",
    "county_numeric": "001",
    "prim_lat_dec": "38.8951118",
    "prim_long_dec": "-77.0363658",
    "elev_in_m": "7",
    "elev_in_ft": "23",
    "lat": 38.8951118,
    "long": -77.0363658
  },
  {
    "globaleventid": 273964877,
    "sqldate": 20131031,
    "monthyear": 201310,
    "year": 2013,
    "fractiondate": "2013.8247",
    "eventcode": 120,
    "quadclass": 3,
    "nummentions": 2,
    "numsources": 1,
    "numarticles": 2,
    "avgtone": "3.84193194291987",
    "sourceurl": "http://www.gilmermirror.com/view/full_story/23947039/article-Past-Ag-Secretaries-FAILED-to-promote-new-Farm-Bill?instance=special_coverage_bullets_right_column",
    "feature_id": "473862",
    "feature_name": "Wichita",
    "state_alpha": "KS",
    "county_name": "Sedgwick",
    "county_numeric": "173",
    "prim_lat_dec": "37.6922361",
    "prim_long_dec": "-97.3375448",
    "elev_in_m": "397",
    "elev_in_ft": "1302",
    "lat": 37.6922361,
    "long": -97.3375448
  },
  {
    "globaleventid": 273964847,
    "sqldate": 20131031,
    "monthyear": 201310,
    "year": 2013,
    "fractiondate": "2013.8247",
    "eventcode": 193,
    "quadclass": 4,
    "nummentions": 6,
    "numsources": 1,
    "numarticles": 6,
    "avgtone": "2.67857142857143",
    "sourceurl": "http://www.lenconnect.com/article/20131030/NEWS/131039955",
    "feature_id": "622035",
    "feature_name": "Brooklyn",
    "state_alpha": "MI",
    "county_name": "Jackson",
    "county_numeric": "075",
    "prim_lat_dec": "42.105874",
    "prim_long_dec": "-84.2482819",
    "elev_in_m": "303",
    "elev_in_ft": "994",
    "lat": 42.105874,
    "long": -84.2482819
  },
  {
    "globaleventid": 273964846,
    "sqldate": 20131031,
    "monthyear": 201310,
    "year": 2013,
    "fractiondate": "2013.8247",
    "eventcode": 193,
    "quadclass": 4,
    "nummentions": 2,
    "numsources": 1,
    "numarticles": 2,
    "avgtone": "3.8623595505618",
    "sourceurl": "http://www.freepressonline.com/main.asp?SectionID=50&SubSectionID=72&ArticleID=29228",
    "feature_id": "574358",
    "feature_name": "Rockland",
    "state_alpha": "ME",
    "county_name": "Knox",
    "county_numeric": "013",
    "prim_lat_dec": "44.1036915",
    "prim_long_dec": "-69.1089294",
    "elev_in_m": "9",
    "elev_in_ft": "30",
    "lat": 44.1036915,
    "long": -69.1089294
  },
  {
    "globaleventid": 273964845,
    "sqldate": 20131031,
    "monthyear": 201310,
    "year": 2013,
    "fractiondate": "2013.8247",
    "eventcode": 193,
    "quadclass": 4,
    "nummentions": 8,
    "numsources": 1,
    "numarticles": 8,
    "avgtone": "3.8623595505618",
    "sourceurl": "http://www.freepressonline.com/main.asp?SectionID=50&SubSectionID=72&ArticleID=29228",
    "feature_id": "531871",
    "feature_name": "Washington",
    "state_alpha": "DC",
    "county_name": "District of Columbia",
    "county_numeric": "001",
    "prim_lat_dec": "38.8951118",
    "prim_long_dec": "-77.0363658",
    "elev_in_m": "7",
    "elev_in_ft": "23",
    "lat": 38.8951118,
    "long": -77.0363658
  },
  {
    "globaleventid": 273964842,
    "sqldate": 20131031,
    "monthyear": 201310,
    "year": 2013,
    "fractiondate": "2013.8247",
    "eventcode": 193,
    "quadclass": 4,
    "nummentions": 16,
    "numsources": 3,
    "numarticles": 16,
    "avgtone": "0.825357920946156",
    "sourceurl": "http://www.therepublic.com/view/story/54e5aa052def4b6a887c0177e5961e58/IA--Pregnant-Woman-Killed-Trial",
    "feature_id": "459952",
    "feature_name": "Ottumwa",
    "state_alpha": "IA",
    "county_name": "Wapello",
    "county_numeric": "179",
    "prim_lat_dec": "41.0200145",
    "prim_long_dec": "-92.4112963",
    "elev_in_m": "205",
    "elev_in_ft": "673",
    "lat": 41.0200145,
    "long": -92.4112963
  },
  {
    "globaleventid": 273964831,
    "sqldate": 20131031,
    "monthyear": 201310,
    "year": 2013,
    "fractiondate": "2013.8247",
    "eventcode": 190,
    "quadclass": 4,
    "nummentions": 8,
    "numsources": 1,
    "numarticles": 8,
    "avgtone": "0.392156862745098",
    "sourceurl": "http://www.mynews4.com/news/story/Convicted-child-killer-caught-was-on-lamb-since-06/u4TL2GnswU27BR5Q0-ajrw.cspx",
    "feature_id": "863976",
    "feature_name": "Carson City",
    "state_alpha": "NV",
    "county_name": "Carson City (city)",
    "county_numeric": "510",
    "prim_lat_dec": "39.1637984",
    "prim_long_dec": "-119.7674034",
    "elev_in_m": "1427",
    "elev_in_ft": "4682",
    "lat": 39.1637984,
    "long": -119.7674034
  },
  {
    "globaleventid": 273964830,
    "sqldate": 20131031,
    "monthyear": 201310,
    "year": 2013,
    "fractiondate": "2013.8247",
    "eventcode": 190,
    "quadclass": 4,
    "nummentions": 21,
    "numsources": 3,
    "numarticles": 21,
    "avgtone": "2.02761066843755",
    "sourceurl": "http://www.broadwayworld.com/bwwtv/article/Matt-Damon-More-to-Explore-Climate-Change-in-Epic-Showtime-Docu-Series-YEARS-OF-LIVING-DANGEROUSLY-20131031",
    "feature_id": "531871",
    "feature_name": "Washington",
    "state_alpha": "DC",
    "county_name": "District of Columbia",
    "county_numeric": "001",
    "prim_lat_dec": "38.8951118",
    "prim_long_dec": "-77.0363658",
    "elev_in_m": "7",
    "elev_in_ft": "23",
    "lat": 38.8951118,
    "long": -77.0363658
  },
  {
    "globaleventid": 273964829,
    "sqldate": 20131031,
    "monthyear": 201310,
    "year": 2013,
    "fractiondate": "2013.8247",
    "eventcode": 190,
    "quadclass": 4,
    "nummentions": 2,
    "numsources": 1,
    "numarticles": 2,
    "avgtone": "1.36986301369863",
    "sourceurl": "http://www.wandtv.com/story/23846191/hoopeston-fire-needs-new-gear",
    "feature_id": "424549",
    "feature_name": "Rossville",
    "state_alpha": "IL",
    "county_name": "Vermilion",
    "county_numeric": "183",
    "prim_lat_dec": "40.3792031",
    "prim_long_dec": "-87.6686342",
    "elev_in_m": "209",
    "elev_in_ft": "686",
    "lat": 40.3792031,
    "long": -87.6686342
  },
  {
    "globaleventid": 273964828,
    "sqldate": 20131031,
    "monthyear": 201310,
    "year": 2013,
    "fractiondate": "2013.8247",
    "eventcode": 190,
    "quadclass": 4,
    "nummentions": 4,
    "numsources": 1,
    "numarticles": 4,
    "avgtone": "4.4314381270903",
    "sourceurl": "http://www.wickedlocal.com/salem/blogs/mobileghmne/x817767396/Something-Wicked-This-Way-Comes",
    "feature_id": "423587",
    "feature_name": "Chicago",
    "state_alpha": "IL",
    "county_name": "Cook",
    "county_numeric": "031",
    "prim_lat_dec": "41.850033",
    "prim_long_dec": "-87.6500523",
    "elev_in_m": "179",
    "elev_in_ft": "587",
    "lat": 41.850033,
    "long": -87.6500523
  },
  {
    "globaleventid": 273964827,
    "sqldate": 20131031,
    "monthyear": 201310,
    "year": 2013,
    "fractiondate": "2013.8247",
    "eventcode": 190,
    "quadclass": 4,
    "nummentions": 10,
    "numsources": 1,
    "numarticles": 10,
    "avgtone": "2.1505376344086",
    "sourceurl": "http://www.civilbeat.com/articles/2013/10/31/20217-for-third-straight-year-hawaii-gets-more-than-20-billion-in-federal-funds/",
    "feature_id": "366212",
    "feature_name": "Honolulu",
    "state_alpha": "HI",
    "county_name": "Honolulu",
    "county_numeric": "003",
    "prim_lat_dec": "21.3069444",
    "prim_long_dec": "-157.8583333",
    "elev_in_m": "5",
    "elev_in_ft": "16",
    "lat": 21.3069444,
    "long": -157.8583333
  },
  {
    "globaleventid": 273964826,
    "sqldate": 20131031,
    "monthyear": 201310,
    "year": 2013,
    "fractiondate": "2013.8247",
    "eventcode": 190,
    "quadclass": 4,
    "nummentions": 4,
    "numsources": 1,
    "numarticles": 4,
    "avgtone": "2.38095238095238",
    "sourceurl": "http://sanfrancisco.cbslocal.com/2013/10/31/mother-of-man-killed-in-oakland-slams-quan-for-touting-success/",
    "feature_id": "277566",
    "feature_name": "Oakland",
    "state_alpha": "CA",
    "county_name": "Alameda",
    "county_numeric": "001",
    "prim_lat_dec": "37.8043722",
    "prim_long_dec": "-122.2708026",
    "elev_in_m": "13",
    "elev_in_ft": "43",
    "lat": 37.8043722,
    "long": -122.2708026
  },
  {
    "globaleventid": 273964825,
    "sqldate": 20131031,
    "monthyear": 201310,
    "year": 2013,
    "fractiondate": "2013.8247",
    "eventcode": 190,
    "quadclass": 4,
    "nummentions": 2,
    "numsources": 1,
    "numarticles": 2,
    "avgtone": "2.38095238095238",
    "sourceurl": "http://sanfrancisco.cbslocal.com/2013/10/31/mother-of-man-killed-in-oakland-slams-quan-for-touting-success/",
    "feature_id": "277566",
    "feature_name": "Oakland",
    "state_alpha": "CA",
    "county_name": "Alameda",
    "county_numeric": "001",
    "prim_lat_dec": "37.8043722",
    "prim_long_dec": "-122.2708026",
    "elev_in_m": "13",
    "elev_in_ft": "43",
    "lat": 37.8043722,
    "long": -122.2708026
  },
  {
    "globaleventid": 273964822,
    "sqldate": 20131031,
    "monthyear": 201310,
    "year": 2013,
    "fractiondate": "2013.8247",
    "eventcode": 190,
    "quadclass": 4,
    "nummentions": 5,
    "numsources": 1,
    "numarticles": 5,
    "avgtone": "3.43137254901961",
    "sourceurl": "http://www.denverpost.com/news/ci_24425065/company-donates-colo-fire-departments",
    "feature_id": "193282",
    "feature_name": "Black Forest",
    "state_alpha": "CO",
    "county_name": "El Paso",
    "county_numeric": "041",
    "prim_lat_dec": "39.0130484",
    "prim_long_dec": "-104.7008083",
    "elev_in_m": "2246",
    "elev_in_ft": "7369",
    "lat": 39.0130484,
    "long": -104.7008083
  },
  {
    "globaleventid": 273964821,
    "sqldate": 20131031,
    "monthyear": 201310,
    "year": 2013,
    "fractiondate": "2013.8247",
    "eventcode": 190,
    "quadclass": 4,
    "nummentions": 6,
    "numsources": 1,
    "numarticles": 6,
    "avgtone": "0.648148148148148",
    "sourceurl": "http://www.woonsocketcall.com/node/9852",
    "feature_id": "1219339",
    "feature_name": "Woonsocket",
    "state_alpha": "RI",
    "county_name": "Providence",
    "county_numeric": "007",
    "prim_lat_dec": "42.0028761",
    "prim_long_dec": "-71.5147839",
    "elev_in_m": "59",
    "elev_in_ft": "194",
    "lat": 42.0028761,
    "long": -71.5147839
  },
  {
    "globaleventid": 273964814,
    "sqldate": 20131031,
    "monthyear": 201310,
    "year": 2013,
    "fractiondate": "2013.8247",
    "eventcode": 180,
    "quadclass": 4,
    "nummentions": 14,
    "numsources": 1,
    "numarticles": 14,
    "avgtone": "0.0",
    "sourceurl": "http://www.your4state.com/story/10000-worth-of-hay-intentionally-lit-on-fire/d/story/JH4ZLYbpGkanP7irdztwyg",
    "feature_id": "598385",
    "feature_name": "Hagerstown",
    "state_alpha": "MD",
    "county_name": "Washington",
    "county_numeric": "043",
    "prim_lat_dec": "39.6417629",
    "prim_long_dec": "-77.7199932",
    "elev_in_m": "165",
    "elev_in_ft": "541",
    "lat": 39.6417629,
    "long": -77.7199932
  },
  {
    "globaleventid": 273964813,
    "sqldate": 20131031,
    "monthyear": 201310,
    "year": 2013,
    "fractiondate": "2013.8247",
    "eventcode": 180,
    "quadclass": 4,
    "nummentions": 2,
    "numsources": 1,
    "numarticles": 2,
    "avgtone": "1.19402985074627",
    "sourceurl": "http://au.news.yahoo.com/thewest/a/-/wa/19632540/only-44pc-of-cop-assaults-result-in-jail/",
    "feature_id": "531871",
    "feature_name": "Washington",
    "state_alpha": "DC",
    "county_name": "District of Columbia",
    "county_numeric": "001",
    "prim_lat_dec": "38.8951118",
    "prim_long_dec": "-77.0363658",
    "elev_in_m": "7",
    "elev_in_ft": "23",
    "lat": 38.8951118,
    "long": -77.0363658
  },
  {
    "globaleventid": 273964808,
    "sqldate": 20131031,
    "monthyear": 201310,
    "year": 2013,
    "fractiondate": "2013.8247",
    "eventcode": 173,
    "quadclass": 4,
    "nummentions": 4,
    "numsources": 1,
    "numarticles": 4,
    "avgtone": "0.784313725490196",
    "sourceurl": "http://www.mynews4.com/news/local/story/Convicted-child-killer-caught-was-on-lamb-since-06/u4TL2GnswU27BR5Q0-ajrw.cspx",
    "feature_id": "863976",
    "feature_name": "Carson City",
    "state_alpha": "NV",
    "county_name": "Carson City (city)",
    "county_numeric": "510",
    "prim_lat_dec": "39.1637984",
    "prim_long_dec": "-119.7674034",
    "elev_in_m": "1427",
    "elev_in_ft": "4682",
    "lat": 39.1637984,
    "long": -119.7674034
  },
  {
    "globaleventid": 273964805,
    "sqldate": 20131031,
    "monthyear": 201310,
    "year": 2013,
    "fractiondate": "2013.8247",
    "eventcode": 173,
    "quadclass": 4,
    "nummentions": 2,
    "numsources": 1,
    "numarticles": 2,
    "avgtone": "0.357142857142857",
    "sourceurl": "http://www.yankton.net/news/state_ap_sd/article_accd1a2d-20b4-5eb1-93c4-9f8c3720d91e.html",
    "feature_id": "461653",
    "feature_name": "Sioux City",
    "state_alpha": "IA",
    "county_name": "Woodbury",
    "county_numeric": "193",
    "prim_lat_dec": "42.4999942",
    "prim_long_dec": "-96.4003069",
    "elev_in_m": "366",
    "elev_in_ft": "1201",
    "lat": 42.4999942,
    "long": -96.4003069
  },
  {
    "globaleventid": 273964800,
    "sqldate": 20131031,
    "monthyear": 201310,
    "year": 2013,
    "fractiondate": "2013.8247",
    "eventcode": 173,
    "quadclass": 4,
    "nummentions": 2,
    "numsources": 1,
    "numarticles": 2,
    "avgtone": "1.57894736842105",
    "sourceurl": "http://www.ctpost.com/news/crime/article/Ex-con-indicted-in-1982-death-of-woman-in-Phoenix-4944549.php",
    "feature_id": "44784",
    "feature_name": "Phoenix",
    "state_alpha": "AZ",
    "county_name": "Maricopa",
    "county_numeric": "013",
    "prim_lat_dec": "33.4483771",
    "prim_long_dec": "-112.0740373",
    "elev_in_m": "331",
    "elev_in_ft": "1086",
    "lat": 33.4483771,
    "long": -112.0740373
  },
  {
    "globaleventid": 273964797,
    "sqldate": 20131031,
    "monthyear": 201310,
    "year": 2013,
    "fractiondate": "2013.8247",
    "eventcode": 173,
    "quadclass": 4,
    "nummentions": 4,
    "numsources": 1,
    "numarticles": 4,
    "avgtone": "0.0",
    "sourceurl": "http://www.mynews4.com/news/story/Convicted-child-killer-caught-was-on-lamb-since-06/u4TL2GnswU27BR5Q0-ajrw.cspx",
    "feature_id": "863976",
    "feature_name": "Carson City",
    "state_alpha": "NV",
    "county_name": "Carson City (city)",
    "county_numeric": "510",
    "prim_lat_dec": "39.1637984",
    "prim_long_dec": "-119.7674034",
    "elev_in_m": "1427",
    "elev_in_ft": "4682",
    "lat": 39.1637984,
    "long": -119.7674034
  },
  {
    "globaleventid": 273964796,
    "sqldate": 20131031,
    "monthyear": 201310,
    "year": 2013,
    "fractiondate": "2013.8247",
    "eventcode": 173,
    "quadclass": 4,
    "nummentions": 7,
    "numsources": 1,
    "numarticles": 7,
    "avgtone": "0.576368876080692",
    "sourceurl": "http://kstp.com/news/stories/s3206162.shtml?cat=1",
    "feature_id": "847388",
    "feature_name": "Las Vegas",
    "state_alpha": "NV",
    "county_name": "Clark",
    "county_numeric": "003",
    "prim_lat_dec": "36.1749705",
    "prim_long_dec": "-115.137223",
    "elev_in_m": "610",
    "elev_in_ft": "2001",
    "lat": 36.1749705,
    "long": -115.137223
  },
  {
    "globaleventid": 273964791,
    "sqldate": 20131031,
    "monthyear": 201310,
    "year": 2013,
    "fractiondate": "2013.8247",
    "eventcode": 173,
    "quadclass": 4,
    "nummentions": 14,
    "numsources": 3,
    "numarticles": 14,
    "avgtone": "0.840561376680491",
    "sourceurl": "http://www.yankton.net/news/state_ap_sd/article_accd1a2d-20b4-5eb1-93c4-9f8c3720d91e.html",
    "feature_id": "461653",
    "feature_name": "Sioux City",
    "state_alpha": "IA",
    "county_name": "Woodbury",
    "county_numeric": "193",
    "prim_lat_dec": "42.4999942",
    "prim_long_dec": "-96.4003069",
    "elev_in_m": "366",
    "elev_in_ft": "1201",
    "lat": 42.4999942,
    "long": -96.4003069
  },
  {
    "globaleventid": 273964790,
    "sqldate": 20131031,
    "monthyear": 201310,
    "year": 2013,
    "fractiondate": "2013.8247",
    "eventcode": 173,
    "quadclass": 4,
    "nummentions": 2,
    "numsources": 1,
    "numarticles": 2,
    "avgtone": "1.57894736842105",
    "sourceurl": "http://www.ctpost.com/news/crime/article/Ex-con-indicted-in-1982-death-of-woman-in-Phoenix-4944549.php",
    "feature_id": "44784",
    "feature_name": "Phoenix",
    "state_alpha": "AZ",
    "county_name": "Maricopa",
    "county_numeric": "013",
    "prim_lat_dec": "33.4483771",
    "prim_long_dec": "-112.0740373",
    "elev_in_m": "331",
    "elev_in_ft": "1086",
    "lat": 33.4483771,
    "long": -112.0740373
  },
  {
    "globaleventid": 273964789,
    "sqldate": 20131031,
    "monthyear": 201310,
    "year": 2013,
    "fractiondate": "2013.8247",
    "eventcode": 173,
    "quadclass": 4,
    "nummentions": 8,
    "numsources": 1,
    "numarticles": 8,
    "avgtone": "1.57894736842105",
    "sourceurl": "http://www.ctpost.com/news/crime/article/Ex-con-indicted-in-1982-death-of-woman-in-Phoenix-4944549.php",
    "feature_id": "44784",
    "feature_name": "Phoenix",
    "state_alpha": "AZ",
    "county_name": "Maricopa",
    "county_numeric": "013",
    "prim_lat_dec": "33.4483771",
    "prim_long_dec": "-112.0740373",
    "elev_in_m": "331",
    "elev_in_ft": "1086",
    "lat": 33.4483771,
    "long": -112.0740373
  },
  {
    "globaleventid": 273964787,
    "sqldate": 20131031,
    "monthyear": 201310,
    "year": 2013,
    "fractiondate": "2013.8247",
    "eventcode": 173,
    "quadclass": 4,
    "nummentions": 4,
    "numsources": 1,
    "numarticles": 4,
    "avgtone": "1.4218009478673",
    "sourceurl": "http://www.wcjb.com/local-news/2013/10/former-american-red-cross-employee-accused-fraud",
    "feature_id": "282874",
    "feature_name": "Gainesville",
    "state_alpha": "FL",
    "county_name": "Alachua",
    "county_numeric": "001",
    "prim_lat_dec": "29.6516344",
    "prim_long_dec": "-82.3248262",
    "elev_in_m": "54",
    "elev_in_ft": "177",
    "lat": 29.6516344,
    "long": -82.3248262
  },
  {
    "globaleventid": 273964785,
    "sqldate": 20131031,
    "monthyear": 201310,
    "year": 2013,
    "fractiondate": "2013.8247",
    "eventcode": 1723,
    "quadclass": 4,
    "nummentions": 200,
    "numsources": 14,
    "numarticles": 200,
    "avgtone": "3.10285704729816",
    "sourceurl": "http://digital.vpr.net/post/more-foreign-firms-look-make-it-usa",
    "feature_id": "531871",
    "feature_name": "Washington",
    "state_alpha": "DC",
    "county_name": "District of Columbia",
    "county_numeric": "001",
    "prim_lat_dec": "38.8951118",
    "prim_long_dec": "-77.0363658",
    "elev_in_m": "7",
    "elev_in_ft": "23",
    "lat": 38.8951118,
    "long": -77.0363658
  },
  {
    "globaleventid": 273964780,
    "sqldate": 20131031,
    "monthyear": 201310,
    "year": 2013,
    "fractiondate": "2013.8247",
    "eventcode": 172,
    "quadclass": 4,
    "nummentions": 3,
    "numsources": 1,
    "numarticles": 3,
    "avgtone": "1.6025641025641",
    "sourceurl": "http://www.bensonhurstbean.com/2013/10/which-local-council-members-voted-for-raising-the-smoking-age-to-21/",
    "feature_id": "944840",
    "feature_name": "Brooklyn",
    "state_alpha": "NY",
    "county_name": "Delaware",
    "county_numeric": "025",
    "prim_lat_dec": "42.3442482",
    "prim_long_dec": "-75.1704468",
    "elev_in_m": "366",
    "elev_in_ft": "1201",
    "lat": 42.3442482,
    "long": -75.1704468
  },
  {
    "globaleventid": 273964773,
    "sqldate": 20131031,
    "monthyear": 201310,
    "year": 2013,
    "fractiondate": "2013.8247",
    "eventcode": 166,
    "quadclass": 4,
    "nummentions": 1,
    "numsources": 1,
    "numarticles": 1,
    "avgtone": "3.38028169014084",
    "sourceurl": "http://www.pressofatlanticcity.com/communities/atlantic-city_pleasantville_brigantine/phish-fans-get-into-halloween-spirit-as-band-starts-three/article_6d546ad8-428d-11e3-a28e-001a4bcf887a.html",
    "feature_id": "153742",
    "feature_name": "Tuscaloosa",
    "state_alpha": "AL",
    "county_name": "Tuscaloosa",
    "county_numeric": "125",
    "prim_lat_dec": "33.2098407",
    "prim_long_dec": "-87.5691735",
    "elev_in_m": "67",
    "elev_in_ft": "220",
    "lat": 33.2098407,
    "long": -87.5691735
  },
  {
    "globaleventid": 273964772,
    "sqldate": 20131031,
    "monthyear": 201310,
    "year": 2013,
    "fractiondate": "2013.8247",
    "eventcode": 166,
    "quadclass": 4,
    "nummentions": 1,
    "numsources": 1,
    "numarticles": 1,
    "avgtone": "3.38028169014084",
    "sourceurl": "http://www.pressofatlanticcity.com/communities/atlantic-city_pleasantville_brigantine/phish-fans-get-into-halloween-spirit-as-band-starts-three/article_6d546ad8-428d-11e3-a28e-001a4bcf887a.html",
    "feature_id": "153742",
    "feature_name": "Tuscaloosa",
    "state_alpha": "AL",
    "county_name": "Tuscaloosa",
    "county_numeric": "125",
    "prim_lat_dec": "33.2098407",
    "prim_long_dec": "-87.5691735",
    "elev_in_m": "67",
    "elev_in_ft": "220",
    "lat": 33.2098407,
    "long": -87.5691735
  },
  {
    "globaleventid": 273964768,
    "sqldate": 20131031,
    "monthyear": 201310,
    "year": 2013,
    "fractiondate": "2013.8247",
    "eventcode": 161,
    "quadclass": 4,
    "nummentions": 10,
    "numsources": 1,
    "numarticles": 10,
    "avgtone": "1.97044334975369",
    "sourceurl": "http://gantdaily.com/2013/10/31/two-delta-force-soldiers-fought-benghazi-mission-attackers-says-report/",
    "feature_id": "531871",
    "feature_name": "Washington",
    "state_alpha": "DC",
    "county_name": "District of Columbia",
    "county_numeric": "001",
    "prim_lat_dec": "38.8951118",
    "prim_long_dec": "-77.0363658",
    "elev_in_m": "7",
    "elev_in_ft": "23",
    "lat": 38.8951118,
    "long": -77.0363658
  },