[
  {
    "globaleventid": "280375940",
    "sqldate": "20131220",
    "monthyear": "201312",
    "year": "2013",
    "fractiondate": "2013.9589",
    "eventcode": "141",
    "quadclass": "3",
    "nummentions": "4",
    "numsources": "1",
    "numarticles": "4",
    "avgtone": "0.51150895140665",
    "sourceurl": "http://www.philly.com/philly/blogs/dncrime/Man-dies-after-violent-Overbrook-attack.html",
    "feature_id": "1209052",
    "feature_name": "Philadelphia",
    "state_alpha": "PA",
    "county_name": "Philadelphia",
    "county_numeric": "101",
    "prim_lat_dec": "39.9523",
    "prim_long_dec": "-75.1638",
    "elev_in_m": "14",
    "elev_in_ft": "46",
    "lat": 39.9523,
    "long": -75.1638
  },
  {
    "globaleventid": "280375938",
    "sqldate": "20131220",
    "monthyear": "201312",
    "year": "2013",
    "fractiondate": "2013.9589",
    "eventcode": "130",
    "quadclass": "3",
    "nummentions": "1",
    "numsources": "1",
    "numarticles": "1",
    "avgtone": "2.7060270602706",
    "sourceurl": "http://www.fosters.com/apps/pbcs.dll/article?AID=/20131220/GJLIFESTYLES/131219453/-1/SANNEWS",
    "feature_id": "295004",
    "feature_name": "Miami",
    "state_alpha": "FL",
    "county_name": "Miami-Dade",
    "county_numeric": "086",
    "prim_lat_dec": "25.7743",
    "prim_long_dec": "-80.1937",
    "elev_in_m": "2",
    "elev_in_ft": "7",
    "lat": 25.7743,
    "long": -80.1937
  },
  {
    "globaleventid": "280375702",
    "sqldate": "20131220",
    "monthyear": "201312",
    "year": "2013",
    "fractiondate": "2013.9589",
    "eventcode": "190",
    "quadclass": "4",
    "nummentions": "5",
    "numsources": "1",
    "numarticles": "5",
    "avgtone": "1.43884892086331",
    "sourceurl": "http://www.boston.com/news/local/massachusetts/2013/12/21/state-retains-custody-teen-limbo-children-hospital-for-months/RbMgQW5zLQsSpuTinvTihK/story.html",
    "feature_id": "617565",
    "feature_name": "Boston",
    "state_alpha": "MA",
    "county_name": "Suffolk",
    "county_numeric": "025",
    "prim_lat_dec": "42.3584",
    "prim_long_dec": "-71.0598",
    "elev_in_m": "14",
    "elev_in_ft": "46",
    "lat": 42.3584,
    "long": -71.0598
  },
  {
    "globaleventid": "280387159",
    "sqldate": "20131220",
    "monthyear": "201312",
    "year": "2013",
    "fractiondate": "2013.9589",
    "eventcode": "190",
    "quadclass": "4",
    "nummentions": "5",
    "numsources": "1",
    "numarticles": "5",
    "avgtone": "3.68421052631579",
    "sourceurl": "http://www.miamiherald.com/2013/12/20/3829394/canadian-court-strikes-down-anti.html",
    "feature_id": "295004",
    "feature_name": "Miami",
    "state_alpha": "FL",
    "county_name": "Miami-Dade",
    "county_numeric": "086",
    "prim_lat_dec": "25.7743",
    "prim_long_dec": "-80.1937",
    "elev_in_m": "2",
    "elev_in_ft": "7",
    "lat": 25.7743,
    "long": -80.1937
  },
  {
    "globaleventid": "280387145",
    "sqldate": "20131220",
    "monthyear": "201312",
    "year": "2013",
    "fractiondate": "2013.9589",
    "eventcode": "114",
    "quadclass": "3",
    "nummentions": "15",
    "numsources": "3",
    "numarticles": "15",
    "avgtone": "0.0",
    "sourceurl": "http://www.twincities.com/news/ci_24765084/prosecutors-charge-wis-man-fatal-hit-and-run",
    "feature_id": "1568226",
    "feature_name": "Little Chute",
    "state_alpha": "WI",
    "county_name": "Outagamie",
    "county_numeric": "087",
    "prim_lat_dec": "44.28",
    "prim_long_dec": "-88.3184",
    "elev_in_m": "223",
    "elev_in_ft": "732",
    "lat": 44.28,
    "long": -88.3184
  },
  {
    "globaleventid": "280387119",
    "sqldate": "20131220",
    "monthyear": "201312",
    "year": "2013",
    "fractiondate": "2013.9589",
    "eventcode": "193",
    "quadclass": "4",
    "nummentions": "6",
    "numsources": "1",
    "numarticles": "6",
    "avgtone": "0.597014925373134",
    "sourceurl": "http://www.myfoxphoenix.com/story/24270339/ex-officer-set-for-sentencing-in-shooting-case",
    "feature_id": "44784",
    "feature_name": "Phoenix",
    "state_alpha": "AZ",
    "county_name": "Maricopa",
    "county_numeric": "013",
    "prim_lat_dec": "33.4484",
    "prim_long_dec": "-112.074",
    "elev_in_m": "331",
    "elev_in_ft": "1086",
    "lat": 33.4484,
    "long": -112.074
  },
  {
    "globaleventid": "280387118",
    "sqldate": "20131220",
    "monthyear": "201312",
    "year": "2013",
    "fractiondate": "2013.9589",
    "eventcode": "193",
    "quadclass": "4",
    "nummentions": "2",
    "numsources": "1",
    "numarticles": "2",
    "avgtone": "0.352112676056338",
    "sourceurl": "http://www.cleveland.com/metro/index.ssf/2013/12/cleveland_man_gets_life_withou.html",
    "feature_id": "1066654",
    "feature_name": "Cleveland",
    "state_alpha": "OH",
    "county_name": "Cuyahoga",
    "county_numeric": "035",
    "prim_lat_dec": "41.4995",
    "prim_long_dec": "-81.6954",
    "elev_in_m": "199",
    "elev_in_ft": "653",
    "lat": 41.4995,
    "long": -81.6954
  },
  {
    "globaleventid": "280387104",
    "sqldate": "20131220",
    "monthyear": "201312",
    "year": "2013",
    "fractiondate": "2013.9589",
    "eventcode": "173",
    "quadclass": "4",
    "nummentions": "102",
    "numsources": "12",
    "numarticles": "102",
    "avgtone": "2.09858514293086",
    "sourceurl": "http://www.miamiherald.com/2013/12/20/3830237/ex-officer-sentenced-in-2010-fatal.html",
    "feature_id": "44784",
    "feature_name": "Phoenix",
    "state_alpha": "AZ",
    "county_name": "Maricopa",
    "county_numeric": "013",
    "prim_lat_dec": "33.4484",
    "prim_long_dec": "-112.074",
    "elev_in_m": "331",
    "elev_in_ft": "1086",
    "lat": 33.4484,
    "long": -112.074
  },
  {
    "globaleventid": "280387088",
    "sqldate": "20131220",
    "monthyear": "201312",
    "year": "2013",
    "fractiondate": "2013.9589",
    "eventcode": "139",
    "quadclass": "3",
    "nummentions": "2",
    "numsources": "1",
    "numarticles": "2",
    "avgtone": "1.4194464158978",
    "sourceurl": "http://articles.philly.com/2013-12-19/news/45381242_1_detectives-new-policy-aclu",
    "feature_id": "1209052",
    "feature_name": "Philadelphia",
    "state_alpha": "PA",
    "county_name": "Philadelphia",
    "county_numeric": "101",
    "prim_lat_dec": "39.9523",
    "prim_long_dec": "-75.1638",
    "elev_in_m": "14",
    "elev_in_ft": "46",
    "lat": 39.9523,
    "long": -75.1638
  },
  {
    "globaleventid": "280387087",
    "sqldate": "20131220",
    "monthyear": "201312",
    "year": "2013",
    "fractiondate": "2013.9589",
    "eventcode": "139",
    "quadclass": "3",
    "nummentions": "2",
    "numsources": "1",
    "numarticles": "2",
    "avgtone": "1.4194464158978",
    "sourceurl": "http://articles.philly.com/2013-12-19/news/45381242_1_detectives-new-policy-aclu",
    "feature_id": "1183134",
    "feature_name": "Overbrook",
    "state_alpha": "PA",
    "county_name": "Allegheny",
    "county_numeric": "003",
    "prim_lat_dec": "40.3851",
    "prim_long_dec": "-79.9934",
    "elev_in_m": "301",
    "elev_in_ft": "988",
    "lat": 40.3851,
    "long": -79.9934
  },
  {
    "globaleventid": "280387073",
    "sqldate": "20131220",
    "monthyear": "201312",
    "year": "2013",
    "fractiondate": "2013.9589",
    "eventcode": "120",
    "quadclass": "3",
    "nummentions": "20",
    "numsources": "1",
    "numarticles": "10",
    "avgtone": "5.45722713864307",
    "sourceurl": "http://www.sourcenewspapers.com/articles/2013/12/20/news/doc52b2228fcd156640410227.txt",
    "feature_id": "638798",
    "feature_name": "Sterling Heights",
    "state_alpha": "MI",
    "county_name": "Macomb",
    "county_numeric": "099",
    "prim_lat_dec": "42.5803",
    "prim_long_dec": "-83.0302",
    "elev_in_m": "187",
    "elev_in_ft": "614",
    "lat": 42.5803,
    "long": -83.0302
  },
  {
    "globaleventid": "280387064",
    "sqldate": "20131220",
    "monthyear": "201312",
    "year": "2013",
    "fractiondate": "2013.9589",
    "eventcode": "112",
    "quadclass": "3",
    "nummentions": "1",
    "numsources": "1",
    "numarticles": "1",
    "avgtone": "0.652883569096844",
    "sourceurl": "http://www.ashlandwi.com/article_0d5b314e-69d3-11e3-a6c1-0019bb2963f4.html",
    "feature_id": "1560982",
    "feature_name": "Ashland",
    "state_alpha": "WI",
    "county_name": "Ashland",
    "county_numeric": "003",
    "prim_lat_dec": "46.5924",
    "prim_long_dec": "-90.8838",
    "elev_in_m": "197",
    "elev_in_ft": "646",
    "lat": 46.5924,
    "long": -90.8838
  },
  {
    "globaleventid": "280386979",
    "sqldate": "20131220",
    "monthyear": "201312",
    "year": "2013",
    "fractiondate": "2013.9589",
    "eventcode": "172",
    "quadclass": "4",
    "nummentions": "3",
    "numsources": "3",
    "numarticles": "3",
    "avgtone": "4.61129322014087",
    "sourceurl": "http://hosted2.ap.org/APDEFAULT/3d281c11a96b4ad082fe88aa0db04305/Article_2013-12-20-Gay%20Marriage-Utah/id-31002b55d7c843f7aaf471997e60dcd9",
    "feature_id": "1454997",
    "feature_name": "Salt Lake City",
    "state_alpha": "UT",
    "county_name": "Salt Lake",
    "county_numeric": "035",
    "prim_lat_dec": "40.7608",
    "prim_long_dec": "-111.891",
    "elev_in_m": "1300",
    "elev_in_ft": "4265",
    "lat": 40.7608,
    "long": -111.891
  },
  {
    "globaleventid": "280386977",
    "sqldate": "20131220",
    "monthyear": "201312",
    "year": "2013",
    "fractiondate": "2013.9589",
    "eventcode": "172",
    "quadclass": "4",
    "nummentions": "1",
    "numsources": "1",
    "numarticles": "1",
    "avgtone": "5.35714285714286",
    "sourceurl": "http://hosted2.ap.org/APDEFAULT/3d281c11a96b4ad082fe88aa0db04305/Article_2013-12-20-Gay%20Marriage-Utah/id-f1d959256d4a44e78d1be962395b6c0b",
    "feature_id": "1454997",
    "feature_name": "Salt Lake City",
    "state_alpha": "UT",
    "county_name": "Salt Lake",
    "county_numeric": "035",
    "prim_lat_dec": "40.7608",
    "prim_long_dec": "-111.891",
    "elev_in_m": "1300",
    "elev_in_ft": "4265",
    "lat": 40.7608,
    "long": -111.891
  },
  {
    "globaleventid": "280386974",
    "sqldate": "20131220",
    "monthyear": "201312",
    "year": "2013",
    "fractiondate": "2013.9589",
    "eventcode": "172",
    "quadclass": "4",
    "nummentions": "2",
    "numsources": "1",
    "numarticles": "2",
    "avgtone": "5.42986425339367",
    "sourceurl": "http://hosted2.ap.org/APDEFAULT/3d281c11a96b4ad082fe88aa0db04305/Article_2013-12-20-Gay%20Marriage-Utah/id-31002b55d7c843f7aaf471997e60dcd9",
    "feature_id": "1454997",
    "feature_name": "Salt Lake City",
    "state_alpha": "UT",
    "county_name": "Salt Lake",
    "county_numeric": "035",
    "prim_lat_dec": "40.7608",
    "prim_long_dec": "-111.891",
    "elev_in_m": "1300",
    "elev_in_ft": "4265",
    "lat": 40.7608,
    "long": -111.891
  },
  {
    "globaleventid": "280386970",
    "sqldate": "20131220",
    "monthyear": "201312",
    "year": "2013",
    "fractiondate": "2013.9589",
    "eventcode": "190",
    "quadclass": "4",
    "nummentions": "2",
    "numsources": "1",
    "numarticles": "2",
    "avgtone": "2.12264150943396",
    "sourceurl": "http://www.sfexaminer.com/sanfrancisco/woman-sentenced-for-fatal-dui-hit-and-run-on-sfs-twin-peaks/Content?oid=2655111",
    "feature_id": "277593",
    "feature_name": "San Francisco",
    "state_alpha": "CA",
    "county_name": "San Francisco",
    "county_numeric": "075",
    "prim_lat_dec": "37.775",
    "prim_long_dec": "-122.419",
    "elev_in_m": "16",
    "elev_in_ft": "52",
    "lat": 37.775,
    "long": -122.419
  },
  {
    "globaleventid": "280386969",
    "sqldate": "20131220",
    "monthyear": "201312",
    "year": "2013",
    "fractiondate": "2013.9589",
    "eventcode": "120",
    "quadclass": "3",
    "nummentions": "1",
    "numsources": "1",
    "numarticles": "1",
    "avgtone": "1.53550863723608",
    "sourceurl": "http://www.chinapost.com.tw/international/americas/2013/12/20/396396/US-diplomats.htm",
    "feature_id": "531871",
    "feature_name": "Washington",
    "state_alpha": "DC",
    "county_name": "District of Columbia",
    "county_numeric": "001",
    "prim_lat_dec": "38.8951",
    "prim_long_dec": "-77.0364",
    "elev_in_m": "7",
    "elev_in_ft": "23",
    "lat": 38.8951,
    "long": -77.0364
  },
  {
    "globaleventid": "280386904",
    "sqldate": "20131220",
    "monthyear": "201312",
    "year": "2013",
    "fractiondate": "2013.9589",
    "eventcode": "110",
    "quadclass": "3",
    "nummentions": "6",
    "numsources": "1",
    "numarticles": "6",
    "avgtone": "1.48148148148148",
    "sourceurl": "http://www.insurancejournal.com/news/west/2013/12/20/315155.htm",
    "feature_id": "1209052",
    "feature_name": "Philadelphia",
    "state_alpha": "PA",
    "county_name": "Philadelphia",
    "county_numeric": "101",
    "prim_lat_dec": "39.9523",
    "prim_long_dec": "-75.1638",
    "elev_in_m": "14",
    "elev_in_ft": "46",
    "lat": 39.9523,
    "long": -75.1638
  },
  {
    "globaleventid": "280384794",
    "sqldate": "20131220",
    "monthyear": "201312",
    "year": "2013",
    "fractiondate": "2013.9589",
    "eventcode": "193",
    "quadclass": "4",
    "nummentions": "12",
    "numsources": "3",
    "numarticles": "12",
    "avgtone": "1.35030577887721",
    "sourceurl": "http://www.therepublic.com/view/story/7e9fbd3f526e47888999531faa4caf34/WA--Moses-Lake-Shooting",
    "feature_id": "1512481",
    "feature_name": "Moses Lake",
    "state_alpha": "WA",
    "county_name": "Grant",
    "county_numeric": "025",
    "prim_lat_dec": "47.1301",
    "prim_long_dec": "-119.278",
    "elev_in_m": "326",
    "elev_in_ft": "1070",
    "lat": 47.1301,
    "long": -119.278
  },
  {
    "globaleventid": "280384399",
    "sqldate": "20131220",
    "monthyear": "201312",
    "year": "2013",
    "fractiondate": "2013.9589",
    "eventcode": "110",
    "quadclass": "3",
    "nummentions": "5",
    "numsources": "1",
    "numarticles": "5",
    "avgtone": "1.42276422764228",
    "sourceurl": "http://www.opposingviews.com/i/politics/gop-rep-jack-kingston-sad-call-child-labor-sparked-partisan-hysteria",
    "feature_id": "351615",
    "feature_name": "Atlanta",
    "state_alpha": "GA",
    "county_name": "Fulton",
    "county_numeric": "121",
    "prim_lat_dec": "33.749",
    "prim_long_dec": "-84.388",
    "elev_in_m": "320",
    "elev_in_ft": "1050",
    "lat": 33.749,
    "long": -84.388
  },
  {
    "globaleventid": "280383677",
    "sqldate": "20131220",
    "monthyear": "201312",
    "year": "2013",
    "fractiondate": "2013.9589",
    "eventcode": "194",
    "quadclass": "4",
    "nummentions": "1",
    "numsources": "1",
    "numarticles": "1",
    "avgtone": "2.20034742327736",
    "sourceurl": "http://www.cnbc.com/id/101289579",
    "feature_id": "531871",
    "feature_name": "Washington",
    "state_alpha": "DC",
    "county_name": "District of Columbia",
    "county_numeric": "001",
    "prim_lat_dec": "38.8951",
    "prim_long_dec": "-77.0364",
    "elev_in_m": "7",
    "elev_in_ft": "23",
    "lat": 38.8951,
    "long": -77.0364
  },
  {
    "globaleventid": "280383622",
    "sqldate": "20131220",
    "monthyear": "201312",
    "year": "2013",
    "fractiondate": "2013.9589",
    "eventcode": "173",
    "quadclass": "4",
    "nummentions": "4",
    "numsources": "1",
    "numarticles": "4",
    "avgtone": "0.526315789473684",
    "sourceurl": "http://abclocal.go.com/wls/story?section=news/local/chicago_news&id=9367322",
    "feature_id": "423587",
    "feature_name": "Chicago",
    "state_alpha": "IL",
    "county_name": "Cook",
    "county_numeric": "031",
    "prim_lat_dec": "41.85",
    "prim_long_dec": "-87.6501",
    "elev_in_m": "179",
    "elev_in_ft": "587",
    "lat": 41.85,
    "long": -87.6501
  },
  {
    "globaleventid": "280383621",
    "sqldate": "20131220",
    "monthyear": "201312",
    "year": "2013",
    "fractiondate": "2013.9589",
    "eventcode": "173",
    "quadclass": "4",
    "nummentions": "8",
    "numsources": "1",
    "numarticles": "8",
    "avgtone": "0.546448087431694",
    "sourceurl": "http://www.suntimes.com/news/metro/24492947-418/man-charged-in-fatal-shooting-of-12-year-old-in-2012.html",
    "feature_id": "418736",
    "feature_name": "South Chicago",
    "state_alpha": "IL",
    "county_name": "Cook",
    "county_numeric": "031",
    "prim_lat_dec": "41.7228",
    "prim_long_dec": "-87.5364",
    "elev_in_m": "180",
    "elev_in_ft": "591",
    "lat": 41.7228,
    "long": -87.5364
  },
  {
    "globaleventid": "280383210",
    "sqldate": "20131220",
    "monthyear": "201312",
    "year": "2013",
    "fractiondate": "2013.9589",
    "eventcode": "193",
    "quadclass": "4",
    "nummentions": "10",
    "numsources": "1",
    "numarticles": "10",
    "avgtone": "1.83727034120735",
    "sourceurl": "http://www.miamiherald.com/2013/12/20/3829519/gaza-official-israeli-fire-kills.html",
    "feature_id": "295004",
    "feature_name": "Miami",
    "state_alpha": "FL",
    "county_name": "Miami-Dade",
    "county_numeric": "086",
    "prim_lat_dec": "25.7743",
    "prim_long_dec": "-80.1937",
    "elev_in_m": "2",
    "elev_in_ft": "7",
    "lat": 25.7743,
    "long": -80.1937
  },
  {
    "globaleventid": "280382946",
    "sqldate": "20131220",
    "monthyear": "201312",
    "year": "2013",
    "fractiondate": "2013.9589",
    "eventcode": "138",
    "quadclass": "3",
    "nummentions": "2",
    "numsources": "1",
    "numarticles": "2",
    "avgtone": "3.50467289719626",
    "sourceurl": "http://www.jewishjournal.com/thewideangle/item/facts_and_government_openness_triumph",
    "feature_id": "1662328",
    "feature_name": "Los Angeles",
    "state_alpha": "CA",
    "county_name": "Los Angeles",
    "county_numeric": "037",
    "prim_lat_dec": "34.0522",
    "prim_long_dec": "-118.244",
    "elev_in_m": "89",
    "elev_in_ft": "292",
    "lat": 34.0522,
    "long": -118.244
  },
  {
    "globaleventid": "280382787",
    "sqldate": "20131220",
    "monthyear": "201312",
    "year": "2013",
    "fractiondate": "2013.9589",
    "eventcode": "190",
    "quadclass": "4",
    "nummentions": "2",
    "numsources": "2",
    "numarticles": "2",
    "avgtone": "3.96627971254837",
    "sourceurl": "http://www.americanthinker.com/blog/2013/12/senate_moving_ahead_with_new_iran_sanctions.html",
    "feature_id": "531871",
    "feature_name": "Washington",
    "state_alpha": "DC",
    "county_name": "District of Columbia",
    "county_numeric": "001",
    "prim_lat_dec": "38.8951",
    "prim_long_dec": "-77.0364",
    "elev_in_m": "7",
    "elev_in_ft": "23",
    "lat": 38.8951,
    "long": -77.0364
  },
  {
    "globaleventid": "280382205",
    "sqldate": "20131220",
    "monthyear": "201312",
    "year": "2013",
    "fractiondate": "2013.9589",
    "eventcode": "193",
    "quadclass": "4",
    "nummentions": "6",
    "numsources": "3",
    "numarticles": "6",
    "avgtone": "0.273672687465791",
    "sourceurl": "http://www.einnews.com/pr_news/181976367/u-s-army-chief-of-staff-general-ray-odierno-to-speak-at-national-press-club-jan-7",
    "feature_id": "531871",
    "feature_name": "Washington",
    "state_alpha": "DC",
    "county_name": "District of Columbia",
    "county_numeric": "001",
    "prim_lat_dec": "38.8951",
    "prim_long_dec": "-77.0364",
    "elev_in_m": "7",
    "elev_in_ft": "23",
    "lat": 38.8951,
    "long": -77.0364
  },
  {
    "globaleventid": "280382087",
    "sqldate": "20131220",
    "monthyear": "201312",
    "year": "2013",
    "fractiondate": "2013.9589",
    "eventcode": "190",
    "quadclass": "4",
    "nummentions": "4",
    "numsources": "3",
    "numarticles": "4",
    "avgtone": "1.64939798509296",
    "sourceurl": "http://www.military.com/daily-news/2013/12/20/5-of-6-killed-in-black-hawk-crash-from-fort-riley.html?comp=700001075741&rank=3",
    "feature_id": "1019610",
    "feature_name": "Charlotte",
    "state_alpha": "NC",
    "county_name": "Mecklenburg",
    "county_numeric": "119",
    "prim_lat_dec": "35.2271",
    "prim_long_dec": "-80.8431",
    "elev_in_m": "232",
    "elev_in_ft": "761",
    "lat": 35.2271,
    "long": -80.8431
  },
  {
    "globaleventid": "280382084",
    "sqldate": "20131220",
    "monthyear": "201312",
    "year": "2013",
    "fractiondate": "2013.9589",
    "eventcode": "190",
    "quadclass": "4",
    "nummentions": "3",
    "numsources": "2",
    "numarticles": "3",
    "avgtone": "1.62448466977912",
    "sourceurl": "http://www.military.com/daily-news/2013/12/20/5-of-6-killed-in-black-hawk-crash-from-fort-riley.html?comp=700001075741&rank=3",
    "feature_id": "531871",
    "feature_name": "Washington",
    "state_alpha": "DC",
    "county_name": "District of Columbia",
    "county_numeric": "001",
    "prim_lat_dec": "38.8951",
    "prim_long_dec": "-77.0364",
    "elev_in_m": "7",
    "elev_in_ft": "23",
    "lat": 38.8951,
    "long": -77.0364
  },
  {
    "globaleventid": "280382083",
    "sqldate": "20131220",
    "monthyear": "201312",
    "year": "2013",
    "fractiondate": "2013.9589",
    "eventcode": "190",
    "quadclass": "4",
    "nummentions": "8",
    "numsources": "4",
    "numarticles": "8",
    "avgtone": "1.6487804571807",
    "sourceurl": "http://www.military.com/daily-news/2013/12/20/5-of-6-killed-in-black-hawk-crash-from-fort-riley.html?comp=700001075741&rank=3",
    "feature_id": "1019610",
    "feature_name": "Charlotte",
    "state_alpha": "NC",
    "county_name": "Mecklenburg",
    "county_numeric": "119",
    "prim_lat_dec": "35.2271",
    "prim_long_dec": "-80.8431",
    "elev_in_m": "232",
    "elev_in_ft": "761",
    "lat": 35.2271,
    "long": -80.8431
  },
  {
    "globaleventid": "280381975",
    "sqldate": "20131220",
    "monthyear": "201312",
    "year": "2013",
    "fractiondate": "2013.9589",
    "eventcode": "193",
    "quadclass": "4",
    "nummentions": "10",
    "numsources": "2",
    "numarticles": "10",
    "avgtone": "0.0",
    "sourceurl": "http://news.yahoo.com/u-army-chief-staff-general-ray-odierno-speak-172100124.html",
    "feature_id": "531871",
    "feature_name": "Washington",
    "state_alpha": "DC",
    "county_name": "District of Columbia",
    "county_numeric": "001",
    "prim_lat_dec": "38.8951",
    "prim_long_dec": "-77.0364",
    "elev_in_m": "7",
    "elev_in_ft": "23",
    "lat": 38.8951,
    "long": -77.0364
  },
  {
    "globaleventid": "280381778",
    "sqldate": "20131220",
    "monthyear": "201312",
    "year": "2013",
    "fractiondate": "2013.9589",
    "eventcode": "163",
    "quadclass": "4",
    "nummentions": "5",
    "numsources": "5",
    "numarticles": "5",
    "avgtone": "3.39527264565087",
    "sourceurl": "http://zeenews.india.com/news/world/congress-passes-us-defence-bill-obama-to-sign_898175.html",
    "feature_id": "531871",
    "feature_name": "Washington",
    "state_alpha": "DC",
    "county_name": "District of Columbia",
    "county_numeric": "001",
    "prim_lat_dec": "38.8951",
    "prim_long_dec": "-77.0364",
    "elev_in_m": "7",
    "elev_in_ft": "23",
    "lat": 38.8951,
    "long": -77.0364
  },
  {
    "globaleventid": "280381664",
    "sqldate": "20131220",
    "monthyear": "201312",
    "year": "2013",
    "fractiondate": "2013.9589",
    "eventcode": "173",
    "quadclass": "4",
    "nummentions": "10",
    "numsources": "1",
    "numarticles": "10",
    "avgtone": "2.68595041322314",
    "sourceurl": "http://news.yahoo.com/u-senate-makes-move-toward-vote-iran-sanctions-215506471.html",
    "feature_id": "531871",
    "feature_name": "Washington",
    "state_alpha": "DC",
    "county_name": "District of Columbia",
    "county_numeric": "001",
    "prim_lat_dec": "38.8951",
    "prim_long_dec": "-77.0364",
    "elev_in_m": "7",
    "elev_in_ft": "23",
    "lat": 38.8951,
    "long": -77.0364
  },
  {
    "globaleventid": "280381641",
    "sqldate": "20131220",
    "monthyear": "201312",
    "year": "2013",
    "fractiondate": "2013.9589",
    "eventcode": "173",
    "quadclass": "4",
    "nummentions": "2",
    "numsources": "1",
    "numarticles": "2",
    "avgtone": "3.32699619771863",
    "sourceurl": "http://www.sfgate.com/opinion/article/Imprisoned-in-Iran-for-the-greater-good-Really-5082579.php",
    "feature_id": "277566",
    "feature_name": "Oakland",
    "state_alpha": "CA",
    "county_name": "Alameda",
    "county_numeric": "001",
    "prim_lat_dec": "37.8044",
    "prim_long_dec": "-122.271",
    "elev_in_m": "13",
    "elev_in_ft": "43",
    "lat": 37.8044,
    "long": -122.271
  },
  {
    "globaleventid": "280381635",
    "sqldate": "20131220",
    "monthyear": "201312",
    "year": "2013",
    "fractiondate": "2013.9589",
    "eventcode": "130",
    "quadclass": "3",
    "nummentions": "2",
    "numsources": "1",
    "numarticles": "2",
    "avgtone": "4.51745379876797",
    "sourceurl": "http://english.farsnews.com/newstext.aspx?nn=13920929000601",
    "feature_id": "531871",
    "feature_name": "Washington",
    "state_alpha": "DC",
    "county_name": "District of Columbia",
    "county_numeric": "001",
    "prim_lat_dec": "38.8951",
    "prim_long_dec": "-77.0364",
    "elev_in_m": "7",
    "elev_in_ft": "23",
    "lat": 38.8951,
    "long": -77.0364
  },
  {
    "globaleventid": "280381552",
    "sqldate": "20131220",
    "monthyear": "201312",
    "year": "2013",
    "fractiondate": "2013.9589",
    "eventcode": "110",
    "quadclass": "3",
    "nummentions": "2",
    "numsources": "1",
    "numarticles": "2",
    "avgtone": "3.53982300884956",
    "sourceurl": "http://www.malaysiasun.com/index.php/sid/219235892/scat/5e8a9e9456185a7e/ht/Hershey-enters-largest-acquisition-deal-in-China",
    "feature_id": "531871",
    "feature_name": "Washington",
    "state_alpha": "DC",
    "county_name": "District of Columbia",
    "county_numeric": "001",
    "prim_lat_dec": "38.8951",
    "prim_long_dec": "-77.0364",
    "elev_in_m": "7",
    "elev_in_ft": "23",
    "lat": 38.8951,
    "long": -77.0364
  },
  {
    "globaleventid": "280381262",
    "sqldate": "20131220",
    "monthyear": "201312",
    "year": "2013",
    "fractiondate": "2013.9589",
    "eventcode": "138",
    "quadclass": "3",
    "nummentions": "10",
    "numsources": "1",
    "numarticles": "10",
    "avgtone": "2.05696202531646",
    "sourceurl": "http://www.stripes.com/news/middle-east/iran-threatens-retaliation-for-senate-s-proposed-new-sanctions-1.258649",
    "feature_id": "531871",
    "feature_name": "Washington",
    "state_alpha": "DC",
    "county_name": "District of Columbia",
    "county_numeric": "001",
    "prim_lat_dec": "38.8951",
    "prim_long_dec": "-77.0364",
    "elev_in_m": "7",
    "elev_in_ft": "23",
    "lat": 38.8951,
    "long": -77.0364
  },
  {
    "globaleventid": "280380890",
    "sqldate": "20131220",
    "monthyear": "201312",
    "year": "2013",
    "fractiondate": "2013.9589",
    "eventcode": "112",
    "quadclass": "3",
    "nummentions": "5",
    "numsources": "1",
    "numarticles": "5",
    "avgtone": "2.38568588469185",
    "sourceurl": "http://thepeninsulaqatar.com/index.php/views/editorial/265298/saving-the-deal",
    "feature_id": "531871",
    "feature_name": "Washington",
    "state_alpha": "DC",
    "county_name": "District of Columbia",
    "county_numeric": "001",
    "prim_lat_dec": "38.8951",
    "prim_long_dec": "-77.0364",
    "elev_in_m": "7",
    "elev_in_ft": "23",
    "lat": 38.8951,
    "long": -77.0364
  },
  {
    "globaleventid": "280380645",
    "sqldate": "20131220",
    "monthyear": "201312",
    "year": "2013",
    "fractiondate": "2013.9589",
    "eventcode": "1241",
    "quadclass": "3",
    "nummentions": "2",
    "numsources": "1",
    "numarticles": "2",
    "avgtone": "2.29508196721311",
    "sourceurl": "http://www.miamiherald.com/2013/12/20/3829161/irish-right-to-die-campaigner.html",
    "feature_id": "295004",
    "feature_name": "Miami",
    "state_alpha": "FL",
    "county_name": "Miami-Dade",
    "county_numeric": "086",
    "prim_lat_dec": "25.7743",
    "prim_long_dec": "-80.1937",
    "elev_in_m": "2",
    "elev_in_ft": "7",
    "lat": 25.7743,
    "long": -80.1937
  },
  {
    "globaleventid": "280380616",
    "sqldate": "20131220",
    "monthyear": "201312",
    "year": "2013",
    "fractiondate": "2013.9589",
    "eventcode": "130",
    "quadclass": "3",
    "nummentions": "12",
    "numsources": "2",
    "numarticles": "12",
    "avgtone": "2.83654834193084",
    "sourceurl": "http://www.npr.org/2013/12/20/255567475/shop-on-the-web-or-in-the-store-each-has-risks?ft=1&f=1003",
    "feature_id": "531871",
    "feature_name": "Washington",
    "state_alpha": "DC",
    "county_name": "District of Columbia",
    "county_numeric": "001",
    "prim_lat_dec": "38.8951",
    "prim_long_dec": "-77.0364",
    "elev_in_m": "7",
    "elev_in_ft": "23",
    "lat": 38.8951,
    "long": -77.0364
  },
  {
    "globaleventid": "280380535",
    "sqldate": "20131220",
    "monthyear": "201312",
    "year": "2013",
    "fractiondate": "2013.9589",
    "eventcode": "173",
    "quadclass": "4",
    "nummentions": "6",
    "numsources": "2",
    "numarticles": "6",
    "avgtone": "0.599264880622317",
    "sourceurl": "http://usnews.nbcnews.com/_news/2013/12/20/21990649-three-more-arrested-in-silk-road-online-drug-market-case?lite",
    "feature_id": "597139",
    "feature_name": "Brooklyn",
    "state_alpha": "MD",
    "county_name": "Baltimore (city)",
    "county_numeric": "510",
    "prim_lat_dec": "39.2304",
    "prim_long_dec": "-76.6022",
    "elev_in_m": "19",
    "elev_in_ft": "62",
    "lat": 39.2304,
    "long": -76.6022
  },
  {
    "globaleventid": "280380534",
    "sqldate": "20131220",
    "monthyear": "201312",
    "year": "2013",
    "fractiondate": "2013.9589",
    "eventcode": "173",
    "quadclass": "4",
    "nummentions": "9",
    "numsources": "3",
    "numarticles": "9",
    "avgtone": "0.600556556936407",
    "sourceurl": "http://au.news.yahoo.com/thewest/business/technology/a/20429525/u-s-charges-three-over-silk-road-marketplace/",
    "feature_id": "1499957",
    "feature_name": "Richmond",
    "state_alpha": "VA",
    "county_name": "Richmond (city)",
    "county_numeric": "760",
    "prim_lat_dec": "37.5538",
    "prim_long_dec": "-77.4603",
    "elev_in_m": "64",
    "elev_in_ft": "210",
    "lat": 37.5538,
    "long": -77.4603
  },
  {
    "globaleventid": "280379778",
    "sqldate": "20131220",
    "monthyear": "201312",
    "year": "2013",
    "fractiondate": "2013.9589",
    "eventcode": "111",
    "quadclass": "3",
    "nummentions": "7",
    "numsources": "2",
    "numarticles": "7",
    "avgtone": "2.19742601640452",
    "sourceurl": "http://www.trust.org/item/20131220193744-n8w2a",
    "feature_id": "531871",
    "feature_name": "Washington",
    "state_alpha": "DC",
    "county_name": "District of Columbia",
    "county_numeric": "001",
    "prim_lat_dec": "38.8951",
    "prim_long_dec": "-77.0364",
    "elev_in_m": "7",
    "elev_in_ft": "23",
    "lat": 38.8951,
    "long": -77.0364
  },
  {
    "globaleventid": "280379679",
    "sqldate": "20131220",
    "monthyear": "201312",
    "year": "2013",
    "fractiondate": "2013.9589",
    "eventcode": "120",
    "quadclass": "3",
    "nummentions": "2",
    "numsources": "1",
    "numarticles": "2",
    "avgtone": "2.42494226327945",
    "sourceurl": "http://www.huffingtonpost.com/prem-m-trivedi/india-us-diplomatic-crisis_b_4473945.html?",
    "feature_id": "531871",
    "feature_name": "Washington",
    "state_alpha": "DC",
    "county_name": "District of Columbia",
    "county_numeric": "001",
    "prim_lat_dec": "38.8951",
    "prim_long_dec": "-77.0364",
    "elev_in_m": "7",
    "elev_in_ft": "23",
    "lat": 38.8951,
    "long": -77.0364
  },
  {
    "globaleventid": "280379294",
    "sqldate": "20131220",
    "monthyear": "201312",
    "year": "2013",
    "fractiondate": "2013.9589",
    "eventcode": "112",
    "quadclass": "3",
    "nummentions": "3",
    "numsources": "3",
    "numarticles": "3",
    "avgtone": "2.8880824025463",
    "sourceurl": "http://www.cambridgetimes.ca/news-story/4281626-in-the-u-s-it-s-the-story-of-a-mistreated-maid-in-india-it-s-about-a-profound-insult/",
    "feature_id": "531871",
    "feature_name": "Washington",
    "state_alpha": "DC",
    "county_name": "District of Columbia",
    "county_numeric": "001",
    "prim_lat_dec": "38.8951",
    "prim_long_dec": "-77.0364",
    "elev_in_m": "7",
    "elev_in_ft": "23",
    "lat": 38.8951,
    "long": -77.0364
  },
  {
    "globaleventid": "280379276",
    "sqldate": "20131220",
    "monthyear": "201312",
    "year": "2013",
    "fractiondate": "2013.9589",
    "eventcode": "1013",
    "quadclass": "3",
    "nummentions": "16",
    "numsources": "2",
    "numarticles": "16",
    "avgtone": "1.64355461949009",
    "sourceurl": "http://www.newsobserver.com/2013/12/20/3474260/indian-diplomats-father-says-maid.html",
    "feature_id": "531871",
    "feature_name": "Washington",
    "state_alpha": "DC",
    "county_name": "District of Columbia",
    "county_numeric": "001",
    "prim_lat_dec": "38.8951",
    "prim_long_dec": "-77.0364",
    "elev_in_m": "7",
    "elev_in_ft": "23",
    "lat": 38.8951,
    "long": -77.0364
  },
  {
    "globaleventid": "280378717",
    "sqldate": "20131220",
    "monthyear": "201312",
    "year": "2013",
    "fractiondate": "2013.9589",
    "eventcode": "190",
    "quadclass": "4",
    "nummentions": "30",
    "numsources": "2",
    "numarticles": "30",
    "avgtone": "2.57005474033175",
    "sourceurl": "http://www.stripes.com/news/us/law-may-speed-transfer-of-guantanamo-prisoners-1.258524",
    "feature_id": "531871",
    "feature_name": "Washington",
    "state_alpha": "DC",
    "county_name": "District of Columbia",
    "county_numeric": "001",
    "prim_lat_dec": "38.8951",
    "prim_long_dec": "-77.0364",
    "elev_in_m": "7",
    "elev_in_ft": "23",
    "lat": 38.8951,
    "long": -77.0364
  },
  {
    "globaleventid": "280378274",
    "sqldate": "20131220",
    "monthyear": "201312",
    "year": "2013",
    "fractiondate": "2013.9589",
    "eventcode": "111",
    "quadclass": "3",
    "nummentions": "10",
    "numsources": "3",
    "numarticles": "10",
    "avgtone": "2.03623661807932",
    "sourceurl": "http://uk.reuters.com/article/2013/12/20/uk-syria-crisis-un-idUKBRE9BI1EX20131220?feedType=RSS&feedName=worldNews&utm_source=feedburner&utm_medium=feed&utm_campaign=Feed%3A+Reuters%2FUKWorldNews+%28News+%2F+UK+%2F+World+News%29",
    "feature_id": "531871",
    "feature_name": "Washington",
    "state_alpha": "DC",
    "county_name": "District of Columbia",
    "county_numeric": "001",
    "prim_lat_dec": "38.8951",
    "prim_long_dec": "-77.0364",
    "elev_in_m": "7",
    "elev_in_ft": "23",
    "lat": 38.8951,
    "long": -77.0364
  },
  {
    "globaleventid": "280377354",
    "sqldate": "20131220",
    "monthyear": "201312",
    "year": "2013",
    "fractiondate": "2013.9589",
    "eventcode": "164",
    "quadclass": "4",
    "nummentions": "3",
    "numsources": "1",
    "numarticles": "3",
    "avgtone": "3.06122448979592",
    "sourceurl": "http://en.europeonline-magazine.eu/us-eu-trade-negotiators-are-satisfied-with-current-round_310375.html",
    "feature_id": "531871",
    "feature_name": "Washington",
    "state_alpha": "DC",
    "county_name": "District of Columbia",
    "county_numeric": "001",
    "prim_lat_dec": "38.8951",
    "prim_long_dec": "-77.0364",
    "elev_in_m": "7",
    "elev_in_ft": "23",
    "lat": 38.8951,
    "long": -77.0364
  },
  {
    "globaleventid": "280376800",
    "sqldate": "20131220",
    "monthyear": "201312",
    "year": "2013",
    "fractiondate": "2013.9589",
    "eventcode": "180",
    "quadclass": "4",
    "nummentions": "1",
    "numsources": "1",
    "numarticles": "1",
    "avgtone": "2.36220472440945",
    "sourceurl": "http://www.vancouverdesi.com/news/despite-outrage-in-india-treatment-of-arrested-diplomat-was-typical-of-us-justice-system/684979/",
    "feature_id": "531871",
    "feature_name": "Washington",
    "state_alpha": "DC",
    "county_name": "District of Columbia",
    "county_numeric": "001",
    "prim_lat_dec": "38.8951",
    "prim_long_dec": "-77.0364",
    "elev_in_m": "7",
    "elev_in_ft": "23",
    "lat": 38.8951,
    "long": -77.0364
  },
  {
    "globaleventid": "280376533",
    "sqldate": "20131220",
    "monthyear": "201312",
    "year": "2013",
    "fractiondate": "2013.9589",
    "eventcode": "141",
    "quadclass": "3",
    "nummentions": "5",
    "numsources": "1",
    "numarticles": "5",
    "avgtone": "3.08988764044944",
    "sourceurl": "http://www.miamiherald.com/2013/12/20/3829455/indonesian-muslims-protest-christmas.html",
    "feature_id": "295004",
    "feature_name": "Miami",
    "state_alpha": "FL",
    "county_name": "Miami-Dade",
    "county_numeric": "086",
    "prim_lat_dec": "25.7743",
    "prim_long_dec": "-80.1937",
    "elev_in_m": "2",
    "elev_in_ft": "7",
    "lat": 25.7743,
    "long": -80.1937
  },
  {
    "globaleventid": "280375976",
    "sqldate": "20131220",
    "monthyear": "201312",
    "year": "2013",
    "fractiondate": "2013.9589",
    "eventcode": "112",
    "quadclass": "3",
    "nummentions": "12",
    "numsources": "2",
    "numarticles": "12",
    "avgtone": "1.73237753882915",
    "sourceurl": "http://news2.onlinenigeria.com/news/general/328310-mandela-memorial-fake-interpreter-in-psychiatric-hospital.html",
    "feature_id": "531871",
    "feature_name": "Washington",
    "state_alpha": "DC",
    "county_name": "District of Columbia",
    "county_numeric": "001",
    "prim_lat_dec": "38.8951",
    "prim_long_dec": "-77.0364",
    "elev_in_m": "7",
    "elev_in_ft": "23",
    "lat": 38.8951,
    "long": -77.0364
  },
  {
    "globaleventid": "280375960",
    "sqldate": "20131220",
    "monthyear": "201312",
    "year": "2013",
    "fractiondate": "2013.9589",
    "eventcode": "141",
    "quadclass": "3",
    "nummentions": "6",
    "numsources": "1",
    "numarticles": "6",
    "avgtone": "0.51150895140665",
    "sourceurl": "http://www.philly.com/philly/blogs/dncrime/Man-dies-after-violent-Overbrook-attack.html",
    "feature_id": "1209052",
    "feature_name": "Philadelphia",
    "state_alpha": "PA",
    "county_name": "Philadelphia",
    "county_numeric": "101",
    "prim_lat_dec": "39.9523",
    "prim_long_dec": "-75.1638",
    "elev_in_m": "14",
    "elev_in_ft": "46",
    "lat": 39.9523,
    "long": -75.1638
  },
  {
    "globaleventid": "280375956",
    "sqldate": "20131220",
    "monthyear": "201312",
    "year": "2013",
    "fractiondate": "2013.9589",
    "eventcode": "193",
    "quadclass": "4",
    "nummentions": "8",
    "numsources": "1",
    "numarticles": "8",
    "avgtone": "6.44329896907216",
    "sourceurl": "http://www.bayoubuzz.com/healthcare/louisiana-medicine/item/568669-flu-shot-drive-in-monroe",
    "feature_id": "554540",
    "feature_name": "Glenwood",
    "state_alpha": "LA",
    "county_name": "Assumption",
    "county_numeric": "007",
    "prim_lat_dec": "29.9516",
    "prim_long_dec": "-91.0437",
    "elev_in_m": "5",
    "elev_in_ft": "16",
    "lat": 29.9516,
    "long": -91.0437
  },
  {
    "globaleventid": "280375954",
    "sqldate": "20131220",
    "monthyear": "201312",
    "year": "2013",
    "fractiondate": "2013.9589",
    "eventcode": "190",
    "quadclass": "4",
    "nummentions": "3",
    "numsources": "2",
    "numarticles": "3",
    "avgtone": "1.1701882520313",
    "sourceurl": "http://www.chicoer.com/news/ci_24763406/suicide-note-found-at-almanor-home-reno-hospital",
    "feature_id": "861100",
    "feature_name": "Reno",
    "state_alpha": "NV",
    "county_name": "Washoe",
    "county_numeric": "031",
    "prim_lat_dec": "39.5296",
    "prim_long_dec": "-119.814",
    "elev_in_m": "1373",
    "elev_in_ft": "4505",
    "lat": 39.5296,
    "long": -119.814
  },
  {
    "globaleventid": "280375952",
    "sqldate": "20131220",
    "monthyear": "201312",
    "year": "2013",
    "fractiondate": "2013.9589",
    "eventcode": "186",
    "quadclass": "4",
    "nummentions": "10",
    "numsources": "2",
    "numarticles": "10",
    "avgtone": "2.41450777202073",
    "sourceurl": "http://www.npr.org/blogs/thetwo-way/2013/12/20/255871625/man-who-shot-reagan-allowed-longer-stays-out-of-mental-hospital?ft=1&f=1070",
    "feature_id": "1498551",
    "feature_name": "Williamsburg",
    "state_alpha": "VA",
    "county_name": "Williamsburg (city)",
    "county_numeric": "830",
    "prim_lat_dec": "37.2707",
    "prim_long_dec": "-76.7075",
    "elev_in_m": "26",
    "elev_in_ft": "85",
    "lat": 37.2707,
    "long": -76.7075
  },
  {
    "globaleventid": "280375945",
    "sqldate": "20131220",
    "monthyear": "201312",
    "year": "2013",
    "fractiondate": "2013.9589",
    "eventcode": "173",
    "quadclass": "4",
    "nummentions": "8",
    "numsources": "1",
    "numarticles": "8",
    "avgtone": "2.5",
    "sourceurl": "http://www.npr.org/blogs/thetwo-way/2013/12/20/255871625/man-who-shot-reagan-allowed-longer-stays-out-of-mental-hospital?ft=1&f=1070",
    "feature_id": "1498551",
    "feature_name": "Williamsburg",
    "state_alpha": "VA",
    "county_name": "Williamsburg (city)",
    "county_numeric": "830",
    "prim_lat_dec": "37.2707",
    "prim_long_dec": "-76.7075",
    "elev_in_m": "26",
    "elev_in_ft": "85",
    "lat": 37.2707,
    "long": -76.7075
  },
  {
    "globaleventid": "280375944",
    "sqldate": "20131220",
    "monthyear": "201312",
    "year": "2013",
    "fractiondate": "2013.9589",
    "eventcode": "173",
    "quadclass": "4",
    "nummentions": "4",
    "numsources": "1",
    "numarticles": "4",
    "avgtone": "0.0",
    "sourceurl": "http://hosted.ap.org/dynamic/stories/O/OR_FAIRVIEW_OFFICER_SHOOTING_WAOL-?SITE=OHCIN&SECTION=HOME&TEMPLATE=DEFAULT",
    "feature_id": "531871",
    "feature_name": "Washington",
    "state_alpha": "DC",
    "county_name": "District of Columbia",
    "county_numeric": "001",
    "prim_lat_dec": "38.8951",
    "prim_long_dec": "-77.0364",
    "elev_in_m": "7",
    "elev_in_ft": "23",
    "lat": 38.8951,
    "long": -77.0364
  }
]