[
  {
    "globaleventid": 263189842,
    "sqldate": 20130813,
    "monthyear": 201308,
    "year": 2013,
    "fractiondate": "2013.611",
    "eventcode": 190,
    "quadclass": 4,
    "nummentions": 1,
    "numsources": 1,
    "numarticles": 1,
    "avgtone": "0.387596899224806",
    "sourceurl": "http://mdcoastdispatch.com/2013/08/13/accused-killer-will-not-be-tried-in-maryland/",
    "feature_id": "214319",
    "feature_name": "Millsboro",
    "state_alpha": "DE",
    "county_name": "Sussex",
    "county_numeric": "005",
    "prim_lat_dec": "38.5915023",
    "prim_long_dec": "-75.2913018",
    "elev_in_m": "7",
    "elev_in_ft": "23",
    "lat": 38.5915023,
    "long": -75.2913018
  },
  {
    "globaleventid": 263189841,
    "sqldate": 20130813,
    "monthyear": 201308,
    "year": 2013,
    "fractiondate": "2013.611",
    "eventcode": 190,
    "quadclass": 4,
    "nummentions": 1,
    "numsources": 1,
    "numarticles": 1,
    "avgtone": "0.387596899224806",
    "sourceurl": "http://mdcoastdispatch.com/2013/08/13/accused-killer-will-not-be-tried-in-maryland/",
    "feature_id": "214319",
    "feature_name": "Millsboro",
    "state_alpha": "DE",
    "county_name": "Sussex",
    "county_numeric": "005",
    "prim_lat_dec": "38.5915023",
    "prim_long_dec": "-75.2913018",
    "elev_in_m": "7",
    "elev_in_ft": "23",
    "lat": 38.5915023,
    "long": -75.2913018
  },
  {
    "globaleventid": 263189834,
    "sqldate": 20130813,
    "monthyear": 201308,
    "year": 2013,
    "fractiondate": "2013.611",
    "eventcode": 190,
    "quadclass": 4,
    "nummentions": 14,
    "numsources": 7,
    "numarticles": 14,
    "avgtone": "0.850187057088337",
    "sourceurl": "http://news.findlaw.com/apnews/9e368927b12e4e2480a3f0b9d00bb2d6&c=W6sUyHn1V9tnzhKVg_hhsFSbAcHTNfFrk6RKSH2rTrw&mkt=en-us",
    "feature_id": "617565",
    "feature_name": "Boston",
    "state_alpha": "MA",
    "county_name": "Suffolk",
    "county_numeric": "025",
    "prim_lat_dec": "42.3584308",
    "prim_long_dec": "-71.0597732",
    "elev_in_m": "14",
    "elev_in_ft": "46",
    "lat": 42.3584308,
    "long": -71.0597732
  },
  {
    "globaleventid": 263189833,
    "sqldate": 20130813,
    "monthyear": 201308,
    "year": 2013,
    "fractiondate": "2013.611",
    "eventcode": 190,
    "quadclass": 4,
    "nummentions": 14,
    "numsources": 7,
    "numarticles": 14,
    "avgtone": "0.850187057088337",
    "sourceurl": "http://news.findlaw.com/apnews/9e368927b12e4e2480a3f0b9d00bb2d6&c=W6sUyHn1V9tnzhKVg_hhsFSbAcHTNfFrk6RKSH2rTrw&mkt=en-us",
    "feature_id": "612854",
    "feature_name": "Winter Hill",
    "state_alpha": "MA",
    "county_name": "Middlesex",
    "county_numeric": "017",
    "prim_lat_dec": "42.39593",
    "prim_long_dec": "-71.0989412",
    "elev_in_m": "36",
    "elev_in_ft": "118",
    "lat": 42.39593,
    "long": -71.0989412
  },
  {
    "globaleventid": 263189832,
    "sqldate": 20130813,
    "monthyear": 201308,
    "year": 2013,
    "fractiondate": "2013.611",
    "eventcode": 190,
    "quadclass": 4,
    "nummentions": 4,
    "numsources": 1,
    "numarticles": 4,
    "avgtone": "0.641025641025641",
    "sourceurl": "http://www.wdrb.com/story/23122967/100000-bond-set-for-two-teens-charged-with-murdering-sellersburg-man",
    "feature_id": "449730",
    "feature_name": "Sellersburg",
    "state_alpha": "IN",
    "county_name": "Clark",
    "county_numeric": "019",
    "prim_lat_dec": "38.3981216",
    "prim_long_dec": "-85.754964",
    "elev_in_m": "148",
    "elev_in_ft": "486",
    "lat": 38.3981216,
    "long": -85.754964
  },
  {
    "globaleventid": 263189830,
    "sqldate": 20130813,
    "monthyear": 201308,
    "year": 2013,
    "fractiondate": "2013.611",
    "eventcode": 190,
    "quadclass": 4,
    "nummentions": 6,
    "numsources": 1,
    "numarticles": 6,
    "avgtone": "1.38461538461538",
    "sourceurl": "http://www.recordonline.com/apps/pbcs.dll/article?AID=/20130813/NEWS/308130334/-1/NEWS&c=CMmwMvHRyTAmvQFEuq3Db8RYQhFeYR7kVR7b52kMwFg&mkt=en-us",
    "feature_id": "287080",
    "feature_name": "Monticello",
    "state_alpha": "FL",
    "county_name": "Jefferson",
    "county_numeric": "065",
    "prim_lat_dec": "30.5452022",
    "prim_long_dec": "-83.8701636",
    "elev_in_m": "71",
    "elev_in_ft": "233",
    "lat": 30.5452022,
    "long": -83.8701636
  },
  {
    "globaleventid": 263189829,
    "sqldate": 20130813,
    "monthyear": 201308,
    "year": 2013,
    "fractiondate": "2013.611",
    "eventcode": 190,
    "quadclass": 4,
    "nummentions": 2,
    "numsources": 1,
    "numarticles": 2,
    "avgtone": "1.32262635805385",
    "sourceurl": "http://www.sunjournal.com/news/nation/2013/08/12/jury-finds-whitey-bulger-guilty-racketeering-charg/1406869",
    "feature_id": "617565",
    "feature_name": "Boston",
    "state_alpha": "MA",
    "county_name": "Suffolk",
    "county_numeric": "025",
    "prim_lat_dec": "42.3584308",
    "prim_long_dec": "-71.0597732",
    "elev_in_m": "14",
    "elev_in_ft": "46",
    "lat": 42.3584308,
    "long": -71.0597732
  },
  {
    "globaleventid": 263189828,
    "sqldate": 20130813,
    "monthyear": 201308,
    "year": 2013,
    "fractiondate": "2013.611",
    "eventcode": 190,
    "quadclass": 4,
    "nummentions": 2,
    "numsources": 1,
    "numarticles": 2,
    "avgtone": "1.32262635805385",
    "sourceurl": "http://www.sunjournal.com/news/nation/2013/08/12/jury-finds-whitey-bulger-guilty-racketeering-charg/1406869",
    "feature_id": "1652792",
    "feature_name": "Santa Monica",
    "state_alpha": "CA",
    "county_name": "Los Angeles",
    "county_numeric": "037",
    "prim_lat_dec": "34.0194543",
    "prim_long_dec": "-118.4911912",
    "elev_in_m": "32",
    "elev_in_ft": "105",
    "lat": 34.0194543,
    "long": -118.4911912
  },
  {
    "globaleventid": 263189824,
    "sqldate": 20130813,
    "monthyear": 201308,
    "year": 2013,
    "fractiondate": "2013.611",
    "eventcode": 1821,
    "quadclass": 4,
    "nummentions": 8,
    "numsources": 1,
    "numarticles": 8,
    "avgtone": "0.0",
    "sourceurl": "http://www.ksfy.com/story/23116733/sioux-falls-man-sentenced-for-raping-six-year-old",
    "feature_id": "1267670",
    "feature_name": "Sioux Falls",
    "state_alpha": "SD",
    "county_name": "Minnehaha",
    "county_numeric": "099",
    "prim_lat_dec": "43.5499749",
    "prim_long_dec": "-96.700327",
    "elev_in_m": "449",
    "elev_in_ft": "1473",
    "lat": 43.5499749,
    "long": -96.700327
  },
  {
    "globaleventid": 263189818,
    "sqldate": 20130813,
    "monthyear": 201308,
    "year": 2013,
    "fractiondate": "2013.611",
    "eventcode": 180,
    "quadclass": 4,
    "nummentions": 2,
    "numsources": 1,
    "numarticles": 2,
    "avgtone": "2.30263157894737",
    "sourceurl": "http://newyork.cbslocal.com/2013/08/13/da-new-rochelle-counselor-charged-with-raping-patient/",
    "feature_id": "970901",
    "feature_name": "Westchester",
    "state_alpha": "NY",
    "county_name": "Bronx",
    "county_numeric": "005",
    "prim_lat_dec": "40.84722",
    "prim_long_dec": "-73.85528",
    "elev_in_m": "20",
    "elev_in_ft": "66",
    "lat": 40.84722,
    "long": -73.85528
  },
  {
    "globaleventid": 263189817,
    "sqldate": 20130813,
    "monthyear": 201308,
    "year": 2013,
    "fractiondate": "2013.611",
    "eventcode": 180,
    "quadclass": 4,
    "nummentions": 4,
    "numsources": 1,
    "numarticles": 4,
    "avgtone": "2.30263157894737",
    "sourceurl": "http://newyork.cbslocal.com/2013/08/13/da-new-rochelle-counselor-charged-with-raping-patient/",
    "feature_id": "958451",
    "feature_name": "New Rochelle",
    "state_alpha": "NY",
    "county_name": "Westchester",
    "county_numeric": "119",
    "prim_lat_dec": "40.9114882",
    "prim_long_dec": "-73.7823549",
    "elev_in_m": "26",
    "elev_in_ft": "85",
    "lat": 40.9114882,
    "long": -73.7823549
  },
  {
    "globaleventid": 263189816,
    "sqldate": 20130813,
    "monthyear": 201308,
    "year": 2013,
    "fractiondate": "2013.611",
    "eventcode": 180,
    "quadclass": 4,
    "nummentions": 2,
    "numsources": 1,
    "numarticles": 2,
    "avgtone": "2.30263157894737",
    "sourceurl": "http://newyork.cbslocal.com/2013/08/13/da-new-rochelle-counselor-charged-with-raping-patient/",
    "feature_id": "970901",
    "feature_name": "Westchester",
    "state_alpha": "NY",
    "county_name": "Bronx",
    "county_numeric": "005",
    "prim_lat_dec": "40.84722",
    "prim_long_dec": "-73.85528",
    "elev_in_m": "20",
    "elev_in_ft": "66",
    "lat": 40.84722,
    "long": -73.85528
  },
  {
    "globaleventid": 263189815,
    "sqldate": 20130813,
    "monthyear": 201308,
    "year": 2013,
    "fractiondate": "2013.611",
    "eventcode": 180,
    "quadclass": 4,
    "nummentions": 2,
    "numsources": 1,
    "numarticles": 2,
    "avgtone": "2.30263157894737",
    "sourceurl": "http://newyork.cbslocal.com/2013/08/13/da-new-rochelle-counselor-charged-with-raping-patient/",
    "feature_id": "958451",
    "feature_name": "New Rochelle",
    "state_alpha": "NY",
    "county_name": "Westchester",
    "county_numeric": "119",
    "prim_lat_dec": "40.9114882",
    "prim_long_dec": "-73.7823549",
    "elev_in_m": "26",
    "elev_in_ft": "85",
    "lat": 40.9114882,
    "long": -73.7823549
  },
  {
    "globaleventid": 263189812,
    "sqldate": 20130813,
    "monthyear": 201308,
    "year": 2013,
    "fractiondate": "2013.611",
    "eventcode": 173,
    "quadclass": 4,
    "nummentions": 2,
    "numsources": 1,
    "numarticles": 2,
    "avgtone": "2.77777777777778",
    "sourceurl": "http://www.stowetoday.com/article_cf8abad6-0458-11e3-91fe-0019bb2963f4.html",
    "feature_id": "1457955",
    "feature_name": "Hyde Park",
    "state_alpha": "VT",
    "county_name": "Lamoille",
    "county_numeric": "015",
    "prim_lat_dec": "44.5939405",
    "prim_long_dec": "-72.6165053",
    "elev_in_m": "203",
    "elev_in_ft": "666",
    "lat": 44.5939405,
    "long": -72.6165053
  },
  {
    "globaleventid": 263189801,
    "sqldate": 20130813,
    "monthyear": 201308,
    "year": 2013,
    "fractiondate": "2013.611",
    "eventcode": 173,
    "quadclass": 4,
    "nummentions": 1,
    "numsources": 1,
    "numarticles": 1,
    "avgtone": "3.1021897810219",
    "sourceurl": "http://blogs.ajc.com/news-to-me/2013/08/13/beanie-babies/&c=iQC57H_-IgKO5H6jBVf49wJWv_N_jBV6ozFTzTxP6yE&mkt=en-us/",
    "feature_id": "1675440",
    "feature_name": "Rochester Hills",
    "state_alpha": "MI",
    "county_name": "Oakland",
    "county_numeric": "125",
    "prim_lat_dec": "42.6583661",
    "prim_long_dec": "-83.1499322",
    "elev_in_m": "250",
    "elev_in_ft": "820",
    "lat": 42.6583661,
    "long": -83.1499322
  },
  {
    "globaleventid": 263189791,
    "sqldate": 20130813,
    "monthyear": 201308,
    "year": 2013,
    "fractiondate": "2013.611",
    "eventcode": 173,
    "quadclass": 4,
    "nummentions": 30,
    "numsources": 2,
    "numarticles": 30,
    "avgtone": "1.62022443575842",
    "sourceurl": "http://www.usatoday.com/story/news/nation/2013/08/13/ny-nanny-deaths/2649421/",
    "feature_id": "971945",
    "feature_name": "Manhattan",
    "state_alpha": "NY",
    "county_name": "New York",
    "county_numeric": "061",
    "prim_lat_dec": "40.7834345",
    "prim_long_dec": "-73.9662495",
    "elev_in_m": "35",
    "elev_in_ft": "115",
    "lat": 40.7834345,
    "long": -73.9662495
  },
  {
    "globaleventid": 263189790,
    "sqldate": 20130813,
    "monthyear": 201308,
    "year": 2013,
    "fractiondate": "2013.611",
    "eventcode": 173,
    "quadclass": 4,
    "nummentions": 4,
    "numsources": 1,
    "numarticles": 4,
    "avgtone": "2.30263157894737",
    "sourceurl": "http://newyork.cbslocal.com/2013/08/13/da-new-rochelle-counselor-charged-with-raping-patient/",
    "feature_id": "970901",
    "feature_name": "Westchester",
    "state_alpha": "NY",
    "county_name": "Bronx",
    "county_numeric": "005",
    "prim_lat_dec": "40.84722",
    "prim_long_dec": "-73.85528",
    "elev_in_m": "20",
    "elev_in_ft": "66",
    "lat": 40.84722,
    "long": -73.85528
  },
  {
    "globaleventid": 263189789,
    "sqldate": 20130813,
    "monthyear": 201308,
    "year": 2013,
    "fractiondate": "2013.611",
    "eventcode": 173,
    "quadclass": 4,
    "nummentions": 6,
    "numsources": 1,
    "numarticles": 6,
    "avgtone": "2.30263157894737",
    "sourceurl": "http://newyork.cbslocal.com/2013/08/13/da-new-rochelle-counselor-charged-with-raping-patient/",
    "feature_id": "958451",
    "feature_name": "New Rochelle",
    "state_alpha": "NY",
    "county_name": "Westchester",
    "county_numeric": "119",
    "prim_lat_dec": "40.9114882",
    "prim_long_dec": "-73.7823549",
    "elev_in_m": "26",
    "elev_in_ft": "85",
    "lat": 40.9114882,
    "long": -73.7823549
  },
  {
    "globaleventid": 263189788,
    "sqldate": 20130813,
    "monthyear": 201308,
    "year": 2013,
    "fractiondate": "2013.611",
    "eventcode": 173,
    "quadclass": 4,
    "nummentions": 32,
    "numsources": 4,
    "numarticles": 20,
    "avgtone": "1.50893742961786",
    "sourceurl": "http://www.philly.com/philly/wires/ap/news/nation/20130813_ap_64dada36fae94e2ca36732a32b54aea2.html",
    "feature_id": "878762",
    "feature_name": "Newark",
    "state_alpha": "NJ",
    "county_name": "Essex",
    "county_numeric": "013",
    "prim_lat_dec": "40.735657",
    "prim_long_dec": "-74.1723667",
    "elev_in_m": "10",
    "elev_in_ft": "33",
    "lat": 40.735657,
    "long": -74.1723667
  },
  {
    "globaleventid": 263189786,
    "sqldate": 20130813,
    "monthyear": 201308,
    "year": 2013,
    "fractiondate": "2013.611",
    "eventcode": 173,
    "quadclass": 4,
    "nummentions": 2,
    "numsources": 1,
    "numarticles": 2,
    "avgtone": "0.72463768115942",
    "sourceurl": "http://www.wdam.com/story/23117219/jones-co-public-defender-arrested-in-moss-point",
    "feature_id": "673878",
    "feature_name": "Moss Point",
    "state_alpha": "MS",
    "county_name": "Jackson",
    "county_numeric": "059",
    "prim_lat_dec": "30.4115881",
    "prim_long_dec": "-88.5344601",
    "elev_in_m": "5",
    "elev_in_ft": "16",
    "lat": 30.4115881,
    "long": -88.5344601
  },
  {
    "globaleventid": 263189783,
    "sqldate": 20130813,
    "monthyear": 201308,
    "year": 2013,
    "fractiondate": "2013.611",
    "eventcode": 173,
    "quadclass": 4,
    "nummentions": 11,
    "numsources": 2,
    "numarticles": 10,
    "avgtone": "0.284090909090909",
    "sourceurl": "http://www.metrowestdailynews.com/news/police_and_fire/x606653142/Boston-man-steals-2-400-worth-of-sunglasses-from-Natick-Mall-store",
    "feature_id": "617565",
    "feature_name": "Boston",
    "state_alpha": "MA",
    "county_name": "Suffolk",
    "county_numeric": "025",
    "prim_lat_dec": "42.3584308",
    "prim_long_dec": "-71.0597732",
    "elev_in_m": "14",
    "elev_in_ft": "46",
    "lat": 42.3584308,
    "long": -71.0597732
  },
  {
    "globaleventid": 263189782,
    "sqldate": 20130813,
    "monthyear": 201308,
    "year": 2013,
    "fractiondate": "2013.611",
    "eventcode": 173,
    "quadclass": 4,
    "nummentions": 6,
    "numsources": 1,
    "numarticles": 6,
    "avgtone": "0.0",
    "sourceurl": "http://www.metrowestdailynews.com/news/police_and_fire/x606653142/Boston-man-steals-2-400-worth-of-sunglasses-from-Natick-Mall-store",
    "feature_id": "617565",
    "feature_name": "Boston",
    "state_alpha": "MA",
    "county_name": "Suffolk",
    "county_numeric": "025",
    "prim_lat_dec": "42.3584308",
    "prim_long_dec": "-71.0597732",
    "elev_in_m": "14",
    "elev_in_ft": "46",
    "lat": 42.3584308,
    "long": -71.0597732
  },
  {
    "globaleventid": 263189781,
    "sqldate": 20130813,
    "monthyear": 201308,
    "year": 2013,
    "fractiondate": "2013.611",
    "eventcode": 173,
    "quadclass": 4,
    "nummentions": 1,
    "numsources": 1,
    "numarticles": 1,
    "avgtone": "0.0",
    "sourceurl": "http://www.metrowestdailynews.com/news/police_and_fire/x606653142/Boston-man-steals-2-400-worth-of-sunglasses-from-Natick-Mall-store",
    "feature_id": "611963",
    "feature_name": "Natick",
    "state_alpha": "MA",
    "county_name": "Middlesex",
    "county_numeric": "017",
    "prim_lat_dec": "42.2834298",
    "prim_long_dec": "-71.3495032",
    "elev_in_m": "53",
    "elev_in_ft": "174",
    "lat": 42.2834298,
    "long": -71.3495032
  },
  {
    "globaleventid": 263189780,
    "sqldate": 20130813,
    "monthyear": 201308,
    "year": 2013,
    "fractiondate": "2013.611",
    "eventcode": 173,
    "quadclass": 4,
    "nummentions": 4,
    "numsources": 1,
    "numarticles": 4,
    "avgtone": "0.0",
    "sourceurl": "http://www.nypost.com/p/news/local/manhattan/ex_librarian_busted_in_connection_nyJ9fgMY09y59It3RkZ6jK",
    "feature_id": "611761",
    "feature_name": "Bedford",
    "state_alpha": "MA",
    "county_name": "Middlesex",
    "county_numeric": "017",
    "prim_lat_dec": "42.4906499",
    "prim_long_dec": "-71.2761686",
    "elev_in_m": "41",
    "elev_in_ft": "135",
    "lat": 42.4906499,
    "long": -71.2761686
  },
  {
    "globaleventid": 263189779,
    "sqldate": 20130813,
    "monthyear": 201308,
    "year": 2013,
    "fractiondate": "2013.611",
    "eventcode": 173,
    "quadclass": 4,
    "nummentions": 6,
    "numsources": 1,
    "numarticles": 6,
    "avgtone": "0.514800514800515",
    "sourceurl": "http://www.bnd.com/2013/08/13/2742277/prosecutors-end-hunt-for-fugitive.html",
    "feature_id": "487744",
    "feature_name": "Bowling Green",
    "state_alpha": "KY",
    "county_name": "Warren",
    "county_numeric": "227",
    "prim_lat_dec": "36.9903199",
    "prim_long_dec": "-86.4436018",
    "elev_in_m": "161",
    "elev_in_ft": "528",
    "lat": 36.9903199,
    "long": -86.4436018
  },
  {
    "globaleventid": 263189778,
    "sqldate": 20130813,
    "monthyear": 201308,
    "year": 2013,
    "fractiondate": "2013.611",
    "eventcode": 173,
    "quadclass": 4,
    "nummentions": 4,
    "numsources": 1,
    "numarticles": 4,
    "avgtone": "0.641025641025641",
    "sourceurl": "http://www.wdrb.com/story/23122967/100000-bond-set-for-two-teens-charged-with-murdering-sellersburg-man",
    "feature_id": "449730",
    "feature_name": "Sellersburg",
    "state_alpha": "IN",
    "county_name": "Clark",
    "county_numeric": "019",
    "prim_lat_dec": "38.3981216",
    "prim_long_dec": "-85.754964",
    "elev_in_m": "148",
    "elev_in_ft": "486",
    "lat": 38.3981216,
    "long": -85.754964
  },
  {
    "globaleventid": 263189777,
    "sqldate": 20130813,
    "monthyear": 201308,
    "year": 2013,
    "fractiondate": "2013.611",
    "eventcode": 173,
    "quadclass": 4,
    "nummentions": 10,
    "numsources": 3,
    "numarticles": 10,
    "avgtone": "1.54193910029974",
    "sourceurl": "http://www.phillyburbs.com/ap/state/nj/nj-archbishop-i-didn-t-know-of-abuse-allegations/article_32de482a-7d5c-5a57-9a90-6d930fcd2413.html",
    "feature_id": "414478",
    "feature_name": "Newark",
    "state_alpha": "IL",
    "county_name": "Kendall",
    "county_numeric": "093",
    "prim_lat_dec": "41.536975",
    "prim_long_dec": "-88.5834068",
    "elev_in_m": "204",
    "elev_in_ft": "669",
    "lat": 41.536975,
    "long": -88.5834068
  },
  {
    "globaleventid": 263189774,
    "sqldate": 20130813,
    "monthyear": 201308,
    "year": 2013,
    "fractiondate": "2013.611",
    "eventcode": 173,
    "quadclass": 4,
    "nummentions": 8,
    "numsources": 1,
    "numarticles": 8,
    "avgtone": "1.28205128205128",
    "sourceurl": "http://www.wetzelchronicle.com/page/content.detail/id/357559/W-Va--AG-s-office-attorney-arrested-in-standoff.html?isap=1&nav=5059",
    "feature_id": "1555667",
    "feature_name": "South Hills",
    "state_alpha": "WV",
    "county_name": "Kanawha",
    "county_numeric": "039",
    "prim_lat_dec": "38.341764",
    "prim_long_dec": "-81.6437347",
    "elev_in_m": "282",
    "elev_in_ft": "925",
    "lat": 38.341764,
    "long": -81.6437347
  },
  {
    "globaleventid": 263189772,
    "sqldate": 20130813,
    "monthyear": 201308,
    "year": 2013,
    "fractiondate": "2013.611",
    "eventcode": 173,
    "quadclass": 4,
    "nummentions": 4,
    "numsources": 1,
    "numarticles": 4,
    "avgtone": "0.927643784786642",
    "sourceurl": "http://www.newsleader.com/viewart/20130813/NEWS01/308130014/Missing-teen-case-suspect-has-long-history",
    "feature_id": "1493513",
    "feature_name": "Ruckersville",
    "state_alpha": "VA",
    "county_name": "Greene",
    "county_numeric": "079",
    "prim_lat_dec": "38.2331873",
    "prim_long_dec": "-78.369175",
    "elev_in_m": "190",
    "elev_in_ft": "623",
    "lat": 38.2331873,
    "long": -78.369175
  },
  {
    "globaleventid": 263189767,
    "sqldate": 20130813,
    "monthyear": 201308,
    "year": 2013,
    "fractiondate": "2013.611",
    "eventcode": 173,
    "quadclass": 4,
    "nummentions": 1,
    "numsources": 1,
    "numarticles": 1,
    "avgtone": "1.03626943005181",
    "sourceurl": "http://www.upi.com/Top_News/US/2013/08/13/Expired-Texas-law-will-allow-infant-killer-to-go-free-in-2018/UPI-20881376407947/",
    "feature_id": "1339058",
    "feature_name": "Kerrville",
    "state_alpha": "TX",
    "county_name": "Kerr",
    "county_numeric": "265",
    "prim_lat_dec": "30.0474332",
    "prim_long_dec": "-99.1403189",
    "elev_in_m": "499",
    "elev_in_ft": "1637",
    "lat": 30.0474332,
    "long": -99.1403189
  },
  {
    "globaleventid": 263189766,
    "sqldate": 20130813,
    "monthyear": 201308,
    "year": 2013,
    "fractiondate": "2013.611",
    "eventcode": 173,
    "quadclass": 4,
    "nummentions": 1,
    "numsources": 1,
    "numarticles": 1,
    "avgtone": "1.03626943005181",
    "sourceurl": "http://www.upi.com/Top_News/US/2013/08/13/Expired-Texas-law-will-allow-infant-killer-to-go-free-in-2018/UPI-20881376407947/",
    "feature_id": "1339058",
    "feature_name": "Kerrville",
    "state_alpha": "TX",
    "county_name": "Kerr",
    "county_numeric": "265",
    "prim_lat_dec": "30.0474332",
    "prim_long_dec": "-99.1403189",
    "elev_in_m": "499",
    "elev_in_ft": "1637",
    "lat": 30.0474332,
    "long": -99.1403189
  },
  {
    "globaleventid": 263189764,
    "sqldate": 20130813,
    "monthyear": 201308,
    "year": 2013,
    "fractiondate": "2013.611",
    "eventcode": 173,
    "quadclass": 4,
    "nummentions": 1,
    "numsources": 1,
    "numarticles": 1,
    "avgtone": "0.927152317880795",
    "sourceurl": "http://pennrecord.com/news/11034-pa-cjd-suspends-indicted-administrative-phila-traffic-court-judge-without-pay",
    "feature_id": "1209052",
    "feature_name": "Philadelphia",
    "state_alpha": "PA",
    "county_name": "Philadelphia",
    "county_numeric": "101",
    "prim_lat_dec": "39.952335",
    "prim_long_dec": "-75.163789",
    "elev_in_m": "14",
    "elev_in_ft": "46",
    "lat": 39.952335,
    "long": -75.163789
  },
  {
    "globaleventid": 263189763,
    "sqldate": 20130813,
    "monthyear": 201308,
    "year": 2013,
    "fractiondate": "2013.611",
    "eventcode": 173,
    "quadclass": 4,
    "nummentions": 11,
    "numsources": 2,
    "numarticles": 11,
    "avgtone": "0.903485644294048",
    "sourceurl": "http://pennrecord.com/news/11034-pa-cjd-suspends-indicted-administrative-phila-traffic-court-judge-without-pay",
    "feature_id": "1209052",
    "feature_name": "Philadelphia",
    "state_alpha": "PA",
    "county_name": "Philadelphia",
    "county_numeric": "101",
    "prim_lat_dec": "39.952335",
    "prim_long_dec": "-75.163789",
    "elev_in_m": "14",
    "elev_in_ft": "46",
    "lat": 39.952335,
    "long": -75.163789
  },
  {
    "globaleventid": 263189762,
    "sqldate": 20130813,
    "monthyear": 201308,
    "year": 2013,
    "fractiondate": "2013.611",
    "eventcode": 173,
    "quadclass": 4,
    "nummentions": 8,
    "numsources": 1,
    "numarticles": 8,
    "avgtone": "0.694444444444444",
    "sourceurl": "http://www.ohio.com/news/ohio-man-sentenced-in-woman-s-murder-body-on-tracks-1.420870",
    "feature_id": "1085476",
    "feature_name": "Miamisburg",
    "state_alpha": "OH",
    "county_name": "Montgomery",
    "county_numeric": "113",
    "prim_lat_dec": "39.6428362",
    "prim_long_dec": "-84.2866083",
    "elev_in_m": "215",
    "elev_in_ft": "705",
    "lat": 39.6428362,
    "long": -84.2866083
  },
  {
    "globaleventid": 263189759,
    "sqldate": 20130813,
    "monthyear": 201308,
    "year": 2013,
    "fractiondate": "2013.611",
    "eventcode": 1723,
    "quadclass": 4,
    "nummentions": 1,
    "numsources": 1,
    "numarticles": 1,
    "avgtone": "3.43580470162749",
    "sourceurl": "http://www.sun-sentinel.com/news/palm-beach/palm-politics-blog/sfl-rental-complex-archstone-10-still-up-for-debate-20130813,0,6395207.story",
    "feature_id": "281485",
    "feature_name": "Delray Beach",
    "state_alpha": "FL",
    "county_name": "Palm Beach",
    "county_numeric": "099",
    "prim_lat_dec": "26.4614625",
    "prim_long_dec": "-80.0728201",
    "elev_in_m": "6",
    "elev_in_ft": "20",
    "lat": 26.4614625,
    "long": -80.0728201
  },
  {
    "globaleventid": 263189758,
    "sqldate": 20130813,
    "monthyear": 201308,
    "year": 2013,
    "fractiondate": "2013.611",
    "eventcode": 1723,
    "quadclass": 4,
    "nummentions": 1,
    "numsources": 1,
    "numarticles": 1,
    "avgtone": "3.43580470162749",
    "sourceurl": "http://www.sun-sentinel.com/news/palm-beach/palm-politics-blog/sfl-rental-complex-archstone-10-still-up-for-debate-20130813,0,6395207.story",
    "feature_id": "281485",
    "feature_name": "Delray Beach",
    "state_alpha": "FL",
    "county_name": "Palm Beach",
    "county_numeric": "099",
    "prim_lat_dec": "26.4614625",
    "prim_long_dec": "-80.0728201",
    "elev_in_m": "6",
    "elev_in_ft": "20",
    "lat": 26.4614625,
    "long": -80.0728201
  },
  {
    "globaleventid": 263189752,
    "sqldate": 20130813,
    "monthyear": 201308,
    "year": 2013,
    "fractiondate": "2013.611",
    "eventcode": 172,
    "quadclass": 4,
    "nummentions": 6,
    "numsources": 1,
    "numarticles": 6,
    "avgtone": "3.65044247787611",
    "sourceurl": "http://www.8newsnow.com/story/23129595/report-nevada-nursing-homes-among-the-worst-in-the-country",
    "feature_id": "860879",
    "feature_name": "Paradise Valley",
    "state_alpha": "NV",
    "county_name": "Humboldt",
    "county_numeric": "013",
    "prim_lat_dec": "41.4935076",
    "prim_long_dec": "-117.5345736",
    "elev_in_m": "1381",
    "elev_in_ft": "4531",
    "lat": 41.4935076,
    "long": -117.5345736
  },
  {
    "globaleventid": 263189751,
    "sqldate": 20130813,
    "monthyear": 201308,
    "year": 2013,
    "fractiondate": "2013.611",
    "eventcode": 172,
    "quadclass": 4,
    "nummentions": 8,
    "numsources": 1,
    "numarticles": 8,
    "avgtone": "6.25439212930429",
    "sourceurl": "http://www.midwestenergynews.com/2013/08/13/qa-alecs-new-tactics-to-weaken-renewable-laws/",
    "feature_id": "531871",
    "feature_name": "Washington",
    "state_alpha": "DC",
    "county_name": "District of Columbia",
    "county_numeric": "001",
    "prim_lat_dec": "38.8951118",
    "prim_long_dec": "-77.0363658",
    "elev_in_m": "7",
    "elev_in_ft": "23",
    "lat": 38.8951118,
    "long": -77.0363658
  },
  {
    "globaleventid": 263189750,
    "sqldate": 20130813,
    "monthyear": 201308,
    "year": 2013,
    "fractiondate": "2013.611",
    "eventcode": 172,
    "quadclass": 4,
    "nummentions": 2,
    "numsources": 1,
    "numarticles": 2,
    "avgtone": "6.25439212930429",
    "sourceurl": "http://www.midwestenergynews.com/2013/08/13/qa-alecs-new-tactics-to-weaken-renewable-laws/",
    "feature_id": "423587",
    "feature_name": "Chicago",
    "state_alpha": "IL",
    "county_name": "Cook",
    "county_numeric": "031",
    "prim_lat_dec": "41.850033",
    "prim_long_dec": "-87.6500523",
    "elev_in_m": "179",
    "elev_in_ft": "587",
    "lat": 41.850033,
    "long": -87.6500523
  },
  {
    "globaleventid": 263189748,
    "sqldate": 20130813,
    "monthyear": 201308,
    "year": 2013,
    "fractiondate": "2013.611",
    "eventcode": 172,
    "quadclass": 4,
    "nummentions": 1,
    "numsources": 1,
    "numarticles": 1,
    "avgtone": "0.763358778625954",
    "sourceurl": "http://www.reviewonline.com/page/content.detail/id/568382/Columbiana-County-Municipal-Court-for-8-13.html?nav=5188",
    "feature_id": "1083984",
    "feature_name": "Fairport Harbor",
    "state_alpha": "OH",
    "county_name": "Lake",
    "county_numeric": "085",
    "prim_lat_dec": "41.7500431",
    "prim_long_dec": "-81.2739916",
    "elev_in_m": "186",
    "elev_in_ft": "610",
    "lat": 41.7500431,
    "long": -81.2739916
  },
  {
    "globaleventid": 263189747,
    "sqldate": 20130813,
    "monthyear": 201308,
    "year": 2013,
    "fractiondate": "2013.611",
    "eventcode": 172,
    "quadclass": 4,
    "nummentions": 6,
    "numsources": 3,
    "numarticles": 6,
    "avgtone": "3.94776209811887",
    "sourceurl": "http://www.mcclatchydc.com/2013/08/13/199238/nc-agrees-to-12-million-settlement.html",
    "feature_id": "1024242",
    "feature_name": "Raleigh",
    "state_alpha": "NC",
    "county_name": "Wake",
    "county_numeric": "183",
    "prim_lat_dec": "35.772096",
    "prim_long_dec": "-78.6386145",
    "elev_in_m": "96",
    "elev_in_ft": "315",
    "lat": 35.772096,
    "long": -78.6386145
  },
  {
    "globaleventid": 263189742,
    "sqldate": 20130813,
    "monthyear": 201308,
    "year": 2013,
    "fractiondate": "2013.611",
    "eventcode": 171,
    "quadclass": 4,
    "nummentions": 2,
    "numsources": 1,
    "numarticles": 2,
    "avgtone": "2.35602094240838",
    "sourceurl": "http://www.news8000.com/news/wisconsin-teen-sentenced-for-killing-his-greatgrandmother/-/326/21440292/-/71f1myz/-/index.html",
    "feature_id": "1573989",
    "feature_name": "Sheboygan",
    "state_alpha": "WI",
    "county_name": "Sheboygan",
    "county_numeric": "117",
    "prim_lat_dec": "43.7508284",
    "prim_long_dec": "-87.71453",
    "elev_in_m": "192",
    "elev_in_ft": "630",
    "lat": 43.7508284,
    "long": -87.71453
  },
  {
    "globaleventid": 263189741,
    "sqldate": 20130813,
    "monthyear": 201308,
    "year": 2013,
    "fractiondate": "2013.611",
    "eventcode": 171,
    "quadclass": 4,
    "nummentions": 8,
    "numsources": 2,
    "numarticles": 8,
    "avgtone": "2.26035167328418",
    "sourceurl": "http://host.madison.com/news/state-and-regional/teen-gets-chance-at-parole-in-wisconsin-killing/article_be71949d-4e0f-5051-a6db-a9607dbed90c.html",
    "feature_id": "1573989",
    "feature_name": "Sheboygan",
    "state_alpha": "WI",
    "county_name": "Sheboygan",
    "county_numeric": "117",
    "prim_lat_dec": "43.7508284",
    "prim_long_dec": "-87.71453",
    "elev_in_m": "192",
    "elev_in_ft": "630",
    "lat": 43.7508284,
    "long": -87.71453
  },
  {
    "globaleventid": 263189738,
    "sqldate": 20130813,
    "monthyear": 201308,
    "year": 2013,
    "fractiondate": "2013.611",
    "eventcode": 160,
    "quadclass": 4,
    "nummentions": 8,
    "numsources": 1,
    "numarticles": 8,
    "avgtone": "2.44530244530245",
    "sourceurl": "http://www.lakewyliepilot.com/2013/08/12/2019491/race-based-claims-thrown-out-in.html",
    "feature_id": "1233775",
    "feature_name": "Lake Wylie",
    "state_alpha": "SC",
    "county_name": "York",
    "county_numeric": "091",
    "prim_lat_dec": "35.108476",
    "prim_long_dec": "-81.0428538",
    "elev_in_m": "179",
    "elev_in_ft": "587",
    "lat": 35.108476,
    "long": -81.0428538
  },
  {
    "globaleventid": 263189736,
    "sqldate": 20130813,
    "monthyear": 201308,
    "year": 2013,
    "fractiondate": "2013.611",
    "eventcode": 130,
    "quadclass": 3,
    "nummentions": 2,
    "numsources": 1,
    "numarticles": 2,
    "avgtone": "1.71288743882545",
    "sourceurl": "http://www.postandcourier.com/article/20130812/PC16/130819842/1009/hearing-today-expected-to-shed-more-light-on-alleged-murder-for-hire-plot-case&source=RSS",
    "feature_id": "508646",
    "feature_name": "Mount Pleasant",
    "state_alpha": "KY",
    "county_name": "Ohio",
    "county_numeric": "183",
    "prim_lat_dec": "37.4111603",
    "prim_long_dec": "-86.7511006",
    "elev_in_m": "174",
    "elev_in_ft": "571",
    "lat": 37.4111603,
    "long": -86.7511006
  },
  {
    "globaleventid": 263189735,
    "sqldate": 20130813,
    "monthyear": 201308,
    "year": 2013,
    "fractiondate": "2013.611",
    "eventcode": 130,
    "quadclass": 3,
    "nummentions": 2,
    "numsources": 1,
    "numarticles": 2,
    "avgtone": "1.71288743882545",
    "sourceurl": "http://www.postandcourier.com/article/20130812/PC16/130819842/1009/hearing-today-expected-to-shed-more-light-on-alleged-murder-for-hire-plot-case&source=RSS",
    "feature_id": "489364",
    "feature_name": "Charleston",
    "state_alpha": "KY",
    "county_name": "Hopkins",
    "county_numeric": "107",
    "prim_lat_dec": "37.2247681",
    "prim_long_dec": "-87.6719504",
    "elev_in_m": "161",
    "elev_in_ft": "528",
    "lat": 37.2247681,
    "long": -87.6719504
  },
  {
    "globaleventid": 263189734,
    "sqldate": 20130813,
    "monthyear": 201308,
    "year": 2013,
    "fractiondate": "2013.611",
    "eventcode": 130,
    "quadclass": 3,
    "nummentions": 4,
    "numsources": 1,
    "numarticles": 4,
    "avgtone": "1.98412698412698",
    "sourceurl": "http://www.washingtonpost.com/local/va-county-takes-168-names-in-after-dark-park-gathering/2013/08/13/a272cd0a-047a-11e3-88d6-d5795fab4637_story.html",
    "feature_id": "1499957",
    "feature_name": "Richmond",
    "state_alpha": "VA",
    "county_name": "Richmond (city)",
    "county_numeric": "760",
    "prim_lat_dec": "37.5537575",
    "prim_long_dec": "-77.4602617",
    "elev_in_m": "64",
    "elev_in_ft": "210",
    "lat": 37.5537575,
    "long": -77.4602617
  },
  {
    "globaleventid": 263189731,
    "sqldate": 20130813,
    "monthyear": 201308,
    "year": 2013,
    "fractiondate": "2013.611",
    "eventcode": 122,
    "quadclass": 3,
    "nummentions": 2,
    "numsources": 1,
    "numarticles": 2,
    "avgtone": "2.45192307692308",
    "sourceurl": "http://cherokeetribune.com/bookmark/23360017",
    "feature_id": "331382",
    "feature_name": "Cherokee",
    "state_alpha": "GA",
    "county_name": "Cherokee",
    "county_numeric": "057",
    "prim_lat_dec": "34.1681526",
    "prim_long_dec": "-84.570765",
    "elev_in_m": "268",
    "elev_in_ft": "879",
    "lat": 34.1681526,
    "long": -84.570765
  },
  {
    "globaleventid": 263189716,
    "sqldate": 20130813,
    "monthyear": 201308,
    "year": 2013,
    "fractiondate": "2013.611",
    "eventcode": 120,
    "quadclass": 3,
    "nummentions": 4,
    "numsources": 1,
    "numarticles": 4,
    "avgtone": "2.30088495575221",
    "sourceurl": "http://www.bostonglobe.com/business/2013/08/12/race-based-claims-thrown-out-paula-deen-lawsuit/9ogxHxkxXvUZBQ4TUYYj3L/story.html",
    "feature_id": "617565",
    "feature_name": "Boston",
    "state_alpha": "MA",
    "county_name": "Suffolk",
    "county_numeric": "025",
    "prim_lat_dec": "42.3584308",
    "prim_long_dec": "-71.0597732",
    "elev_in_m": "14",
    "elev_in_ft": "46",
    "lat": 42.3584308,
    "long": -71.0597732
  },
  {
    "globaleventid": 263189709,
    "sqldate": 20130813,
    "monthyear": 201308,
    "year": 2013,
    "fractiondate": "2013.611",
    "eventcode": 120,
    "quadclass": 3,
    "nummentions": 20,
    "numsources": 2,
    "numarticles": 20,
    "avgtone": "2.06798743236167",
    "sourceurl": "http://www.nzherald.co.nz/world/news/article.cfm?c_id=2&objectid=10912194",
    "feature_id": "958517",
    "feature_name": "Newport",
    "state_alpha": "NY",
    "county_name": "Onondaga",
    "county_numeric": "067",
    "prim_lat_dec": "43.0786778",
    "prim_long_dec": "-76.3285422",
    "elev_in_m": "128",
    "elev_in_ft": "420",
    "lat": 43.0786778,
    "long": -76.3285422
  },
  {
    "globaleventid": 263189706,
    "sqldate": 20130813,
    "monthyear": 201308,
    "year": 2013,
    "fractiondate": "2013.611",
    "eventcode": 120,
    "quadclass": 3,
    "nummentions": 20,
    "numsources": 1,
    "numarticles": 10,
    "avgtone": "1.04712041884817",
    "sourceurl": "http://www.ctpost.com/news/texas/article/Bond-reduction-denied-in-shoe-stabbing-case-4727775.php",
    "feature_id": "1380948",
    "feature_name": "Houston",
    "state_alpha": "TX",
    "county_name": "Harris",
    "county_numeric": "201",
    "prim_lat_dec": "29.7632836",
    "prim_long_dec": "-95.3632715",
    "elev_in_m": "11",
    "elev_in_ft": "36",
    "lat": 29.7632836,
    "long": -95.3632715
  },
  {
    "globaleventid": 263189699,
    "sqldate": 20130813,
    "monthyear": 201308,
    "year": 2013,
    "fractiondate": "2013.611",
    "eventcode": 115,
    "quadclass": 3,
    "nummentions": 4,
    "numsources": 1,
    "numarticles": 4,
    "avgtone": "1.27064803049555",
    "sourceurl": "http://www.heraldsun.com/news/x2119573489/Three-women-NAACP-file-lawsuit-over-voter-I-D",
    "feature_id": "531871",
    "feature_name": "Washington",
    "state_alpha": "DC",
    "county_name": "District of Columbia",
    "county_numeric": "001",
    "prim_lat_dec": "38.8951118",
    "prim_long_dec": "-77.0363658",
    "elev_in_m": "7",
    "elev_in_ft": "23",
    "lat": 38.8951118,
    "long": -77.0363658
  },
  {
    "globaleventid": 263189698,
    "sqldate": 20130813,
    "monthyear": 201308,
    "year": 2013,
    "fractiondate": "2013.611",
    "eventcode": 115,
    "quadclass": 3,
    "nummentions": 1,
    "numsources": 1,
    "numarticles": 1,
    "avgtone": "2.94117647058824",
    "sourceurl": "http://www.inquisitr.com/901434/north-carolina-makes-voter-id-bill-into-law-already-getting-sued/",
    "feature_id": "1005554",
    "feature_name": "Carolina",
    "state_alpha": "NC",
    "county_name": "Gaston",
    "county_numeric": "071",
    "prim_lat_dec": "35.3884665",
    "prim_long_dec": "-81.3714737",
    "elev_in_m": "284",
    "elev_in_ft": "932",
    "lat": 35.3884665,
    "long": -81.3714737
  },
  {
    "globaleventid": 263189697,
    "sqldate": 20130813,
    "monthyear": 201308,
    "year": 2013,
    "fractiondate": "2013.611",
    "eventcode": 115,
    "quadclass": 3,
    "nummentions": 9,
    "numsources": 2,
    "numarticles": 9,
    "avgtone": "3.05345041902242",
    "sourceurl": "http://www.hispanicbusiness.com/2013/8/13/nc_governor_signs_id_law_aclu.htm",
    "feature_id": "1005554",
    "feature_name": "Carolina",
    "state_alpha": "NC",
    "county_name": "Gaston",
    "county_numeric": "071",
    "prim_lat_dec": "35.3884665",
    "prim_long_dec": "-81.3714737",
    "elev_in_m": "284",
    "elev_in_ft": "932",
    "lat": 35.3884665,
    "long": -81.3714737
  },
  {
    "globaleventid": 263189692,
    "sqldate": 20130813,
    "monthyear": 201308,
    "year": 2013,
    "fractiondate": "2013.611",
    "eventcode": 1124,
    "quadclass": 3,
    "nummentions": 6,
    "numsources": 1,
    "numarticles": 6,
    "avgtone": "1.5625",
    "sourceurl": "http://usnews.nbcnews.com/_news/2013/08/13/20007499-juror-we-gave-bulger-benefit-of-the-doubt-on-some-murders?lite",
    "feature_id": "617565",
    "feature_name": "Boston",
    "state_alpha": "MA",
    "county_name": "Suffolk",
    "county_numeric": "025",
    "prim_lat_dec": "42.3584308",
    "prim_long_dec": "-71.0597732",
    "elev_in_m": "14",
    "elev_in_ft": "46",
    "lat": 42.3584308,
    "long": -71.0597732
  },
  {
    "globaleventid": 263189685,
    "sqldate": 20130813,
    "monthyear": 201308,
    "year": 2013,
    "fractiondate": "2013.611",
    "eventcode": 112,
    "quadclass": 3,
    "nummentions": 2,
    "numsources": 1,
    "numarticles": 2,
    "avgtone": "3.1021897810219",
    "sourceurl": "http://blogs.ajc.com/news-to-me/2013/08/13/beanie-babies/&c=iQC57H_-IgKO5H6jBVf49wJWv_N_jBV6ozFTzTxP6yE&mkt=en-us/",
    "feature_id": "1675440",
    "feature_name": "Rochester Hills",
    "state_alpha": "MI",
    "county_name": "Oakland",
    "county_numeric": "125",
    "prim_lat_dec": "42.6583661",
    "prim_long_dec": "-83.1499322",
    "elev_in_m": "250",
    "elev_in_ft": "820",
    "lat": 42.6583661,
    "long": -83.1499322
  },
  {
    "globaleventid": 263189684,
    "sqldate": 20130813,
    "monthyear": 201308,
    "year": 2013,
    "fractiondate": "2013.611",
    "eventcode": 112,
    "quadclass": 3,
    "nummentions": 6,
    "numsources": 1,
    "numarticles": 6,
    "avgtone": "3.1021897810219",
    "sourceurl": "http://blogs.ajc.com/news-to-me/2013/08/13/beanie-babies/&c=iQC57H_-IgKO5H6jBVf49wJWv_N_jBV6ozFTzTxP6yE&mkt=en-us/",
    "feature_id": "1675440",
    "feature_name": "Rochester Hills",
    "state_alpha": "MI",
    "county_name": "Oakland",
    "county_numeric": "125",
    "prim_lat_dec": "42.6583661",
    "prim_long_dec": "-83.1499322",
    "elev_in_m": "250",
    "elev_in_ft": "820",
    "lat": 42.6583661,
    "long": -83.1499322
  },
  {
    "globaleventid": 263189680,
    "sqldate": 20130813,
    "monthyear": 201308,
    "year": 2013,
    "fractiondate": "2013.611",
    "eventcode": 112,
    "quadclass": 3,
    "nummentions": 2,
    "numsources": 1,
    "numarticles": 2,
    "avgtone": "2.12765957446809",
    "sourceurl": "http://www.ctpost.com/news/crime/article/Ex-prosecutor-Bujak-may-run-for-governor-in-Idaho-4728812.php",
    "feature_id": "400590",
    "feature_name": "Boise",
    "state_alpha": "ID",
    "county_name": "Ada",
    "county_numeric": "001",
    "prim_lat_dec": "43.6135002",
    "prim_long_dec": "-116.2034505",
    "elev_in_m": "823",
    "elev_in_ft": "2700",
    "lat": 43.6135002,
    "long": -116.2034505
  },
  {
    "globaleventid": 263189677,
    "sqldate": 20130813,
    "monthyear": 201308,
    "year": 2013,
    "fractiondate": "2013.611",
    "eventcode": 112,
    "quadclass": 3,
    "nummentions": 2,
    "numsources": 1,
    "numarticles": 2,
    "avgtone": "1.18343195266272",
    "sourceurl": "http://www.washingtonpost.com/national/attorney-woman-whose-indianapolis-home-exploded-claims-abuse-coercion-seeks-case-separation/2013/08/13/8d581976-0451-11e3-bfc5-406b928603b2_story.html",
    "feature_id": "531871",
    "feature_name": "Washington",
    "state_alpha": "DC",
    "county_name": "District of Columbia",
    "county_numeric": "001",
    "prim_lat_dec": "38.8951118",
    "prim_long_dec": "-77.0363658",
    "elev_in_m": "7",
    "elev_in_ft": "23",
    "lat": 38.8951118,
    "long": -77.0363658
  },
  {
    "globaleventid": 263189676,
    "sqldate": 20130813,
    "monthyear": 201308,
    "year": 2013,
    "fractiondate": "2013.611",
    "eventcode": 112,
    "quadclass": 3,
    "nummentions": 2,
    "numsources": 1,
    "numarticles": 2,
    "avgtone": "1.59574468085106",
    "sourceurl": "http://www.ctpost.com/news/us/article/Owner-of-Ind-house-that-blew-up-claims-abuse-4729402.php",
    "feature_id": "452890",
    "feature_name": "Indianapolis",
    "state_alpha": "IN",
    "county_name": "Marion",
    "county_numeric": "097",
    "prim_lat_dec": "39.7683765",
    "prim_long_dec": "-86.1580423",
    "elev_in_m": "219",
    "elev_in_ft": "718",
    "lat": 39.7683765,
    "long": -86.1580423
  },
  {
    "globaleventid": 263189673,
    "sqldate": 20130813,
    "monthyear": 201308,
    "year": 2013,
    "fractiondate": "2013.611",
    "eventcode": 112,
    "quadclass": 3,
    "nummentions": 6,
    "numsources": 3,
    "numarticles": 6,
    "avgtone": "0.652868400162638",
    "sourceurl": "http://www.ctpost.com/news/crime/article/Lawyer-says-Ala-woman-overlooked-son-in-back-seat-4730297.php",
    "feature_id": "159066",
    "feature_name": "Anniston",
    "state_alpha": "AL",
    "county_name": "Calhoun",
    "county_numeric": "015",
    "prim_lat_dec": "33.6598257",
    "prim_long_dec": "-85.8316318",
    "elev_in_m": "217",
    "elev_in_ft": "712",
    "lat": 33.6598257,
    "long": -85.8316318
  },
  {
    "globaleventid": 263189654,
    "sqldate": 20130813,
    "monthyear": 201308,
    "year": 2013,
    "fractiondate": "2013.611",
    "eventcode": 110,
    "quadclass": 3,
    "nummentions": 1,
    "numsources": 1,
    "numarticles": 1,
    "avgtone": "4.3557168784029",
    "sourceurl": "http://www.thedailyjournal.com/viewart/20130813/NEWS01/308120035/Christie-Keep-GOP-justice-out-political-fray",
    "feature_id": "884540",
    "feature_name": "Trenton",
    "state_alpha": "NJ",
    "county_name": "Mercer",
    "county_numeric": "021",
    "prim_lat_dec": "40.2170534",
    "prim_long_dec": "-74.7429385",
    "elev_in_m": "18",
    "elev_in_ft": "59",
    "lat": 40.2170534,
    "long": -74.7429385
  },
  {
    "globaleventid": 263189653,
    "sqldate": 20130813,
    "monthyear": 201308,
    "year": 2013,
    "fractiondate": "2013.611",
    "eventcode": 110,
    "quadclass": 3,
    "nummentions": 15,
    "numsources": 1,
    "numarticles": 15,
    "avgtone": "4.23340961098398",
    "sourceurl": "http://helenair.com/news/local/developer-of-fort-harrison-housing-moving-forward-with-phase-ii/article_8e7b6394-03d9-11e3-9f45-001a4bcf887a.html",
    "feature_id": "770332",
    "feature_name": "Crow Agency",
    "state_alpha": "MT",
    "county_name": "Big Horn",
    "county_numeric": "003",
    "prim_lat_dec": "45.6016413",
    "prim_long_dec": "-107.4611944",
    "elev_in_m": "926",
    "elev_in_ft": "3038",
    "lat": 45.6016413,
    "long": -107.4611944
  },
  {
    "globaleventid": 263189651,
    "sqldate": 20130813,
    "monthyear": 201308,
    "year": 2013,
    "fractiondate": "2013.611",
    "eventcode": 110,
    "quadclass": 3,
    "nummentions": 10,
    "numsources": 1,
    "numarticles": 10,
    "avgtone": "10.126582278481",
    "sourceurl": "http://readme.readmedia.com/Bakers-Craft-Impressive-Cheesecakes-in-Iowa-State-Fair-Contest/7143599",
    "feature_id": "465961",
    "feature_name": "Des Moines",
    "state_alpha": "IA",
    "county_name": "Polk",
    "county_numeric": "153",
    "prim_lat_dec": "41.6005448",
    "prim_long_dec": "-93.6091064",
    "elev_in_m": "266",
    "elev_in_ft": "873",
    "lat": 41.6005448,
    "long": -93.6091064
  },
  {
    "globaleventid": 263189650,
    "sqldate": 20130813,
    "monthyear": 201308,
    "year": 2013,
    "fractiondate": "2013.611",
    "eventcode": 110,
    "quadclass": 3,
    "nummentions": 8,
    "numsources": 1,
    "numarticles": 8,
    "avgtone": "0.380228136882129",
    "sourceurl": "http://www.suntimes.com/news/21895294-418/no-class-action-status-in-2-lawsuits-over-school-closings-judge.html",
    "feature_id": "423587",
    "feature_name": "Chicago",
    "state_alpha": "IL",
    "county_name": "Cook",
    "county_numeric": "031",
    "prim_lat_dec": "41.850033",
    "prim_long_dec": "-87.6500523",
    "elev_in_m": "179",
    "elev_in_ft": "587",
    "lat": 41.850033,
    "long": -87.6500523
  },
  {
    "globaleventid": 263189647,
    "sqldate": 20130813,
    "monthyear": 201308,
    "year": 2013,
    "fractiondate": "2013.611",
    "eventcode": 110,
    "quadclass": 3,
    "nummentions": 8,
    "numsources": 1,
    "numarticles": 8,
    "avgtone": "4.3414176343684",
    "sourceurl": "http://triblive.com/neighborhoods/yourallekiskivalley/yourallekiskivalleymore/4520243-74/horses-equine-neglect",
    "feature_id": "1174460",
    "feature_name": "Fairview",
    "state_alpha": "PA",
    "county_name": "Franklin",
    "county_numeric": "055",
    "prim_lat_dec": "39.7998154",
    "prim_long_dec": "-77.5549904",
    "elev_in_m": "308",
    "elev_in_ft": "1010",
    "lat": 39.7998154,
    "long": -77.5549904
  },
  {
    "globaleventid": 263189646,
    "sqldate": 20130813,
    "monthyear": 201308,
    "year": 2013,
    "fractiondate": "2013.611",
    "eventcode": 1044,
    "quadclass": 3,
    "nummentions": 6,
    "numsources": 3,
    "numarticles": 6,
    "avgtone": "3.94776209811887",
    "sourceurl": "http://www.mcclatchydc.com/2013/08/13/199238/nc-agrees-to-12-million-settlement.html",
    "feature_id": "1024242",
    "feature_name": "Raleigh",
    "state_alpha": "NC",
    "county_name": "Wake",
    "county_numeric": "183",
    "prim_lat_dec": "35.772096",
    "prim_long_dec": "-78.6386145",
    "elev_in_m": "96",
    "elev_in_ft": "315",
    "lat": 35.772096,
    "long": -78.6386145
  },
  {
    "globaleventid": 263189277,
    "sqldate": 20130813,
    "monthyear": 201308,
    "year": 2013,
    "fractiondate": "2013.611",
    "eventcode": 173,
    "quadclass": 4,
    "nummentions": 3,
    "numsources": 3,
    "numarticles": 3,
    "avgtone": "3.23232508503969",
    "sourceurl": "http://www.prnewswire.com/news-releases/verizon-enterprise-solutions-executive-to-preview-future-technology-trends-at-aaia-town-hall-219462001.html",
    "feature_id": "638439",
    "feature_name": "Southfield",
    "state_alpha": "MI",
    "county_name": "Oakland",
    "county_numeric": "125",
    "prim_lat_dec": "42.4733689",
    "prim_long_dec": "-83.2218731",
    "elev_in_m": "208",
    "elev_in_ft": "682",
    "lat": 42.4733689,
    "long": -83.2218731
  },
  {
    "globaleventid": 263189163,
    "sqldate": 20130813,
    "monthyear": 201308,
    "year": 2013,
    "fractiondate": "2013.611",
    "eventcode": 190,
    "quadclass": 4,
    "nummentions": 6,
    "numsources": 1,
    "numarticles": 6,
    "avgtone": "0.0",
    "sourceurl": "http://www.naplesnews.com/news/2013/aug/13/south-florida-man-charged-murder--fire-plot/",
    "feature_id": "282693",
    "feature_name": "Fort Lauderdale",
    "state_alpha": "FL",
    "county_name": "Broward",
    "county_numeric": "011",
    "prim_lat_dec": "26.1223084",
    "prim_long_dec": "-80.1433786",
    "elev_in_m": "1",
    "elev_in_ft": "3",
    "lat": 26.1223084,
    "long": -80.1433786
  },
  {
    "globaleventid": 263189162,
    "sqldate": 20130813,
    "monthyear": 201308,
    "year": 2013,
    "fractiondate": "2013.611",
    "eventcode": 190,
    "quadclass": 4,
    "nummentions": 4,
    "numsources": 1,
    "numarticles": 4,
    "avgtone": "0.0",
    "sourceurl": "http://www.naplesnews.com/news/2013/aug/13/south-florida-man-charged-murder--fire-plot/",
    "feature_id": "281279",
    "feature_name": "Dania Beach",
    "state_alpha": "FL",
    "county_name": "Broward",
    "county_numeric": "011",
    "prim_lat_dec": "26.052311",
    "prim_long_dec": "-80.1439343",
    "elev_in_m": "3",
    "elev_in_ft": "10",
    "lat": 26.052311,
    "long": -80.1439343
  },
  {
    "globaleventid": 263189160,
    "sqldate": 20130813,
    "monthyear": 201308,
    "year": 2013,
    "fractiondate": "2013.611",
    "eventcode": 120,
    "quadclass": 3,
    "nummentions": 4,
    "numsources": 1,
    "numarticles": 4,
    "avgtone": "2.97482837528604",
    "sourceurl": "http://www.charlotteobserver.com/2013/08/13/4233930/sc-residents-fighting-party-down.html",
    "feature_id": "1253479",
    "feature_name": "Murrells Inlet",
    "state_alpha": "SC",
    "county_name": "Georgetown",
    "county_numeric": "043",
    "prim_lat_dec": "33.5510021",
    "prim_long_dec": "-79.0414261",
    "elev_in_m": "5",
    "elev_in_ft": "16",
    "lat": 33.5510021,
    "long": -79.0414261
  },
  {
    "globaleventid": 263189066,
    "sqldate": 20130813,
    "monthyear": 201308,
    "year": 2013,
    "fractiondate": "2013.611",
    "eventcode": 173,
    "quadclass": 4,
    "nummentions": 2,
    "numsources": 1,
    "numarticles": 2,
    "avgtone": "0.872093023255814",
    "sourceurl": "http://www.newsminer.com/news/alaska_news/fbi-tapes-indicate-of-of-serial-killer-s-victims-in/article_73f74404-046d-11e3-a072-0019bb30f31a.html",
    "feature_id": "531871",
    "feature_name": "Washington",
    "state_alpha": "DC",
    "county_name": "District of Columbia",
    "county_numeric": "001",
    "prim_lat_dec": "38.8951118",
    "prim_long_dec": "-77.0363658",
    "elev_in_m": "7",
    "elev_in_ft": "23",
    "lat": 38.8951118,
    "long": -77.0363658
  },
  {
    "globaleventid": 263189065,
    "sqldate": 20130813,
    "monthyear": 201308,
    "year": 2013,
    "fractiondate": "2013.611",
    "eventcode": 173,
    "quadclass": 4,
    "nummentions": 8,
    "numsources": 1,
    "numarticles": 8,
    "avgtone": "0.872093023255814",
    "sourceurl": "http://www.newsminer.com/news/alaska_news/fbi-tapes-indicate-of-of-serial-killer-s-victims-in/article_73f74404-046d-11e3-a072-0019bb30f31a.html",
    "feature_id": "1512497",
    "feature_name": "Neah Bay",
    "state_alpha": "WA",
    "county_name": "Clallam",
    "county_numeric": "009",
    "prim_lat_dec": "48.3681223",
    "prim_long_dec": "-124.6249602",
    "elev_in_m": "1",
    "elev_in_ft": "3",
    "lat": 48.3681223,
    "long": -124.6249602
  },
  {
    "globaleventid": 263189064,
    "sqldate": 20130813,
    "monthyear": 201308,
    "year": 2013,
    "fractiondate": "2013.611",
    "eventcode": 164,
    "quadclass": 4,
    "nummentions": 4,
    "numsources": 1,
    "numarticles": 4,
    "avgtone": "0.0",
    "sourceurl": "http://www.ynetnews.com/articles/0,7340,L-4417084,00.html",
    "feature_id": "531871",
    "feature_name": "Washington",
    "state_alpha": "DC",
    "county_name": "District of Columbia",
    "county_numeric": "001",
    "prim_lat_dec": "38.8951118",
    "prim_long_dec": "-77.0363658",
    "elev_in_m": "7",
    "elev_in_ft": "23",
    "lat": 38.8951118,
    "long": -77.0363658
  },
  {
    "globaleventid": 263189036,
    "sqldate": 20130813,
    "monthyear": 201308,
    "year": 2013,
    "fractiondate": "2013.611",
    "eventcode": 120,
    "quadclass": 3,
    "nummentions": 2,
    "numsources": 1,
    "numarticles": 2,
    "avgtone": "1.9327731092437",
    "sourceurl": "http://www.mynews4.com/news/story/Odds-not-good-for-deal-between-Israelis-Palestinia/24ThNPULpkeNKJW5rCRLxg.cspx",
    "feature_id": "861100",
    "feature_name": "Reno",
    "state_alpha": "NV",
    "county_name": "Washoe",
    "county_numeric": "031",
    "prim_lat_dec": "39.5296329",
    "prim_long_dec": "-119.8138027",
    "elev_in_m": "1373",
    "elev_in_ft": "4505",
    "lat": 39.5296329,
    "long": -119.8138027
  },
  {
    "globaleventid": 263189032,
    "sqldate": 20130813,
    "monthyear": 201308,
    "year": 2013,
    "fractiondate": "2013.611",
    "eventcode": 120,
    "quadclass": 3,
    "nummentions": 2,
    "numsources": 1,
    "numarticles": 2,
    "avgtone": "1.67897918065816",
    "sourceurl": "http://www.staradvertiser.com/news/apnews/international/article/?ID=4241712",
    "feature_id": "366212",
    "feature_name": "Honolulu",
    "state_alpha": "HI",
    "county_name": "Honolulu",
    "county_numeric": "003",
    "prim_lat_dec": "21.3069444",
    "prim_long_dec": "-157.8583333",
    "elev_in_m": "5",
    "elev_in_ft": "16",
    "lat": 21.3069444,
    "long": -157.8583333
  },
  {
    "globaleventid": 263188828,
    "sqldate": 20130813,
    "monthyear": 201308,
    "year": 2013,
    "fractiondate": "2013.611",
    "eventcode": 190,
    "quadclass": 4,
    "nummentions": 4,
    "numsources": 1,
    "numarticles": 4,
    "avgtone": "5.85215605749487",
    "sourceurl": "http://www.kplctv.com/story/23125467/new-top-nco-at-fort-polk",
    "feature_id": "548215",
    "feature_name": "Fort Polk",
    "state_alpha": "LA",
    "county_name": "Vernon",
    "county_numeric": "115",
    "prim_lat_dec": "31.0465776",
    "prim_long_dec": "-93.2054396",
    "elev_in_m": "95",
    "elev_in_ft": "312",
    "lat": 31.0465776,
    "long": -93.2054396
  },
  {
    "globaleventid": 263188797,
    "sqldate": 20130813,
    "monthyear": 201308,
    "year": 2013,
    "fractiondate": "2013.611",
    "eventcode": 163,
    "quadclass": 4,
    "nummentions": 10,
    "numsources": 1,
    "numarticles": 10,
    "avgtone": "2.19653179190751",
    "sourceurl": "http://www.iran-daily.com/1392/5/23/MainPaper/4506/Page/3/?NewsID=98840",
    "feature_id": "531871",
    "feature_name": "Washington",
    "state_alpha": "DC",
    "county_name": "District of Columbia",
    "county_numeric": "001",
    "prim_lat_dec": "38.8951118",
    "prim_long_dec": "-77.0363658",
    "elev_in_m": "7",
    "elev_in_ft": "23",
    "lat": 38.8951118,
    "long": -77.0363658
  },
  {
    "globaleventid": 263188760,
    "sqldate": 20130813,
    "monthyear": 201308,
    "year": 2013,
    "fractiondate": "2013.611",
    "eventcode": 173,
    "quadclass": 4,
    "nummentions": 6,
    "numsources": 1,
    "numarticles": 6,
    "avgtone": "2.66903914590747",
    "sourceurl": "http://www.belfasttelegraph.co.uk/news/world-news/ruthless-bostonirish-gang-leader-james-whitey-bulger-convicted-of-killing-spree-29493305.html",
    "feature_id": "617565",
    "feature_name": "Boston",
    "state_alpha": "MA",
    "county_name": "Suffolk",
    "county_numeric": "025",
    "prim_lat_dec": "42.3584308",
    "prim_long_dec": "-71.0597732",
    "elev_in_m": "14",
    "elev_in_ft": "46",
    "lat": 42.3584308,
    "long": -71.0597732
  },
  {
    "globaleventid": 263188754,
    "sqldate": 20130813,
    "monthyear": 201308,
    "year": 2013,
    "fractiondate": "2013.611",
    "eventcode": 173,
    "quadclass": 4,
    "nummentions": 2,
    "numsources": 1,
    "numarticles": 2,
    "avgtone": "2.66903914590747",
    "sourceurl": "http://www.belfasttelegraph.co.uk/news/world-news/ruthless-bostonirish-gang-leader-james-whitey-bulger-convicted-of-killing-spree-29493305.html",
    "feature_id": "617565",
    "feature_name": "Boston",
    "state_alpha": "MA",
    "county_name": "Suffolk",
    "county_numeric": "025",
    "prim_lat_dec": "42.3584308",
    "prim_long_dec": "-71.0597732",
    "elev_in_m": "14",
    "elev_in_ft": "46",
    "lat": 42.3584308,
    "long": -71.0597732
  },
  {
    "globaleventid": 263188752,
    "sqldate": 20130813,
    "monthyear": 201308,
    "year": 2013,
    "fractiondate": "2013.611",
    "eventcode": 173,
    "quadclass": 4,
    "nummentions": 1,
    "numsources": 1,
    "numarticles": 1,
    "avgtone": "1.92307692307692",
    "sourceurl": "http://www.sfgate.com/crime/article/Fifth-man-charged-in-2011-San-Leandro-killings-4730322.php",
    "feature_id": "1659598",
    "feature_name": "Santa Rita",
    "state_alpha": "CA",
    "county_name": "Monterey",
    "county_numeric": "053",
    "prim_lat_dec": "36.7238477",
    "prim_long_dec": "-121.6560572",
    "elev_in_m": "24",
    "elev_in_ft": "79",
    "lat": 36.7238477,
    "long": -121.6560572
  },
  {
    "globaleventid": 263188750,
    "sqldate": 20130813,
    "monthyear": 201308,
    "year": 2013,
    "fractiondate": "2013.611",
    "eventcode": 173,
    "quadclass": 4,
    "nummentions": 4,
    "numsources": 1,
    "numarticles": 4,
    "avgtone": "0.896860986547085",
    "sourceurl": "http://www.630wpro.com/common/more.php?m=58&ts=1376430604&article=38B318D6048C11E386DEFEFDADE6840A&mode=2",
    "feature_id": "1659507",
    "feature_name": "Richmond",
    "state_alpha": "CA",
    "county_name": "Contra Costa",
    "county_numeric": "013",
    "prim_lat_dec": "37.9357576",
    "prim_long_dec": "-122.3477486",
    "elev_in_m": "14",
    "elev_in_ft": "46",
    "lat": 37.9357576,
    "long": -122.3477486
  },
  {
    "globaleventid": 263188679,
    "sqldate": 20130813,
    "monthyear": 201308,
    "year": 2013,
    "fractiondate": "2013.611",
    "eventcode": 190,
    "quadclass": 4,
    "nummentions": 4,
    "numsources": 1,
    "numarticles": 4,
    "avgtone": "1.55642023346304",
    "sourceurl": "http://www.turkishweekly.net/news/153874/more-prison-breaks-on-its-way-al-qaeda.html",
    "feature_id": "531871",
    "feature_name": "Washington",
    "state_alpha": "DC",
    "county_name": "District of Columbia",
    "county_numeric": "001",
    "prim_lat_dec": "38.8951118",
    "prim_long_dec": "-77.0363658",
    "elev_in_m": "7",
    "elev_in_ft": "23",
    "lat": 38.8951118,
    "long": -77.0363658
  },
  {
    "globaleventid": 263188672,
    "sqldate": 20130813,
    "monthyear": 201308,
    "year": 2013,
    "fractiondate": "2013.611",
    "eventcode": 190,
    "quadclass": 4,
    "nummentions": 43,
    "numsources": 10,
    "numarticles": 42,
    "avgtone": "2.5220645340157",
    "sourceurl": "http://ca.reuters.com/article/topNews/idCABRE97C0LQ20130813",
    "feature_id": "531871",
    "feature_name": "Washington",
    "state_alpha": "DC",
    "county_name": "District of Columbia",
    "county_numeric": "001",
    "prim_lat_dec": "38.8951118",
    "prim_long_dec": "-77.0363658",
    "elev_in_m": "7",
    "elev_in_ft": "23",
    "lat": 38.8951118,
    "long": -77.0363658
  },
  {
    "globaleventid": 263188665,
    "sqldate": 20130813,
    "monthyear": 201308,
    "year": 2013,
    "fractiondate": "2013.611",
    "eventcode": 138,
    "quadclass": 3,
    "nummentions": 10,
    "numsources": 1,
    "numarticles": 10,
    "avgtone": "0.836820083682008",
    "sourceurl": "http://english.al-akhbar.com/node/16706&c=QeN8p4mGwL1OPkTswunLD-_et6obc_ewBmgiEdV4Uso&mkt=en-us",
    "feature_id": "531871",
    "feature_name": "Washington",
    "state_alpha": "DC",
    "county_name": "District of Columbia",
    "county_numeric": "001",
    "prim_lat_dec": "38.8951118",
    "prim_long_dec": "-77.0363658",
    "elev_in_m": "7",
    "elev_in_ft": "23",
    "lat": 38.8951118,
    "long": -77.0363658
  },
  {
    "globaleventid": 263188657,
    "sqldate": 20130813,
    "monthyear": 201308,
    "year": 2013,
    "fractiondate": "2013.611",
    "eventcode": 112,
    "quadclass": 3,
    "nummentions": 1,
    "numsources": 1,
    "numarticles": 1,
    "avgtone": "1.76100628930818",
    "sourceurl": "http://www.arabnews.com/news/461117",
    "feature_id": "531871",
    "feature_name": "Washington",
    "state_alpha": "DC",
    "county_name": "District of Columbia",
    "county_numeric": "001",
    "prim_lat_dec": "38.8951118",
    "prim_long_dec": "-77.0363658",
    "elev_in_m": "7",
    "elev_in_ft": "23",
    "lat": 38.8951118,
    "long": -77.0363658
  },
  {
    "globaleventid": 263188655,
    "sqldate": 20130813,
    "monthyear": 201308,
    "year": 2013,
    "fractiondate": "2013.611",
    "eventcode": 110,
    "quadclass": 3,
    "nummentions": 6,
    "numsources": 1,
    "numarticles": 6,
    "avgtone": "1.41592920353982",
    "sourceurl": "http://www.tradethenewsroom.com/ron-paul-on-the-us-war-in-yemen-it-is-time-to-withdraw-2704",
    "feature_id": "531871",
    "feature_name": "Washington",
    "state_alpha": "DC",
    "county_name": "District of Columbia",
    "county_numeric": "001",
    "prim_lat_dec": "38.8951118",
    "prim_long_dec": "-77.0363658",
    "elev_in_m": "7",
    "elev_in_ft": "23",
    "lat": 38.8951118,
    "long": -77.0363658
  },
  {
    "globaleventid": 263188601,
    "sqldate": 20130813,
    "monthyear": 201308,
    "year": 2013,
    "fractiondate": "2013.611",
    "eventcode": 163,
    "quadclass": 4,
    "nummentions": 16,
    "numsources": 2,
    "numarticles": 16,
    "avgtone": "0.883689366222117",
    "sourceurl": "http://www.insurancejournal.com/news/international/2013/08/13/301536.htm",
    "feature_id": "531871",
    "feature_name": "Washington",
    "state_alpha": "DC",
    "county_name": "District of Columbia",
    "county_numeric": "001",
    "prim_lat_dec": "38.8951118",
    "prim_long_dec": "-77.0363658",
    "elev_in_m": "7",
    "elev_in_ft": "23",
    "lat": 38.8951118,
    "long": -77.0363658
  },
  {
    "globaleventid": 263188568,
    "sqldate": 20130813,
    "monthyear": 201308,
    "year": 2013,
    "fractiondate": "2013.611",
    "eventcode": 173,
    "quadclass": 4,
    "nummentions": 10,
    "numsources": 1,
    "numarticles": 10,
    "avgtone": "4.36241610738255",
    "sourceurl": "http://www.takepart.com/article/2013/08/13/iowa-state-fairs-famous-butter-cow-doused-fake-blood",
    "feature_id": "465961",
    "feature_name": "Des Moines",
    "state_alpha": "IA",
    "county_name": "Polk",
    "county_numeric": "153",
    "prim_lat_dec": "41.6005448",
    "prim_long_dec": "-93.6091064",
    "elev_in_m": "266",
    "elev_in_ft": "873",
    "lat": 41.6005448,
    "long": -93.6091064
  },
  {
    "globaleventid": 263188567,
    "sqldate": 20130813,
    "monthyear": 201308,
    "year": 2013,
    "fractiondate": "2013.611",
    "eventcode": 171,
    "quadclass": 4,
    "nummentions": 8,
    "numsources": 1,
    "numarticles": 8,
    "avgtone": "4.36241610738255",
    "sourceurl": "http://www.takepart.com/article/2013/08/13/iowa-state-fairs-famous-butter-cow-doused-fake-blood",
    "feature_id": "465961",
    "feature_name": "Des Moines",
    "state_alpha": "IA",
    "county_name": "Polk",
    "county_numeric": "153",
    "prim_lat_dec": "41.6005448",
    "prim_long_dec": "-93.6091064",
    "elev_in_m": "266",
    "elev_in_ft": "873",
    "lat": 41.6005448,
    "long": -93.6091064
  },
  {
    "globaleventid": 263188566,
    "sqldate": 20130813,
    "monthyear": 201308,
    "year": 2013,
    "fractiondate": "2013.611",
    "eventcode": 171,
    "quadclass": 4,
    "nummentions": 2,
    "numsources": 1,
    "numarticles": 2,
    "avgtone": "4.36241610738255",
    "sourceurl": "http://www.takepart.com/article/2013/08/13/iowa-state-fairs-famous-butter-cow-doused-fake-blood",
    "feature_id": "465961",
    "feature_name": "Des Moines",
    "state_alpha": "IA",
    "county_name": "Polk",
    "county_numeric": "153",
    "prim_lat_dec": "41.6005448",
    "prim_long_dec": "-93.6091064",
    "elev_in_m": "266",
    "elev_in_ft": "873",
    "lat": 41.6005448,
    "long": -93.6091064
  },
  {
    "globaleventid": 263188552,
    "sqldate": 20130813,
    "monthyear": 201308,
    "year": 2013,
    "fractiondate": "2013.611",
    "eventcode": 193,
    "quadclass": 4,
    "nummentions": 22,
    "numsources": 3,
    "numarticles": 22,
    "avgtone": "0.820147947142004",
    "sourceurl": "http://www.fox8live.com/story/23125024/man-shoots-self-at-hospital-after-wife-gives-birth",
    "feature_id": "2472452",
    "feature_name": "Willow Brook",
    "state_alpha": "TX",
    "county_name": "Harris",
    "county_numeric": "201",
    "prim_lat_dec": "29.6598",
    "prim_long_dec": "-95.458",
    "elev_in_m": "18",
    "elev_in_ft": "59",
    "lat": 29.6598,
    "long": -95.458
  },
  {
    "globaleventid": 263188551,
    "sqldate": 20130813,
    "monthyear": 201308,
    "year": 2013,
    "fractiondate": "2013.611",
    "eventcode": 193,
    "quadclass": 4,
    "nummentions": 2,
    "numsources": 1,
    "numarticles": 2,
    "avgtone": "0.657894736842105",
    "sourceurl": "http://www.cbsnews.com/8301-504083_162-57598369-504083/texas-man-fatally-shoots-himself-at-hospital-hours-after-wife-gives-birth-police-say/",
    "feature_id": "2472452",
    "feature_name": "Willow Brook",
    "state_alpha": "TX",
    "county_name": "Harris",
    "county_numeric": "201",
    "prim_lat_dec": "29.6598",
    "prim_long_dec": "-95.458",
    "elev_in_m": "18",
    "elev_in_ft": "59",
    "lat": 29.6598,
    "long": -95.458
  },
  {
    "globaleventid": 263188550,
    "sqldate": 20130813,
    "monthyear": 201308,
    "year": 2013,
    "fractiondate": "2013.611",
    "eventcode": 193,
    "quadclass": 4,
    "nummentions": 6,
    "numsources": 1,
    "numarticles": 6,
    "avgtone": "0.657894736842105",
    "sourceurl": "http://www.cbsnews.com/8301-504083_162-57598369-504083/texas-man-fatally-shoots-himself-at-hospital-hours-after-wife-gives-birth-police-say/",
    "feature_id": "1380948",
    "feature_name": "Houston",
    "state_alpha": "TX",
    "county_name": "Harris",
    "county_numeric": "201",
    "prim_lat_dec": "29.7632836",
    "prim_long_dec": "-95.3632715",
    "elev_in_m": "11",
    "elev_in_ft": "36",
    "lat": 29.7632836,
    "long": -95.3632715
  },
  {
    "globaleventid": 263188549,
    "sqldate": 20130813,
    "monthyear": 201308,
    "year": 2013,
    "fractiondate": "2013.611",
    "eventcode": 193,
    "quadclass": 4,
    "nummentions": 20,
    "numsources": 3,
    "numarticles": 18,
    "avgtone": "0.662845336676066",
    "sourceurl": "http://www.cbsnews.com/8301-504083_162-57598369-504083/texas-man-fatally-shoots-himself-at-hospital-hours-after-wife-gives-birth-police-say/",
    "feature_id": "1380948",
    "feature_name": "Houston",
    "state_alpha": "TX",
    "county_name": "Harris",
    "county_numeric": "201",
    "prim_lat_dec": "29.7632836",
    "prim_long_dec": "-95.3632715",
    "elev_in_m": "11",
    "elev_in_ft": "36",
    "lat": 29.7632836,
    "long": -95.3632715
  },
  {
    "globaleventid": 263188545,
    "sqldate": 20130813,
    "monthyear": 201308,
    "year": 2013,
    "fractiondate": "2013.611",
    "eventcode": 182,
    "quadclass": 4,
    "nummentions": 2,
    "numsources": 1,
    "numarticles": 2,
    "avgtone": "0.3584229390681",
    "sourceurl": "http://www.wptv.com/dpp/news/state/lisa-taylor-bb-gun-shooting-broward-deputies-fatally-shoot-woman-after-standoff-in-cooper-city",
    "feature_id": "288686",
    "feature_name": "Pembroke Pines",
    "state_alpha": "FL",
    "county_name": "Broward",
    "county_numeric": "011",
    "prim_lat_dec": "26.0031465",
    "prim_long_dec": "-80.223937",
    "elev_in_m": "2",
    "elev_in_ft": "7",
    "lat": 26.0031465,
    "long": -80.223937
  },
  {
    "globaleventid": 263188544,
    "sqldate": 20130813,
    "monthyear": 201308,
    "year": 2013,
    "fractiondate": "2013.611",
    "eventcode": 182,
    "quadclass": 4,
    "nummentions": 2,
    "numsources": 1,
    "numarticles": 2,
    "avgtone": "0.3584229390681",
    "sourceurl": "http://www.wptv.com/dpp/news/state/lisa-taylor-bb-gun-shooting-broward-deputies-fatally-shoot-woman-after-standoff-in-cooper-city",
    "feature_id": "284176",
    "feature_name": "Hollywood",
    "state_alpha": "FL",
    "county_name": "Broward",
    "county_numeric": "011",
    "prim_lat_dec": "26.0112014",
    "prim_long_dec": "-80.1494901",
    "elev_in_m": "3",
    "elev_in_ft": "10",
    "lat": 26.0112014,
    "long": -80.1494901
  },
  {
    "globaleventid": 263188540,
    "sqldate": 20130813,
    "monthyear": 201308,
    "year": 2013,
    "fractiondate": "2013.611",
    "eventcode": 173,
    "quadclass": 4,
    "nummentions": 3,
    "numsources": 1,
    "numarticles": 3,
    "avgtone": "0.0",
    "sourceurl": "http://www.dailyjournal.net/view/story/d2d1385549444ebfa2f9442d2de6ed2d/OH--Hospital-Shuttle-Fatal/",
    "feature_id": "1080996",
    "feature_name": "Columbus",
    "state_alpha": "OH",
    "county_name": "Franklin",
    "county_numeric": "049",
    "prim_lat_dec": "39.9611755",
    "prim_long_dec": "-82.9987942",
    "elev_in_m": "238",
    "elev_in_ft": "781",
    "lat": 39.9611755,
    "long": -82.9987942
  },
  {
    "globaleventid": 263188538,
    "sqldate": 20130813,
    "monthyear": 201308,
    "year": 2013,
    "fractiondate": "2013.611",
    "eventcode": 172,
    "quadclass": 4,
    "nummentions": 1,
    "numsources": 1,
    "numarticles": 1,
    "avgtone": "1.35135135135135",
    "sourceurl": "http://www.appeal-democrat.com/news/dodd-126967-monday-investigators.html",
    "feature_id": "277593",
    "feature_name": "San Francisco",
    "state_alpha": "CA",
    "county_name": "San Francisco",
    "county_numeric": "075",
    "prim_lat_dec": "37.775",
    "prim_long_dec": "-122.4194444",
    "elev_in_m": "16",
    "elev_in_ft": "52",
    "lat": 37.775,
    "long": -122.4194444
  },
  {
    "globaleventid": 263188535,
    "sqldate": 20130813,
    "monthyear": 201308,
    "year": 2013,
    "fractiondate": "2013.611",
    "eventcode": 160,
    "quadclass": 4,
    "nummentions": 4,
    "numsources": 1,
    "numarticles": 4,
    "avgtone": "1.93199381761978",
    "sourceurl": "http://www.dailymail.co.uk/health/article-2391257/I-survived-flesh-eating-bug-Im-FAT-27-stone-mans-excess-flab-meant-bug-plenty-eat--giving-doctors-time-save-him.html?ITO=1490&ns_mchannel=rss&ns_campaign=1490",
    "feature_id": "411409",
    "feature_name": "Kent",
    "state_alpha": "IL",
    "county_name": "Stephenson",
    "county_numeric": "177",
    "prim_lat_dec": "42.3086275",
    "prim_long_dec": "-89.9020667",
    "elev_in_m": "274",
    "elev_in_ft": "899",
    "lat": 42.3086275,
    "long": -89.9020667
  },
  {
    "globaleventid": 263188534,
    "sqldate": 20130813,
    "monthyear": 201308,
    "year": 2013,
    "fractiondate": "2013.611",
    "eventcode": 138,
    "quadclass": 3,
    "nummentions": 4,
    "numsources": 1,
    "numarticles": 4,
    "avgtone": "1.4268727705113",
    "sourceurl": "http://www.fluvannareview.com/index.php?option=com_content&view=article&id=4993:attorney-general&catid=81",
    "feature_id": "1867591",
    "feature_name": "Lake Monticello",
    "state_alpha": "VA",
    "county_name": "Fluvanna",
    "county_numeric": "065",
    "prim_lat_dec": "37.9231965",
    "prim_long_dec": "-78.3347288",
    "elev_in_m": "113",
    "elev_in_ft": "371",
    "lat": 37.9231965,
    "long": -78.3347288
  },
  {
    "globaleventid": 263188525,
    "sqldate": 20130813,
    "monthyear": 201308,
    "year": 2013,
    "fractiondate": "2013.611",
    "eventcode": 112,
    "quadclass": 3,
    "nummentions": 2,
    "numsources": 1,
    "numarticles": 2,
    "avgtone": "2.10970464135021",
    "sourceurl": "http://www.minbcnews.com/news/story.aspx?id=933288",
    "feature_id": "866824",
    "feature_name": "Exeter",
    "state_alpha": "NH",
    "county_name": "Rockingham",
    "county_numeric": "015",
    "prim_lat_dec": "42.981477",
    "prim_long_dec": "-70.9478343",
    "elev_in_m": "8",
    "elev_in_ft": "26",
    "lat": 42.981477,
    "long": -70.9478343
  },
  {
    "globaleventid": 263188524,
    "sqldate": 20130813,
    "monthyear": 201308,
    "year": 2013,
    "fractiondate": "2013.611",
    "eventcode": 112,
    "quadclass": 3,
    "nummentions": 2,
    "numsources": 1,
    "numarticles": 2,
    "avgtone": "2.10970464135021",
    "sourceurl": "http://www.minbcnews.com/news/story.aspx?id=933288",
    "feature_id": "866824",
    "feature_name": "Exeter",
    "state_alpha": "NH",
    "county_name": "Rockingham",
    "county_numeric": "015",
    "prim_lat_dec": "42.981477",
    "prim_long_dec": "-70.9478343",
    "elev_in_m": "8",
    "elev_in_ft": "26",
    "lat": 42.981477,
    "long": -70.9478343
  },
  {
    "globaleventid": 263188518,
    "sqldate": 20130813,
    "monthyear": 201308,
    "year": 2013,
    "fractiondate": "2013.611",
    "eventcode": 112,
    "quadclass": 3,
    "nummentions": 2,
    "numsources": 1,
    "numarticles": 2,
    "avgtone": "1.38248847926267",
    "sourceurl": "http://www.cbs19.tv/story/23125203/hospital-tech-accused-of-multi-state-hepatitis-outbreak-to-plead-guilty",
    "feature_id": "351409",
    "feature_name": "Longview",
    "state_alpha": "GA",
    "county_name": "Habersham",
    "county_numeric": "137",
    "prim_lat_dec": "34.4703778",
    "prim_long_dec": "-83.5693397",
    "elev_in_m": "434",
    "elev_in_ft": "1424",
    "lat": 34.4703778,
    "long": -83.5693397
  },
  {
    "globaleventid": 263188517,
    "sqldate": 20130813,
    "monthyear": 201308,
    "year": 2013,
    "fractiondate": "2013.611",
    "eventcode": 112,
    "quadclass": 3,
    "nummentions": 6,
    "numsources": 1,
    "numarticles": 6,
    "avgtone": "2.10970464135021",
    "sourceurl": "http://www.minbcnews.com/news/story.aspx?id=933288",
    "feature_id": "866824",
    "feature_name": "Exeter",
    "state_alpha": "NH",
    "county_name": "Rockingham",
    "county_numeric": "015",
    "prim_lat_dec": "42.981477",
    "prim_long_dec": "-70.9478343",
    "elev_in_m": "8",
    "elev_in_ft": "26",
    "lat": 42.981477,
    "long": -70.9478343
  },
  {
    "globaleventid": 263188512,
    "sqldate": 20130813,
    "monthyear": 201308,
    "year": 2013,
    "fractiondate": "2013.611",
    "eventcode": 112,
    "quadclass": 3,
    "nummentions": 25,
    "numsources": 3,
    "numarticles": 25,
    "avgtone": "3.05967456760787",
    "sourceurl": "http://www.mariettatimes.com/page/content.detail/id/358297/DOJ--7-Ohio-oncologists-imported-misbranded-drugs.html?isap=1&nav=5018",
    "feature_id": "1066654",
    "feature_name": "Cleveland",
    "state_alpha": "OH",
    "county_name": "Cuyahoga",
    "county_numeric": "035",
    "prim_lat_dec": "41.4994954",
    "prim_long_dec": "-81.6954088",
    "elev_in_m": "199",
    "elev_in_ft": "653",
    "lat": 41.4994954,
    "long": -81.6954088
  },
  {
    "globaleventid": 263188509,
    "sqldate": 20130813,
    "monthyear": 201308,
    "year": 2013,
    "fractiondate": "2013.611",
    "eventcode": 110,
    "quadclass": 3,
    "nummentions": 2,
    "numsources": 1,
    "numarticles": 2,
    "avgtone": "2.44897959183673",
    "sourceurl": "http://healthblog.dallasnews.com/2013/08/texas-meningitis-survivor-and-activist-jamie-schanbaum-to-be-honored-at-dallas-hadassah-events-aug-25.html/",
    "feature_id": "1380944",
    "feature_name": "Dallas",
    "state_alpha": "TX",
    "county_name": "Dallas",
    "county_numeric": "113",
    "prim_lat_dec": "32.7830556",
    "prim_long_dec": "-96.8066667",
    "elev_in_m": "128",
    "elev_in_ft": "420",
    "lat": 32.7830556,
    "long": -96.8066667
  },
  {
    "globaleventid": 263188508,
    "sqldate": 20130813,
    "monthyear": 201308,
    "year": 2013,
    "fractiondate": "2013.611",
    "eventcode": 110,
    "quadclass": 3,
    "nummentions": 6,
    "numsources": 1,
    "numarticles": 6,
    "avgtone": "2.55408324467228",
    "sourceurl": "http://healthblog.dallasnews.com/2013/08/texas-meningitis-survivor-and-activist-jamie-schanbaum-to-be-honored-at-dallas-hadassah-events-aug-25.html/",
    "feature_id": "1380944",
    "feature_name": "Dallas",
    "state_alpha": "TX",
    "county_name": "Dallas",
    "county_numeric": "113",
    "prim_lat_dec": "32.7830556",
    "prim_long_dec": "-96.8066667",
    "elev_in_m": "128",
    "elev_in_ft": "420",
    "lat": 32.7830556,
    "long": -96.8066667
  },
  {
    "globaleventid": 263188506,
    "sqldate": 20130813,
    "monthyear": 201308,
    "year": 2013,
    "fractiondate": "2013.611",
    "eventcode": 100,
    "quadclass": 3,
    "nummentions": 10,
    "numsources": 1,
    "numarticles": 10,
    "avgtone": "2.49433106575964",
    "sourceurl": "http://www.providencejournal.com/opinion/letters-to-the-editor/20130813-keven-a.-mckenna-why-we-need-constitutional-convention.ece",
    "feature_id": "1218931",
    "feature_name": "Central Falls",
    "state_alpha": "RI",
    "county_name": "Providence",
    "county_numeric": "007",
    "prim_lat_dec": "41.8906553",
    "prim_long_dec": "-71.3922785",
    "elev_in_m": "26",
    "elev_in_ft": "85",
    "lat": 41.8906553,
    "long": -71.3922785
  },
  {
    "globaleventid": 263188265,
    "sqldate": 20130813,
    "monthyear": 201308,
    "year": 2013,
    "fractiondate": "2013.611",
    "eventcode": 112,
    "quadclass": 3,
    "nummentions": 6,
    "numsources": 1,
    "numarticles": 6,
    "avgtone": "1.32275132275132",
    "sourceurl": "http://www.wishtv.com/dpp/news/indiana/fort-wayne-rejects-a-to-f-grading-others-may-follow",
    "feature_id": "434689",
    "feature_name": "Fort Wayne",
    "state_alpha": "IN",
    "county_name": "Allen",
    "county_numeric": "003",
    "prim_lat_dec": "41.1306041",
    "prim_long_dec": "-85.1288597",
    "elev_in_m": "247",
    "elev_in_ft": "810",
    "lat": 41.1306041,
    "long": -85.1288597
  },
  {
    "globaleventid": 263188264,
    "sqldate": 20130813,
    "monthyear": 201308,
    "year": 2013,
    "fractiondate": "2013.611",
    "eventcode": 112,
    "quadclass": 3,
    "nummentions": 4,
    "numsources": 1,
    "numarticles": 4,
    "avgtone": "1.32275132275132",
    "sourceurl": "http://www.wishtv.com/dpp/news/indiana/fort-wayne-rejects-a-to-f-grading-others-may-follow",
    "feature_id": "434689",
    "feature_name": "Fort Wayne",
    "state_alpha": "IN",
    "county_name": "Allen",
    "county_numeric": "003",
    "prim_lat_dec": "41.1306041",
    "prim_long_dec": "-85.1288597",
    "elev_in_m": "247",
    "elev_in_ft": "810",
    "lat": 41.1306041,
    "long": -85.1288597
  },
  {
    "globaleventid": 263188253,
    "sqldate": 20130813,
    "monthyear": 201308,
    "year": 2013,
    "fractiondate": "2013.611",
    "eventcode": 192,
    "quadclass": 4,
    "nummentions": 8,
    "numsources": 1,
    "numarticles": 8,
    "avgtone": "3.37837837837838",
    "sourceurl": "http://www.timesleader.com/news/local-news/747643/State-offices-to-share-space-in-Wilkes-Barre&source=RSS",
    "feature_id": "1213654",
    "feature_name": "Wilkes-Barre",
    "state_alpha": "PA",
    "county_name": "Luzerne",
    "county_numeric": "079",
    "prim_lat_dec": "41.2459149",
    "prim_long_dec": "-75.8813075",
    "elev_in_m": "167",
    "elev_in_ft": "548",
    "lat": 41.2459149,
    "long": -75.8813075
  },
  {
    "globaleventid": 263188241,
    "sqldate": 20130813,
    "monthyear": 201308,
    "year": 2013,
    "fractiondate": "2013.611",
    "eventcode": 173,
    "quadclass": 4,
    "nummentions": 2,
    "numsources": 1,
    "numarticles": 2,
    "avgtone": "0.736377025036819",
    "sourceurl": "http://www.montgomerynews.com/articles/2013/08/13/glenside_news_globe_times_chronicle/news/doc52010ab2d8332379793055.txt",
    "feature_id": "531871",
    "feature_name": "Washington",
    "state_alpha": "DC",
    "county_name": "District of Columbia",
    "county_numeric": "001",
    "prim_lat_dec": "38.8951118",
    "prim_long_dec": "-77.0363658",
    "elev_in_m": "7",
    "elev_in_ft": "23",
    "lat": 38.8951118,
    "long": -77.0363658
  },
  {
    "globaleventid": 263188240,
    "sqldate": 20130813,
    "monthyear": 201308,
    "year": 2013,
    "fractiondate": "2013.611",
    "eventcode": 173,
    "quadclass": 4,
    "nummentions": 8,
    "numsources": 1,
    "numarticles": 4,
    "avgtone": "0.736377025036819",
    "sourceurl": "http://www.montgomerynews.com/articles/2013/08/13/glenside_news_globe_times_chronicle/news/doc52010ab2d8332379793055.txt",
    "feature_id": "1203254",
    "feature_name": "Cheltenham",
    "state_alpha": "PA",
    "county_name": "Montgomery",
    "county_numeric": "091",
    "prim_lat_dec": "40.0609445",
    "prim_long_dec": "-75.0940625",
    "elev_in_m": "40",
    "elev_in_ft": "131",
    "lat": 40.0609445,
    "long": -75.0940625
  },
  {
    "globaleventid": 263188239,
    "sqldate": 20130813,
    "monthyear": 201308,
    "year": 2013,
    "fractiondate": "2013.611",
    "eventcode": 173,
    "quadclass": 4,
    "nummentions": 2,
    "numsources": 1,
    "numarticles": 2,
    "avgtone": "0.736377025036819",
    "sourceurl": "http://www.montgomerynews.com/articles/2013/08/13/glenside_news_globe_times_chronicle/news/doc52010ab2d8332379793055.txt",
    "feature_id": "1203254",
    "feature_name": "Cheltenham",
    "state_alpha": "PA",
    "county_name": "Montgomery",
    "county_numeric": "091",
    "prim_lat_dec": "40.0609445",
    "prim_long_dec": "-75.0940625",
    "elev_in_m": "40",
    "elev_in_ft": "131",
    "lat": 40.0609445,
    "long": -75.0940625
  },
  {
    "globaleventid": 263188228,
    "sqldate": 20130813,
    "monthyear": 201308,
    "year": 2013,
    "fractiondate": "2013.611",
    "eventcode": 193,
    "quadclass": 4,
    "nummentions": 10,
    "numsources": 1,
    "numarticles": 10,
    "avgtone": "0.0",
    "sourceurl": "http://www.ctpost.com/news/texas/article/Bus-shooting-leads-to-standoff-at-Texas-home-4727311.php",
    "feature_id": "1380951",
    "feature_name": "San Antonio",
    "state_alpha": "TX",
    "county_name": "Bexar",
    "county_numeric": "029",
    "prim_lat_dec": "29.4241219",
    "prim_long_dec": "-98.4936282",
    "elev_in_m": "198",
    "elev_in_ft": "650",
    "lat": 29.4241219,
    "long": -98.4936282
  },
  {
    "globaleventid": 263188223,
    "sqldate": 20130813,
    "monthyear": 201308,
    "year": 2013,
    "fractiondate": "2013.611",
    "eventcode": 193,
    "quadclass": 4,
    "nummentions": 2,
    "numsources": 1,
    "numarticles": 2,
    "avgtone": "0.691244239631336",
    "sourceurl": "http://www.kcrg.com/news/local/-Witness-Testifies-Justin-Ross-Admits-Shooting-Andre-Herron--219505291.html",
    "feature_id": "465941",
    "feature_name": "Cedar Rapids",
    "state_alpha": "IA",
    "county_name": "Linn",
    "county_numeric": "113",
    "prim_lat_dec": "42.0083328",
    "prim_long_dec": "-91.6440683",
    "elev_in_m": "246",
    "elev_in_ft": "807",
    "lat": 42.0083328,
    "long": -91.6440683
  },
  {
    "globaleventid": 263188222,
    "sqldate": 20130813,
    "monthyear": 201308,
    "year": 2013,
    "fractiondate": "2013.611",
    "eventcode": 193,
    "quadclass": 4,
    "nummentions": 10,
    "numsources": 1,
    "numarticles": 10,
    "avgtone": "1.30434782608696",
    "sourceurl": "http://www.mynews3.com/mostpopular/story/Man-shot-after-entering-car-belonging-to-off-duty/nnfj3wOrm0yktTXnBCNnDg.cspx",
    "feature_id": "847388",
    "feature_name": "Las Vegas",
    "state_alpha": "NV",
    "county_name": "Clark",
    "county_numeric": "003",
    "prim_lat_dec": "36.1749705",
    "prim_long_dec": "-115.137223",
    "elev_in_m": "610",
    "elev_in_ft": "2001",
    "lat": 36.1749705,
    "long": -115.137223
  },
  {
    "globaleventid": 263188219,
    "sqldate": 20130813,
    "monthyear": 201308,
    "year": 2013,
    "fractiondate": "2013.611",
    "eventcode": 193,
    "quadclass": 4,
    "nummentions": 2,
    "numsources": 1,
    "numarticles": 2,
    "avgtone": "4.01459854014599",
    "sourceurl": "http://www.nbcsandiego.com/news/local/Hannah-Anderson-Answering-Social-Media-Questions-219497411.html",
    "feature_id": "1661377",
    "feature_name": "San Diego",
    "state_alpha": "CA",
    "county_name": "San Diego",
    "county_numeric": "073",
    "prim_lat_dec": "32.7153292",
    "prim_long_dec": "-117.1572551",
    "elev_in_m": "19",
    "elev_in_ft": "62",
    "lat": 32.7153292,
    "long": -117.1572551
  },
  {
    "globaleventid": 263188217,
    "sqldate": 20130813,
    "monthyear": 201308,
    "year": 2013,
    "fractiondate": "2013.611",
    "eventcode": 193,
    "quadclass": 4,
    "nummentions": 2,
    "numsources": 1,
    "numarticles": 2,
    "avgtone": "4.01459854014599",
    "sourceurl": "http://www.nbcsandiego.com/news/local/Hannah-Anderson-Answering-Social-Media-Questions-219497411.html",
    "feature_id": "1661377",
    "feature_name": "San Diego",
    "state_alpha": "CA",
    "county_name": "San Diego",
    "county_numeric": "073",
    "prim_lat_dec": "32.7153292",
    "prim_long_dec": "-117.1572551",
    "elev_in_m": "19",
    "elev_in_ft": "62",
    "lat": 32.7153292,
    "long": -117.1572551
  },
  {
    "globaleventid": 263188212,
    "sqldate": 20130813,
    "monthyear": 201308,
    "year": 2013,
    "fractiondate": "2013.611",
    "eventcode": 190,
    "quadclass": 4,
    "nummentions": 2,
    "numsources": 1,
    "numarticles": 2,
    "avgtone": "0.789473684210526",
    "sourceurl": "http://www.therepublic.com/view/story/1251b2c6d4a34967b2e67f0684d9901b/UT--Utah-Wildfires",
    "feature_id": "1443496",
    "feature_name": "Millville",
    "state_alpha": "UT",
    "county_name": "Cache",
    "county_numeric": "005",
    "prim_lat_dec": "41.6815987",
    "prim_long_dec": "-111.8229982",
    "elev_in_m": "1407",
    "elev_in_ft": "4616",
    "lat": 41.6815987,
    "long": -111.8229982
  },
  {
    "globaleventid": 263188192,
    "sqldate": 20130813,
    "monthyear": 201308,
    "year": 2013,
    "fractiondate": "2013.611",
    "eventcode": 190,
    "quadclass": 4,
    "nummentions": 2,
    "numsources": 1,
    "numarticles": 2,
    "avgtone": "3.2258064516129",
    "sourceurl": "http://www.ctpost.com/news/crime/article/NJ-court-throws-out-Latin-King-s-murder-conviction-4728640.php",
    "feature_id": "878762",
    "feature_name": "Newark",
    "state_alpha": "NJ",
    "county_name": "Essex",
    "county_numeric": "013",
    "prim_lat_dec": "40.735657",
    "prim_long_dec": "-74.1723667",
    "elev_in_m": "10",
    "elev_in_ft": "33",
    "lat": 40.735657,
    "long": -74.1723667
  },
  {
    "globaleventid": 263188191,
    "sqldate": 20130813,
    "monthyear": 201308,
    "year": 2013,
    "fractiondate": "2013.611",
    "eventcode": 190,
    "quadclass": 4,
    "nummentions": 2,
    "numsources": 1,
    "numarticles": 2,
    "avgtone": "1.3715710723192",
    "sourceurl": "http://www.dailymail.co.uk/news/article-2392017/Did-IRSs-Lois-Lerner-use-secret-email-personal-account-order-targeting-tea-party-groups.html",
    "feature_id": "531871",
    "feature_name": "Washington",
    "state_alpha": "DC",
    "county_name": "District of Columbia",
    "county_numeric": "001",
    "prim_lat_dec": "38.8951118",
    "prim_long_dec": "-77.0363658",
    "elev_in_m": "7",
    "elev_in_ft": "23",
    "lat": 38.8951118,
    "long": -77.0363658
  },
  {
    "globaleventid": 263188189,
    "sqldate": 20130813,
    "monthyear": 201308,
    "year": 2013,
    "fractiondate": "2013.611",
    "eventcode": 190,
    "quadclass": 4,
    "nummentions": 2,
    "numsources": 1,
    "numarticles": 2,
    "avgtone": "4.11599625818522",
    "sourceurl": "http://www.huffingtonpost.com/2013/08/12/depauw-top-party-school_n_3741035.html?ir=College",
    "feature_id": "452890",
    "feature_name": "Indianapolis",
    "state_alpha": "IN",
    "county_name": "Marion",
    "county_numeric": "097",
    "prim_lat_dec": "39.7683765",
    "prim_long_dec": "-86.1580423",
    "elev_in_m": "219",
    "elev_in_ft": "718",
    "lat": 39.7683765,
    "long": -86.1580423
  },
  {
    "globaleventid": 263188188,
    "sqldate": 20130813,
    "monthyear": 201308,
    "year": 2013,
    "fractiondate": "2013.611",
    "eventcode": 190,
    "quadclass": 4,
    "nummentions": 1,
    "numsources": 1,
    "numarticles": 1,
    "avgtone": "4.11599625818522",
    "sourceurl": "http://www.huffingtonpost.com/2013/08/12/depauw-top-party-school_n_3741035.html?ir=College",
    "feature_id": "452074",
    "feature_name": "Princeton",
    "state_alpha": "IN",
    "county_name": "Gibson",
    "county_numeric": "051",
    "prim_lat_dec": "38.3553236",
    "prim_long_dec": "-87.5675223",
    "elev_in_m": "152",
    "elev_in_ft": "499",
    "lat": 38.3553236,
    "long": -87.5675223
  },
  {
    "globaleventid": 263188187,
    "sqldate": 20130813,
    "monthyear": 201308,
    "year": 2013,
    "fractiondate": "2013.611",
    "eventcode": 190,
    "quadclass": 4,
    "nummentions": 6,
    "numsources": 1,
    "numarticles": 6,
    "avgtone": "2.1978021978022",
    "sourceurl": "http://www.htrnews.com/viewart/20130811/MAN0101/308120121",
    "feature_id": "400590",
    "feature_name": "Boise",
    "state_alpha": "ID",
    "county_name": "Ada",
    "county_numeric": "001",
    "prim_lat_dec": "43.6135002",
    "prim_long_dec": "-116.2034505",
    "elev_in_m": "823",
    "elev_in_ft": "2700",
    "lat": 43.6135002,
    "long": -116.2034505
  },
  {
    "globaleventid": 263188186,
    "sqldate": 20130813,
    "monthyear": 201308,
    "year": 2013,
    "fractiondate": "2013.611",
    "eventcode": 190,
    "quadclass": 4,
    "nummentions": 6,
    "numsources": 1,
    "numarticles": 6,
    "avgtone": "1.25",
    "sourceurl": "http://www.therepublic.com/view/story/1054ec47723543d699aa5f8370c48893/HI--Waianae-Wildfire",
    "feature_id": "364549",
    "feature_name": "Wai?anae",
    "state_alpha": "HI",
    "county_name": "Honolulu",
    "county_numeric": "003",
    "prim_lat_dec": "21.4434",
    "prim_long_dec": "-158.18587",
    "elev_in_m": "5",
    "elev_in_ft": "16",
    "lat": 21.4434,
    "long": -158.18587
  },
  {
    "globaleventid": 263188183,
    "sqldate": 20130813,
    "monthyear": 201308,
    "year": 2013,
    "fractiondate": "2013.611",
    "eventcode": 190,
    "quadclass": 4,
    "nummentions": 2,
    "numsources": 1,
    "numarticles": 2,
    "avgtone": "1.00502512562814",
    "sourceurl": "http://www.deseretnews.com/article/865584572/3-homes-burned-in-quick-moving-fire-near-Rockport.html",
    "feature_id": "1444206",
    "feature_name": "Park City",
    "state_alpha": "UT",
    "county_name": "Summit",
    "county_numeric": "043",
    "prim_lat_dec": "40.6460622",
    "prim_long_dec": "-111.4979729",
    "elev_in_m": "2144",
    "elev_in_ft": "7034",
    "lat": 40.6460622,
    "long": -111.4979729
  },
  {
    "globaleventid": 263188182,
    "sqldate": 20130813,
    "monthyear": 201308,
    "year": 2013,
    "fractiondate": "2013.611",
    "eventcode": 190,
    "quadclass": 4,
    "nummentions": 2,
    "numsources": 1,
    "numarticles": 2,
    "avgtone": "0.789473684210526",
    "sourceurl": "http://www.therepublic.com/view/story/1251b2c6d4a34967b2e67f0684d9901b/UT--Utah-Wildfires",
    "feature_id": "398088",
    "feature_name": "Samaria",
    "state_alpha": "ID",
    "county_name": "Oneida",
    "county_numeric": "071",
    "prim_lat_dec": "42.1176987",
    "prim_long_dec": "-112.3369117",
    "elev_in_m": "1365",
    "elev_in_ft": "4478",
    "lat": 42.1176987,
    "long": -112.3369117
  },
  {
    "globaleventid": 263188181,
    "sqldate": 20130813,
    "monthyear": 201308,
    "year": 2013,
    "fractiondate": "2013.611",
    "eventcode": 190,
    "quadclass": 4,
    "nummentions": 17,
    "numsources": 2,
    "numarticles": 17,
    "avgtone": "0.232198142414861",
    "sourceurl": "http://www.heraldextra.com/news/state-and-regional/utah/hundreds-work-to-contain-growing-utah-wildfires/article_f45e7789-f38e-5ed1-a4dd-4e95718a4f4b.html",
    "feature_id": "1443496",
    "feature_name": "Millville",
    "state_alpha": "UT",
    "county_name": "Cache",
    "county_numeric": "005",
    "prim_lat_dec": "41.6815987",
    "prim_long_dec": "-111.8229982",
    "elev_in_m": "1407",
    "elev_in_ft": "4616",
    "lat": 41.6815987,
    "long": -111.8229982
  },
  {
    "globaleventid": 263188180,
    "sqldate": 20130813,
    "monthyear": 201308,
    "year": 2013,
    "fractiondate": "2013.611",
    "eventcode": 190,
    "quadclass": 4,
    "nummentions": 5,
    "numsources": 2,
    "numarticles": 5,
    "avgtone": "0.157894736842105",
    "sourceurl": "http://www.heraldextra.com/news/state-and-regional/utah/hundreds-work-to-contain-growing-utah-wildfires/article_f45e7789-f38e-5ed1-a4dd-4e95718a4f4b.html",
    "feature_id": "1443496",
    "feature_name": "Millville",
    "state_alpha": "UT",
    "county_name": "Cache",
    "county_numeric": "005",
    "prim_lat_dec": "41.6815987",
    "prim_long_dec": "-111.8229982",
    "elev_in_m": "1407",
    "elev_in_ft": "4616",
    "lat": 41.6815987,
    "long": -111.8229982
  },
  {
    "globaleventid": 263188175,
    "sqldate": 20130813,
    "monthyear": 201308,
    "year": 2013,
    "fractiondate": "2013.611",
    "eventcode": 190,
    "quadclass": 4,
    "nummentions": 1,
    "numsources": 1,
    "numarticles": 1,
    "avgtone": "4.54545454545455",
    "sourceurl": "http://www.bullardnews.com/news/2013-08-14/Front_Page/Boy_Scouts_have_busy_summer.html",
    "feature_id": "1380948",
    "feature_name": "Houston",
    "state_alpha": "TX",
    "county_name": "Harris",
    "county_numeric": "201",
    "prim_lat_dec": "29.7632836",
    "prim_long_dec": "-95.3632715",
    "elev_in_m": "11",
    "elev_in_ft": "36",
    "lat": 29.7632836,
    "long": -95.3632715
  },
  {
    "globaleventid": 263188174,
    "sqldate": 20130813,
    "monthyear": 201308,
    "year": 2013,
    "fractiondate": "2013.611",
    "eventcode": 190,
    "quadclass": 4,
    "nummentions": 10,
    "numsources": 1,
    "numarticles": 10,
    "avgtone": "1.57170923379175",
    "sourceurl": "http://www.lakewyliepilot.com/2013/08/11/2017481/firefighters-make-progress-battling.html",
    "feature_id": "1233775",
    "feature_name": "Lake Wylie",
    "state_alpha": "SC",
    "county_name": "York",
    "county_numeric": "091",
    "prim_lat_dec": "35.108476",
    "prim_long_dec": "-81.0428538",
    "elev_in_m": "179",
    "elev_in_ft": "587",
    "lat": 35.108476,
    "long": -81.0428538
  },
  {
    "globaleventid": 263188172,
    "sqldate": 20130813,
    "monthyear": 201308,
    "year": 2013,
    "fractiondate": "2013.611",
    "eventcode": 190,
    "quadclass": 4,
    "nummentions": 10,
    "numsources": 1,
    "numarticles": 10,
    "avgtone": "0.0",
    "sourceurl": "http://www.fox19.com/story/23122848/firefighters-battle-blaze-at-linnemann-funeral-home",
    "feature_id": "1066650",
    "feature_name": "Cincinnati",
    "state_alpha": "OH",
    "county_name": "Hamilton",
    "county_numeric": "061",
    "prim_lat_dec": "39.1620036",
    "prim_long_dec": "-84.4568863",
    "elev_in_m": "191",
    "elev_in_ft": "627",
    "lat": 39.1620036,
    "long": -84.4568863
  },
  {
    "globaleventid": 263188169,
    "sqldate": 20130813,
    "monthyear": 201308,
    "year": 2013,
    "fractiondate": "2013.611",
    "eventcode": 186,
    "quadclass": 4,
    "nummentions": 2,
    "numsources": 1,
    "numarticles": 2,
    "avgtone": "2.08333333333333",
    "sourceurl": "http://www.insideindianabusiness.com/newsitem.asp?ID=60842",
    "feature_id": "431671",
    "feature_name": "Brunswick",
    "state_alpha": "IN",
    "county_name": "Clay",
    "county_numeric": "021",
    "prim_lat_dec": "39.1969869",
    "prim_long_dec": "-87.1200124",
    "elev_in_m": "160",
    "elev_in_ft": "525",
    "lat": 39.1969869,
    "long": -87.1200124
  },
  {
    "globaleventid": 263188168,
    "sqldate": 20130813,
    "monthyear": 201308,
    "year": 2013,
    "fractiondate": "2013.611",
    "eventcode": 186,
    "quadclass": 4,
    "nummentions": 2,
    "numsources": 1,
    "numarticles": 2,
    "avgtone": "2.08333333333333",
    "sourceurl": "http://www.insideindianabusiness.com/newsitem.asp?ID=60842",
    "feature_id": "431671",
    "feature_name": "Brunswick",
    "state_alpha": "IN",
    "county_name": "Clay",
    "county_numeric": "021",
    "prim_lat_dec": "39.1969869",
    "prim_long_dec": "-87.1200124",
    "elev_in_m": "160",
    "elev_in_ft": "525",
    "lat": 39.1969869,
    "long": -87.1200124
  },
  {
    "globaleventid": 263188167,
    "sqldate": 20130813,
    "monthyear": 201308,
    "year": 2013,
    "fractiondate": "2013.611",
    "eventcode": 186,
    "quadclass": 4,
    "nummentions": 18,
    "numsources": 3,
    "numarticles": 18,
    "avgtone": "2.36742306674011",
    "sourceurl": "http://www.scientificamerican.com/article.cfm?id=insight-california-aims-to-bottle-sunshine-solar-energy",
    "feature_id": "277593",
    "feature_name": "San Francisco",
    "state_alpha": "CA",
    "county_name": "San Francisco",
    "county_numeric": "075",
    "prim_lat_dec": "37.775",
    "prim_long_dec": "-122.4194444",
    "elev_in_m": "16",
    "elev_in_ft": "52",
    "lat": 37.775,
    "long": -122.4194444
  },
  {
    "globaleventid": 263188164,
    "sqldate": 20130813,
    "monthyear": 201308,
    "year": 2013,
    "fractiondate": "2013.611",
    "eventcode": 182,
    "quadclass": 4,
    "nummentions": 2,
    "numsources": 1,
    "numarticles": 2,
    "avgtone": "1.30434782608696",
    "sourceurl": "http://www.sfgate.com/crime/article/Sunnyvale-victim-IDd-as-killer-s-wife-4729203.php",
    "feature_id": "277593",
    "feature_name": "San Francisco",
    "state_alpha": "CA",
    "county_name": "San Francisco",
    "county_numeric": "075",
    "prim_lat_dec": "37.775",
    "prim_long_dec": "-122.4194444",
    "elev_in_m": "16",
    "elev_in_ft": "52",
    "lat": 37.775,
    "long": -122.4194444
  },
  {
    "globaleventid": 263188160,
    "sqldate": 20130813,
    "monthyear": 201308,
    "year": 2013,
    "fractiondate": "2013.611",
    "eventcode": 181,
    "quadclass": 4,
    "nummentions": 10,
    "numsources": 1,
    "numarticles": 10,
    "avgtone": "0.0",
    "sourceurl": "http://www.winknews.com/Local-Florida/2013-08-13/Police-search-for-Fla-woman-taken-from-front-yard",
    "feature_id": "295003",
    "feature_name": "Jacksonville",
    "state_alpha": "FL",
    "county_name": "Duval",
    "county_numeric": "031",
    "prim_lat_dec": "30.3321838",
    "prim_long_dec": "-81.655651",
    "elev_in_m": "5",
    "elev_in_ft": "16",
    "lat": 30.3321838,
    "long": -81.655651
  },