[
  {
    "globaleventid": 316734884,
    "sqldate": 20131003,
    "monthyear": 201310,
    "year": 2013,
    "fractiondate": "2013.7479",
    "eventcode": 190,
    "quadclass": 4,
    "nummentions": 2,
    "numsources": 1,
    "numarticles": 2,
    "avgtone": "0.0",
    "sourceurl": "http://m.wbex.com/articles/local-news-stories-chillicothe-106759/annies-law-vote-delayed-in-statehouse-12826189",
    "feature_id": "1060960",
    "feature_name": "Chillicothe",
    "state_alpha": "OH",
    "county_name": "Ross",
    "county_numeric": "141",
    "prim_lat_dec": "39.3331197",
    "prim_long_dec": "-82.9824019",
    "elev_in_m": "193",
    "elev_in_ft": "633",
    "lat": 39.3331197,
    "long": -82.9824019
  },
  {
    "globaleventid": 316734883,
    "sqldate": 20131003,
    "monthyear": 201310,
    "year": 2013,
    "fractiondate": "2013.7479",
    "eventcode": 173,
    "quadclass": 4,
    "nummentions": 2,
    "numsources": 1,
    "numarticles": 2,
    "avgtone": "0.0",
    "sourceurl": "http://m.wbex.com/articles/local-news-stories-chillicothe-106759/annies-law-vote-delayed-in-statehouse-12826189",
    "feature_id": "1060960",
    "feature_name": "Chillicothe",
    "state_alpha": "OH",
    "county_name": "Ross",
    "county_numeric": "141",
    "prim_lat_dec": "39.3331197",
    "prim_long_dec": "-82.9824019",
    "elev_in_m": "193",
    "elev_in_ft": "633",
    "lat": 39.3331197,
    "long": -82.9824019
  },
  {
    "globaleventid": 316734877,
    "sqldate": 20131003,
    "monthyear": 201310,
    "year": 2013,
    "fractiondate": "2013.7479",
    "eventcode": 128,
    "quadclass": 3,
    "nummentions": 1,
    "numsources": 1,
    "numarticles": 1,
    "avgtone": "1.85185185185185",
    "sourceurl": "http://www.news-journal.com/opinion/pitts-blundering-secret-service-needs-to-step-up-its-game/article_1802870d-8b12-5cbe-a8aa-70329ac2c293.html",
    "feature_id": "295004",
    "feature_name": "Miami",
    "state_alpha": "FL",
    "county_name": "Miami-Dade",
    "county_numeric": "086",
    "prim_lat_dec": "25.7742658",
    "prim_long_dec": "-80.1936589",
    "elev_in_m": "2",
    "elev_in_ft": "7",
    "lat": 25.7742658,
    "long": -80.1936589
  },
  {
    "globaleventid": 316734876,
    "sqldate": 20131003,
    "monthyear": 201310,
    "year": 2013,
    "fractiondate": "2013.7479",
    "eventcode": 128,
    "quadclass": 3,
    "nummentions": 3,
    "numsources": 2,
    "numarticles": 3,
    "avgtone": "1.94449170967803",
    "sourceurl": "http://www.freep.com/story/opinion/contributors/2014/10/03/white-house-crashers-lead-questions-secret-service/16597823/",
    "feature_id": "1660757",
    "feature_name": "Hollywood",
    "state_alpha": "CA",
    "county_name": "Los Angeles",
    "county_numeric": "037",
    "prim_lat_dec": "34.0983425",
    "prim_long_dec": "-118.3267434",
    "elev_in_m": "108",
    "elev_in_ft": "354",
    "lat": 34.0983425,
    "long": -118.3267434
  },
  {
    "globaleventid": 316734842,
    "sqldate": 20131003,
    "monthyear": 201310,
    "year": 2013,
    "fractiondate": "2013.7479",
    "eventcode": 111,
    "quadclass": 3,
    "nummentions": 1,
    "numsources": 1,
    "numarticles": 1,
    "avgtone": "0.917431192660551",
    "sourceurl": "http://www.nydailynews.com/news/politics/defense-secretary-panetta-obama-blew-syria-article-1.1962952",
    "feature_id": "531871",
    "feature_name": "Washington",
    "state_alpha": "DC",
    "county_name": "District of Columbia",
    "county_numeric": "001",
    "prim_lat_dec": "38.8951118",
    "prim_long_dec": "-77.0363658",
    "elev_in_m": "7",
    "elev_in_ft": "23",
    "lat": 38.8951118,
    "long": -77.0363658
  },
  {
    "globaleventid": 316734806,
    "sqldate": 20131003,
    "monthyear": 201310,
    "year": 2013,
    "fractiondate": "2013.7479",
    "eventcode": 173,
    "quadclass": 4,
    "nummentions": 8,
    "numsources": 1,
    "numarticles": 8,
    "avgtone": "1.5645371577575",
    "sourceurl": "http://www.berkshireeagle.com/news/ci_26658113/appeals-court-tosses-conviction-pittsfield-man-fatal-2010",
    "feature_id": "617565",
    "feature_name": "Boston",
    "state_alpha": "MA",
    "county_name": "Suffolk",
    "county_numeric": "025",
    "prim_lat_dec": "42.3584308",
    "prim_long_dec": "-71.0597732",
    "elev_in_m": "14",
    "elev_in_ft": "46",
    "lat": 42.3584308,
    "long": -71.0597732
  },
  {
    "globaleventid": 316734805,
    "sqldate": 20131003,
    "monthyear": 201310,
    "year": 2013,
    "fractiondate": "2013.7479",
    "eventcode": 173,
    "quadclass": 4,
    "nummentions": 2,
    "numsources": 1,
    "numarticles": 2,
    "avgtone": "1.5645371577575",
    "sourceurl": "http://www.berkshireeagle.com/news/ci_26658113/appeals-court-tosses-conviction-pittsfield-man-fatal-2010",
    "feature_id": "617565",
    "feature_name": "Boston",
    "state_alpha": "MA",
    "county_name": "Suffolk",
    "county_numeric": "025",
    "prim_lat_dec": "42.3584308",
    "prim_long_dec": "-71.0597732",
    "elev_in_m": "14",
    "elev_in_ft": "46",
    "lat": 42.3584308,
    "long": -71.0597732
  },
  {
    "globaleventid": 316734797,
    "sqldate": 20131003,
    "monthyear": 201310,
    "year": 2013,
    "fractiondate": "2013.7479",
    "eventcode": 110,
    "quadclass": 3,
    "nummentions": 4,
    "numsources": 1,
    "numarticles": 4,
    "avgtone": "2.1324354657688",
    "sourceurl": "http://original.antiwar.com/daniel-ellsberg/2014/10/02/daniel-ellsberg-sees-vietnam-like-risks-in-isis-war/",
    "feature_id": "531871",
    "feature_name": "Washington",
    "state_alpha": "DC",
    "county_name": "District of Columbia",
    "county_numeric": "001",
    "prim_lat_dec": "38.8951118",
    "prim_long_dec": "-77.0363658",
    "elev_in_m": "7",
    "elev_in_ft": "23",
    "lat": 38.8951118,
    "long": -77.0363658
  },
  {
    "globaleventid": 316734782,
    "sqldate": 20131003,
    "monthyear": 201310,
    "year": 2013,
    "fractiondate": "2013.7479",
    "eventcode": 180,
    "quadclass": 4,
    "nummentions": 6,
    "numsources": 1,
    "numarticles": 6,
    "avgtone": "1.99081163859112",
    "sourceurl": "http://www.freep.com/story/opinion/contributors/2014/10/03/white-house-crashers-lead-questions-secret-service/16597823/",
    "feature_id": "1660757",
    "feature_name": "Hollywood",
    "state_alpha": "CA",
    "county_name": "Los Angeles",
    "county_numeric": "037",
    "prim_lat_dec": "34.0983425",
    "prim_long_dec": "-118.3267434",
    "elev_in_m": "108",
    "elev_in_ft": "354",
    "lat": 34.0983425,
    "long": -118.3267434
  },
  {
    "globaleventid": 316734746,
    "sqldate": 20131003,
    "monthyear": 201310,
    "year": 2013,
    "fractiondate": "2013.7479",
    "eventcode": 193,
    "quadclass": 4,
    "nummentions": 32,
    "numsources": 4,
    "numarticles": 32,
    "avgtone": "1.44435852393532",
    "sourceurl": "http://www.sfgate.com/news/crime/article/Lawsuit-filed-against-ex-state-trooper-5799293.php",
    "feature_id": "1100962",
    "feature_name": "Tulsa",
    "state_alpha": "OK",
    "county_name": "Tulsa",
    "county_numeric": "143",
    "prim_lat_dec": "36.1539816",
    "prim_long_dec": "-95.992775",
    "elev_in_m": "220",
    "elev_in_ft": "722",
    "lat": 36.1539816,
    "long": -95.992775
  },
  {
    "globaleventid": 316734744,
    "sqldate": 20131003,
    "monthyear": 201310,
    "year": 2013,
    "fractiondate": "2013.7479",
    "eventcode": 173,
    "quadclass": 4,
    "nummentions": 4,
    "numsources": 1,
    "numarticles": 4,
    "avgtone": "0.0",
    "sourceurl": "http://www.tribtown.com/view/story/057acd7ce2ce493887f67dd0285049fb/KS--Motel-Death",
    "feature_id": "485477",
    "feature_name": "Topeka",
    "state_alpha": "KS",
    "county_name": "Shawnee",
    "county_numeric": "177",
    "prim_lat_dec": "39.0483336",
    "prim_long_dec": "-95.6780371",
    "elev_in_m": "289",
    "elev_in_ft": "948",
    "lat": 39.0483336,
    "long": -95.6780371
  },
  {
    "globaleventid": 316734740,
    "sqldate": 20131003,
    "monthyear": 201310,
    "year": 2013,
    "fractiondate": "2013.7479",
    "eventcode": 173,
    "quadclass": 4,
    "nummentions": 48,
    "numsources": 6,
    "numarticles": 48,
    "avgtone": "0.721511565274602",
    "sourceurl": "http://www.chron.com/news/crime/article/man-sentenced-in-fire-that-killed-4-children-5799385.php",
    "feature_id": "405578",
    "feature_name": "Carbondale",
    "state_alpha": "IL",
    "county_name": "Jackson",
    "county_numeric": "077",
    "prim_lat_dec": "37.7272727",
    "prim_long_dec": "-89.2167501",
    "elev_in_m": "126",
    "elev_in_ft": "413",
    "lat": 37.7272727,
    "long": -89.2167501
  },
  {
    "globaleventid": 316734737,
    "sqldate": 20131003,
    "monthyear": 201310,
    "year": 2013,
    "fractiondate": "2013.7479",
    "eventcode": 173,
    "quadclass": 4,
    "nummentions": 36,
    "numsources": 6,
    "numarticles": 36,
    "avgtone": "0.0",
    "sourceurl": "http://www.sfgate.com/news/crime/article/Kansas-man-sentenced-to-life-in-woman-s-slaying-5799837.php",
    "feature_id": "485477",
    "feature_name": "Topeka",
    "state_alpha": "KS",
    "county_name": "Shawnee",
    "county_numeric": "177",
    "prim_lat_dec": "39.0483336",
    "prim_long_dec": "-95.6780371",
    "elev_in_m": "289",
    "elev_in_ft": "948",
    "lat": 39.0483336,
    "long": -95.6780371
  },
  {
    "globaleventid": 316734735,
    "sqldate": 20131003,
    "monthyear": 201310,
    "year": 2013,
    "fractiondate": "2013.7479",
    "eventcode": 173,
    "quadclass": 4,
    "nummentions": 20,
    "numsources": 5,
    "numarticles": 20,
    "avgtone": "0.0",
    "sourceurl": "http://www.nwherald.com/2014/10/03/illinois-man-pleads-guilty-in-granite-city-home-invasion-hammer-beating/alrb5i9/",
    "feature_id": "409282",
    "feature_name": "Granite City",
    "state_alpha": "IL",
    "county_name": "Madison",
    "county_numeric": "119",
    "prim_lat_dec": "38.7014389",
    "prim_long_dec": "-90.1487199",
    "elev_in_m": "129",
    "elev_in_ft": "423",
    "lat": 38.7014389,
    "long": -90.1487199
  },
  {
    "globaleventid": 316734734,
    "sqldate": 20131003,
    "monthyear": 201310,
    "year": 2013,
    "fractiondate": "2013.7479",
    "eventcode": 173,
    "quadclass": 4,
    "nummentions": 10,
    "numsources": 1,
    "numarticles": 10,
    "avgtone": "0.0",
    "sourceurl": "http://www.chron.com/news/crime/article/Gardiner-man-gets-3-years-for-2-pharmacy-robberies-5798270.php",
    "feature_id": "1380948",
    "feature_name": "Houston",
    "state_alpha": "TX",
    "county_name": "Harris",
    "county_numeric": "201",
    "prim_lat_dec": "29.7632836",
    "prim_long_dec": "-95.3632715",
    "elev_in_m": "11",
    "elev_in_ft": "36",
    "lat": 29.7632836,
    "long": -95.3632715
  },
  {
    "globaleventid": 316734726,
    "sqldate": 20131003,
    "monthyear": 201310,
    "year": 2013,
    "fractiondate": "2013.7479",
    "eventcode": 1723,
    "quadclass": 4,
    "nummentions": 8,
    "numsources": 1,
    "numarticles": 8,
    "avgtone": "1.13636363636364",
    "sourceurl": "http://www.bizjournals.com/twincities/morning_roundup/2014/10/next-stop-for-anthropologie-mall-of-america.html?utm_source=feedburner&utm_medium=feed&utm_campaign=Feed%3A+bizj_twincities+%28Minneapolis+%2F+St.+Paul+Business+Journal%29",
    "feature_id": "1659053",
    "feature_name": "Maple Grove",
    "state_alpha": "CA",
    "county_name": "Humboldt",
    "county_numeric": "023",
    "prim_lat_dec": "40.4690283",
    "prim_long_dec": "-123.8336524",
    "elev_in_m": "164",
    "elev_in_ft": "538",
    "lat": 40.4690283,
    "long": -123.8336524
  },
  {
    "globaleventid": 316734348,
    "sqldate": 20131003,
    "monthyear": 201310,
    "year": 2013,
    "fractiondate": "2013.7479",
    "eventcode": 170,
    "quadclass": 4,
    "nummentions": 8,
    "numsources": 1,
    "numarticles": 8,
    "avgtone": "3.125",
    "sourceurl": "http://www.defensenews.com/article/20141003/DEFREG03/310030035",
    "feature_id": "1652747",
    "feature_name": "Long Beach",
    "state_alpha": "CA",
    "county_name": "Los Angeles",
    "county_numeric": "037",
    "prim_lat_dec": "33.7669623",
    "prim_long_dec": "-118.1892348",
    "elev_in_m": "9",
    "elev_in_ft": "30",
    "lat": 33.7669623,
    "long": -118.1892348
  },
  {
    "globaleventid": 316734347,
    "sqldate": 20131003,
    "monthyear": 201310,
    "year": 2013,
    "fractiondate": "2013.7479",
    "eventcode": 170,
    "quadclass": 4,
    "nummentions": 12,
    "numsources": 1,
    "numarticles": 12,
    "avgtone": "3.125",
    "sourceurl": "http://www.defensenews.com/article/20141003/DEFREG03/310030035",
    "feature_id": "1652747",
    "feature_name": "Long Beach",
    "state_alpha": "CA",
    "county_name": "Los Angeles",
    "county_numeric": "037",
    "prim_lat_dec": "33.7669623",
    "prim_long_dec": "-118.1892348",
    "elev_in_m": "9",
    "elev_in_ft": "30",
    "lat": 33.7669623,
    "long": -118.1892348
  },
  {
    "globaleventid": 316734197,
    "sqldate": 20131003,
    "monthyear": 201310,
    "year": 2013,
    "fractiondate": "2013.7479",
    "eventcode": 173,
    "quadclass": 4,
    "nummentions": 8,
    "numsources": 2,
    "numarticles": 8,
    "avgtone": "0.76656484962406",
    "sourceurl": "http://www.wkrg.com/story/26699989/pit-bull-owner-gets-prison-for-fatal-dog-attack",
    "feature_id": "1662328",
    "feature_name": "Los Angeles",
    "state_alpha": "CA",
    "county_name": "Los Angeles",
    "county_numeric": "037",
    "prim_lat_dec": "34.0522342",
    "prim_long_dec": "-118.2436849",
    "elev_in_m": "89",
    "elev_in_ft": "292",
    "lat": 34.0522342,
    "long": -118.2436849
  },
  {
    "globaleventid": 316734186,
    "sqldate": 20131003,
    "monthyear": 201310,
    "year": 2013,
    "fractiondate": "2013.7479",
    "eventcode": 114,
    "quadclass": 3,
    "nummentions": 6,
    "numsources": 1,
    "numarticles": 6,
    "avgtone": "1.46699266503667",
    "sourceurl": "http://www.statesman.com/news/news/crime-law/rick-perrys-attorneys-file-another-motion-to-dismi/nhbXD/",
    "feature_id": "1380951",
    "feature_name": "San Antonio",
    "state_alpha": "TX",
    "county_name": "Bexar",
    "county_numeric": "029",
    "prim_lat_dec": "29.4241219",
    "prim_long_dec": "-98.4936282",
    "elev_in_m": "198",
    "elev_in_ft": "650",
    "lat": 29.4241219,
    "long": -98.4936282
  },
  {
    "globaleventid": 316734063,
    "sqldate": 20131003,
    "monthyear": 201310,
    "year": 2013,
    "fractiondate": "2013.7479",
    "eventcode": 182,
    "quadclass": 4,
    "nummentions": 2,
    "numsources": 1,
    "numarticles": 2,
    "avgtone": "4.39297124600639",
    "sourceurl": "http://sandiegofreepress.org/2014/10/for-walkers-and-cyclists-a-swedish-road-planning-strategy-helps-save-lives/",
    "feature_id": "531871",
    "feature_name": "Washington",
    "state_alpha": "DC",
    "county_name": "District of Columbia",
    "county_numeric": "001",
    "prim_lat_dec": "38.8951118",
    "prim_long_dec": "-77.0363658",
    "elev_in_m": "7",
    "elev_in_ft": "23",
    "lat": 38.8951118,
    "long": -77.0363658
  },
  {
    "globaleventid": 316734062,
    "sqldate": 20131003,
    "monthyear": 201310,
    "year": 2013,
    "fractiondate": "2013.7479",
    "eventcode": 182,
    "quadclass": 4,
    "nummentions": 3,
    "numsources": 1,
    "numarticles": 3,
    "avgtone": "4.39297124600639",
    "sourceurl": "http://sandiegofreepress.org/2014/10/for-walkers-and-cyclists-a-swedish-road-planning-strategy-helps-save-lives/",
    "feature_id": "277593",
    "feature_name": "San Francisco",
    "state_alpha": "CA",
    "county_name": "San Francisco",
    "county_numeric": "075",
    "prim_lat_dec": "37.775",
    "prim_long_dec": "-122.4194444",
    "elev_in_m": "16",
    "elev_in_ft": "52",
    "lat": 37.775,
    "long": -122.4194444
  },
  {
    "globaleventid": 316733759,
    "sqldate": 20131003,
    "monthyear": 201310,
    "year": 2013,
    "fractiondate": "2013.7479",
    "eventcode": 114,
    "quadclass": 3,
    "nummentions": 2,
    "numsources": 1,
    "numarticles": 2,
    "avgtone": "3.62694300518135",
    "sourceurl": "http://www.indiewire.com/anthony/whats-more-inane-than-2016-obamas-america-filmmakers-whining-about-oscar",
    "feature_id": "1660757",
    "feature_name": "Hollywood",
    "state_alpha": "CA",
    "county_name": "Los Angeles",
    "county_numeric": "037",
    "prim_lat_dec": "34.0983425",
    "prim_long_dec": "-118.3267434",
    "elev_in_m": "108",
    "elev_in_ft": "354",
    "lat": 34.0983425,
    "long": -118.3267434
  },
  {
    "globaleventid": 316733757,
    "sqldate": 20131003,
    "monthyear": 201310,
    "year": 2013,
    "fractiondate": "2013.7479",
    "eventcode": 193,
    "quadclass": 4,
    "nummentions": 2,
    "numsources": 1,
    "numarticles": 2,
    "avgtone": "0.67476383265857",
    "sourceurl": "http://blogs.rollcall.com/hill-blotter/one-year-later-family-protests-miriam-carey-shooting-on-capitol-hill/?dcz=",
    "feature_id": "529313",
    "feature_name": "Capitol Hill",
    "state_alpha": "DC",
    "county_name": "District of Columbia",
    "county_numeric": "001",
    "prim_lat_dec": "38.8890009",
    "prim_long_dec": "-77.0002537",
    "elev_in_m": "28",
    "elev_in_ft": "92",
    "lat": 38.8890009,
    "long": -77.0002537
  },
  {
    "globaleventid": 316733656,
    "sqldate": 20131003,
    "monthyear": 201310,
    "year": 2013,
    "fractiondate": "2013.7479",
    "eventcode": 173,
    "quadclass": 4,
    "nummentions": 9,
    "numsources": 2,
    "numarticles": 9,
    "avgtone": "2.7807300774406",
    "sourceurl": "http://www.bloomberg.com/news/2014-10-03/oxycontin-cialis-makers-dodge-court-to-beat-patent-suits.html",
    "feature_id": "1662328",
    "feature_name": "Los Angeles",
    "state_alpha": "CA",
    "county_name": "Los Angeles",
    "county_numeric": "037",
    "prim_lat_dec": "34.0522342",
    "prim_long_dec": "-118.2436849",
    "elev_in_m": "89",
    "elev_in_ft": "292",
    "lat": 34.0522342,
    "long": -118.2436849
  },
  {
    "globaleventid": 316733551,
    "sqldate": 20131003,
    "monthyear": 201310,
    "year": 2013,
    "fractiondate": "2013.7479",
    "eventcode": 112,
    "quadclass": 3,
    "nummentions": 6,
    "numsources": 1,
    "numarticles": 6,
    "avgtone": "0.492610837438424",
    "sourceurl": "https://au.news.yahoo.com/thewest/wa/a/25178055/lloyd-rayney-to-face-charges-he-bugged-wife-corryns-phone-calls/",
    "feature_id": "531871",
    "feature_name": "Washington",
    "state_alpha": "DC",
    "county_name": "District of Columbia",
    "county_numeric": "001",
    "prim_lat_dec": "38.8951118",
    "prim_long_dec": "-77.0363658",
    "elev_in_m": "7",
    "elev_in_ft": "23",
    "lat": 38.8951118,
    "long": -77.0363658
  },
  {
    "globaleventid": 316733512,
    "sqldate": 20131003,
    "monthyear": 201310,
    "year": 2013,
    "fractiondate": "2013.7479",
    "eventcode": 190,
    "quadclass": 4,
    "nummentions": 19,
    "numsources": 6,
    "numarticles": 19,
    "avgtone": "3.64907047080872",
    "sourceurl": "http://www.thenational.ae/ghani-leader-thanks-nato-troops-for-their-sacrifice",
    "feature_id": "531871",
    "feature_name": "Washington",
    "state_alpha": "DC",
    "county_name": "District of Columbia",
    "county_numeric": "001",
    "prim_lat_dec": "38.8951118",
    "prim_long_dec": "-77.0363658",
    "elev_in_m": "7",
    "elev_in_ft": "23",
    "lat": 38.8951118,
    "long": -77.0363658
  },
  {
    "globaleventid": 274118274,
    "sqldate": 20131003,
    "monthyear": 201310,
    "year": 2013,
    "fractiondate": "2013.7479",
    "eventcode": 162,
    "quadclass": 4,
    "nummentions": 10,
    "numsources": 6,
    "numarticles": 10,
    "avgtone": "3.84202751598773",
    "sourceurl": "http://www.globalpost.com/dispatch/news/thomson-reuters/131102/egypt-look-beyond-us-arms-foreign-minister",
    "feature_id": "531871",
    "feature_name": "Washington",
    "state_alpha": "DC",
    "county_name": "District of Columbia",
    "county_numeric": "001",
    "prim_lat_dec": "38.8951118",
    "prim_long_dec": "-77.0363658",
    "elev_in_m": "7",
    "elev_in_ft": "23",
    "lat": 38.8951118,
    "long": -77.0363658
  },
  {
    "globaleventid": 274118271,
    "sqldate": 20131003,
    "monthyear": 201310,
    "year": 2013,
    "fractiondate": "2013.7479",
    "eventcode": 162,
    "quadclass": 4,
    "nummentions": 10,
    "numsources": 6,
    "numarticles": 10,
    "avgtone": "3.84202751598773",
    "sourceurl": "http://www.globalpost.com/dispatch/news/thomson-reuters/131102/egypt-look-beyond-us-arms-foreign-minister",
    "feature_id": "531871",
    "feature_name": "Washington",
    "state_alpha": "DC",
    "county_name": "District of Columbia",
    "county_numeric": "001",
    "prim_lat_dec": "38.8951118",
    "prim_long_dec": "-77.0363658",
    "elev_in_m": "7",
    "elev_in_ft": "23",
    "lat": 38.8951118,
    "long": -77.0363658
  },
  {
    "globaleventid": 274117895,
    "sqldate": 20131003,
    "monthyear": 201310,
    "year": 2013,
    "fractiondate": "2013.7479",
    "eventcode": 172,
    "quadclass": 4,
    "nummentions": 2,
    "numsources": 1,
    "numarticles": 2,
    "avgtone": "2.88461538461538",
    "sourceurl": "http://www.channel3000.com/news/hunters-face-patchwork-of-weapon-regulations/-/1648/22772788/-/m3m9pq/-/index.html",
    "feature_id": "531871",
    "feature_name": "Washington",
    "state_alpha": "DC",
    "county_name": "District of Columbia",
    "county_numeric": "001",
    "prim_lat_dec": "38.8951118",
    "prim_long_dec": "-77.0363658",
    "elev_in_m": "7",
    "elev_in_ft": "23",
    "lat": 38.8951118,
    "long": -77.0363658
  },
  {
    "globaleventid": 274117894,
    "sqldate": 20131003,
    "monthyear": 201310,
    "year": 2013,
    "fractiondate": "2013.7479",
    "eventcode": 172,
    "quadclass": 4,
    "nummentions": 10,
    "numsources": 5,
    "numarticles": 10,
    "avgtone": "1.97951605737948",
    "sourceurl": "http://www.wsaw.com/home/headlines/230348071.html",
    "feature_id": "531871",
    "feature_name": "Washington",
    "state_alpha": "DC",
    "county_name": "District of Columbia",
    "county_numeric": "001",
    "prim_lat_dec": "38.8951118",
    "prim_long_dec": "-77.0363658",
    "elev_in_m": "7",
    "elev_in_ft": "23",
    "lat": 38.8951118,
    "long": -77.0363658
  },
  {
    "globaleventid": 274117893,
    "sqldate": 20131003,
    "monthyear": 201310,
    "year": 2013,
    "fractiondate": "2013.7479",
    "eventcode": 172,
    "quadclass": 4,
    "nummentions": 2,
    "numsources": 2,
    "numarticles": 2,
    "avgtone": "2.17530552043826",
    "sourceurl": "http://www.wjfw.com/stories.html?sku=20131102205440",
    "feature_id": "1565495",
    "feature_name": "Germantown",
    "state_alpha": "WI",
    "county_name": "Washington",
    "county_numeric": "131",
    "prim_lat_dec": "43.2286174",
    "prim_long_dec": "-88.1103691",
    "elev_in_m": "264",
    "elev_in_ft": "866",
    "lat": 43.2286174,
    "long": -88.1103691
  },
  {
    "globaleventid": 274117800,
    "sqldate": 20131003,
    "monthyear": 201310,
    "year": 2013,
    "fractiondate": "2013.7479",
    "eventcode": 173,
    "quadclass": 4,
    "nummentions": 4,
    "numsources": 2,
    "numarticles": 4,
    "avgtone": "2.33168526897459",
    "sourceurl": "http://www.firstpost.com/world/pakistani-taliban-chief-killed-in-drone-strike-1208779.html",
    "feature_id": "531871",
    "feature_name": "Washington",
    "state_alpha": "DC",
    "county_name": "District of Columbia",
    "county_numeric": "001",
    "prim_lat_dec": "38.8951118",
    "prim_long_dec": "-77.0363658",
    "elev_in_m": "7",
    "elev_in_ft": "23",
    "lat": 38.8951118,
    "long": -77.0363658
  },
  {
    "globaleventid": 270993052,
    "sqldate": 20131003,
    "monthyear": 201310,
    "year": 2013,
    "fractiondate": "2013.7479",
    "eventcode": 190,
    "quadclass": 4,
    "nummentions": 3,
    "numsources": 1,
    "numarticles": 3,
    "avgtone": "1.72413793103448",
    "sourceurl": "http://www.centraljersey.com/articles/2013/10/10/the_princeton_packet/news/doc52531a93aa0ba669476442.txt",
    "feature_id": "877654",
    "feature_name": "Lambertville",
    "state_alpha": "NJ",
    "county_name": "Hunterdon",
    "county_numeric": "019",
    "prim_lat_dec": "40.3659394",
    "prim_long_dec": "-74.9429448",
    "elev_in_m": "22",
    "elev_in_ft": "72",
    "lat": 40.3659394,
    "long": -74.9429448
  },
  {
    "globaleventid": 270992967,
    "sqldate": 20131003,
    "monthyear": 201310,
    "year": 2013,
    "fractiondate": "2013.7479",
    "eventcode": 127,
    "quadclass": 3,
    "nummentions": 10,
    "numsources": 1,
    "numarticles": 10,
    "avgtone": "2.20588235294118",
    "sourceurl": "http://www.thedailystar.net/beta2/news/republicans-using-extortion-on-debt-limit-says-obama/",
    "feature_id": "5213",
    "feature_name": "Grand Canyon",
    "state_alpha": "AZ",
    "county_name": "Coconino",
    "county_numeric": "005",
    "prim_lat_dec": "36.0544273",
    "prim_long_dec": "-112.139336",
    "elev_in_m": "2099",
    "elev_in_ft": "6886",
    "lat": 36.0544273,
    "long": -112.139336
  },
  {
    "globaleventid": 270992966,
    "sqldate": 20131003,
    "monthyear": 201310,
    "year": 2013,
    "fractiondate": "2013.7479",
    "eventcode": 120,
    "quadclass": 3,
    "nummentions": 10,
    "numsources": 1,
    "numarticles": 10,
    "avgtone": "2.20588235294118",
    "sourceurl": "http://www.thedailystar.net/beta2/news/republicans-using-extortion-on-debt-limit-says-obama/",
    "feature_id": "531871",
    "feature_name": "Washington",
    "state_alpha": "DC",
    "county_name": "District of Columbia",
    "county_numeric": "001",
    "prim_lat_dec": "38.8951118",
    "prim_long_dec": "-77.0363658",
    "elev_in_m": "7",
    "elev_in_ft": "23",
    "lat": 38.8951118,
    "long": -77.0363658
  },
  {
    "globaleventid": 270992957,
    "sqldate": 20131003,
    "monthyear": 201310,
    "year": 2013,
    "fractiondate": "2013.7479",
    "eventcode": 160,
    "quadclass": 4,
    "nummentions": 8,
    "numsources": 1,
    "numarticles": 8,
    "avgtone": "1.37457225033066",
    "sourceurl": "http://m.skynews.com.au/articles/TopStories/2013/10/04/US_budget_impasse_cans_Obama_APEC_trip_912114.html",
    "feature_id": "531871",
    "feature_name": "Washington",
    "state_alpha": "DC",
    "county_name": "District of Columbia",
    "county_numeric": "001",
    "prim_lat_dec": "38.8951118",
    "prim_long_dec": "-77.0363658",
    "elev_in_m": "7",
    "elev_in_ft": "23",
    "lat": 38.8951118,
    "long": -77.0363658
  },
  {
    "globaleventid": 270992947,
    "sqldate": 20131003,
    "monthyear": 201310,
    "year": 2013,
    "fractiondate": "2013.7479",
    "eventcode": 193,
    "quadclass": 4,
    "nummentions": 2,
    "numsources": 1,
    "numarticles": 2,
    "avgtone": "0.169779286926995",
    "sourceurl": "http://www.washingtontimes.com/news/2013/oct/10/secret-service-capitol-police-officers-reassigned-/",
    "feature_id": "531871",
    "feature_name": "Washington",
    "state_alpha": "DC",
    "county_name": "District of Columbia",
    "county_numeric": "001",
    "prim_lat_dec": "38.8951118",
    "prim_long_dec": "-77.0363658",
    "elev_in_m": "7",
    "elev_in_ft": "23",
    "lat": 38.8951118,
    "long": -77.0363658
  },
  {
    "globaleventid": 270992929,
    "sqldate": 20131003,
    "monthyear": 201310,
    "year": 2013,
    "fractiondate": "2013.7479",
    "eventcode": 180,
    "quadclass": 4,
    "nummentions": 12,
    "numsources": 1,
    "numarticles": 12,
    "avgtone": "0.0",
    "sourceurl": "http://www.foxnews.com/us/2013/10/10/philly-police-id-suspect-in-brutal-blind-man-beating/&c=A29-Eaokw9yQ8G3b9lz3vy-g4hE69a_tbFrhsuLa4eE&mkt=en-us",
    "feature_id": "1175560",
    "feature_name": "Germantown",
    "state_alpha": "PA",
    "county_name": "Adams",
    "county_numeric": "001",
    "prim_lat_dec": "39.7692651",
    "prim_long_dec": "-77.1480392",
    "elev_in_m": "178",
    "elev_in_ft": "584",
    "lat": 39.7692651,
    "long": -77.1480392
  },
  {
    "globaleventid": 270992923,
    "sqldate": 20131003,
    "monthyear": 201310,
    "year": 2013,
    "fractiondate": "2013.7479",
    "eventcode": 160,
    "quadclass": 4,
    "nummentions": 8,
    "numsources": 1,
    "numarticles": 8,
    "avgtone": "1.37457225033066",
    "sourceurl": "http://m.skynews.com.au/articles/TopStories/2013/10/04/US_budget_impasse_cans_Obama_APEC_trip_912114.html",
    "feature_id": "531871",
    "feature_name": "Washington",
    "state_alpha": "DC",
    "county_name": "District of Columbia",
    "county_numeric": "001",
    "prim_lat_dec": "38.8951118",
    "prim_long_dec": "-77.0363658",
    "elev_in_m": "7",
    "elev_in_ft": "23",
    "lat": 38.8951118,
    "long": -77.0363658
  },
  {
    "globaleventid": 270992910,
    "sqldate": 20131003,
    "monthyear": 201310,
    "year": 2013,
    "fractiondate": "2013.7479",
    "eventcode": 111,
    "quadclass": 3,
    "nummentions": 4,
    "numsources": 1,
    "numarticles": 4,
    "avgtone": "2.02839756592292",
    "sourceurl": "http://www.nydailynews.com/news/politics/mark-sanford-praises-man-memorial-mower-article-1.1481461",
    "feature_id": "531871",
    "feature_name": "Washington",
    "state_alpha": "DC",
    "county_name": "District of Columbia",
    "county_numeric": "001",
    "prim_lat_dec": "38.8951118",
    "prim_long_dec": "-77.0363658",
    "elev_in_m": "7",
    "elev_in_ft": "23",
    "lat": 38.8951118,
    "long": -77.0363658
  },
  {
    "globaleventid": 270992829,
    "sqldate": 20131003,
    "monthyear": 201310,
    "year": 2013,
    "fractiondate": "2013.7479",
    "eventcode": 193,
    "quadclass": 4,
    "nummentions": 2,
    "numsources": 1,
    "numarticles": 2,
    "avgtone": "0.174979733553588",
    "sourceurl": "http://www.washingtontimes.com/news/2013/oct/10/secret-service-capitol-police-officers-pulled-off-/",
    "feature_id": "531871",
    "feature_name": "Washington",
    "state_alpha": "DC",
    "county_name": "District of Columbia",
    "county_numeric": "001",
    "prim_lat_dec": "38.8951118",
    "prim_long_dec": "-77.0363658",
    "elev_in_m": "7",
    "elev_in_ft": "23",
    "lat": 38.8951118,
    "long": -77.0363658
  },
  {
    "globaleventid": 270245047,
    "sqldate": 20131003,
    "monthyear": 201310,
    "year": 2013,
    "fractiondate": "2013.7479",
    "eventcode": 173,
    "quadclass": 4,
    "nummentions": 4,
    "numsources": 1,
    "numarticles": 4,
    "avgtone": "1.22199592668024",
    "sourceurl": "http://www.newburyportnews.com/local/x1612857199/Woodman-Way-resident-charged-with-assault-after-fire",
    "feature_id": "614293",
    "feature_name": "Newburyport",
    "state_alpha": "MA",
    "county_name": "Essex",
    "county_numeric": "009",
    "prim_lat_dec": "42.8125913",
    "prim_long_dec": "-70.8772751",
    "elev_in_m": "11",
    "elev_in_ft": "36",
    "lat": 42.8125913,
    "long": -70.8772751
  },
  {
    "globaleventid": 270244862,
    "sqldate": 20131003,
    "monthyear": 201310,
    "year": 2013,
    "fractiondate": "2013.7479",
    "eventcode": 173,
    "quadclass": 4,
    "nummentions": 4,
    "numsources": 1,
    "numarticles": 4,
    "avgtone": "1.55642023346304",
    "sourceurl": "http://www.independent.ie/world-news/europe/hamzahs-mother-threatened-to-kill-other-her-children-son-claims-29634091.html",
    "feature_id": "1191909",
    "feature_name": "Yorkshire",
    "state_alpha": "PA",
    "county_name": "York",
    "county_numeric": "133",
    "prim_lat_dec": "39.9662096",
    "prim_long_dec": "-76.6607998",
    "elev_in_m": "183",
    "elev_in_ft": "600",
    "lat": 39.9662096,
    "long": -76.6607998
  },
  {
    "globaleventid": 270244859,
    "sqldate": 20131003,
    "monthyear": 201310,
    "year": 2013,
    "fractiondate": "2013.7479",
    "eventcode": 173,
    "quadclass": 4,
    "nummentions": 1,
    "numsources": 1,
    "numarticles": 1,
    "avgtone": "1.22199592668024",
    "sourceurl": "http://www.newburyportnews.com/local/x1612857199/Woodman-Way-resident-charged-with-assault-after-fire",
    "feature_id": "614293",
    "feature_name": "Newburyport",
    "state_alpha": "MA",
    "county_name": "Essex",
    "county_numeric": "009",
    "prim_lat_dec": "42.8125913",
    "prim_long_dec": "-70.8772751",
    "elev_in_m": "11",
    "elev_in_ft": "36",
    "lat": 42.8125913,
    "long": -70.8772751
  },
  {
    "globaleventid": 270244817,
    "sqldate": 20131003,
    "monthyear": 201310,
    "year": 2013,
    "fractiondate": "2013.7479",
    "eventcode": 173,
    "quadclass": 4,
    "nummentions": 2,
    "numsources": 1,
    "numarticles": 2,
    "avgtone": "1.42857142857143",
    "sourceurl": "http://www.independent.ie/world-news/europe/hamzah-mother-gets-15-years-in-jail-for-horrific-neglect-29634209.html",
    "feature_id": "1191909",
    "feature_name": "Yorkshire",
    "state_alpha": "PA",
    "county_name": "York",
    "county_numeric": "133",
    "prim_lat_dec": "39.9662096",
    "prim_long_dec": "-76.6607998",
    "elev_in_m": "183",
    "elev_in_ft": "600",
    "lat": 39.9662096,
    "long": -76.6607998
  },
  {
    "globaleventid": 270244673,
    "sqldate": 20131003,
    "monthyear": 201310,
    "year": 2013,
    "fractiondate": "2013.7479",
    "eventcode": 193,
    "quadclass": 4,
    "nummentions": 4,
    "numsources": 1,
    "numarticles": 4,
    "avgtone": "0.840336134453782",
    "sourceurl": "http://gawker.com/what-we-know-about-miram-carey-the-woman-killed-at-the-1441067040",
    "feature_id": "531871",
    "feature_name": "Washington",
    "state_alpha": "DC",
    "county_name": "District of Columbia",
    "county_numeric": "001",
    "prim_lat_dec": "38.8951118",
    "prim_long_dec": "-77.0363658",
    "elev_in_m": "7",
    "elev_in_ft": "23",
    "lat": 38.8951118,
    "long": -77.0363658
  },
  {
    "globaleventid": 270242717,
    "sqldate": 20131003,
    "monthyear": 201310,
    "year": 2013,
    "fractiondate": "2013.7479",
    "eventcode": 1121,
    "quadclass": 3,
    "nummentions": 4,
    "numsources": 1,
    "numarticles": 4,
    "avgtone": "2.2883295194508",
    "sourceurl": "http://thehill.com/opinion/op-ed/326221-rouhanis-rooster-tail",
    "feature_id": "531871",
    "feature_name": "Washington",
    "state_alpha": "DC",
    "county_name": "District of Columbia",
    "county_numeric": "001",
    "prim_lat_dec": "38.8951118",
    "prim_long_dec": "-77.0363658",
    "elev_in_m": "7",
    "elev_in_ft": "23",
    "lat": 38.8951118,
    "long": -77.0363658
  },
  {
    "globaleventid": 270242585,
    "sqldate": 20131003,
    "monthyear": 201310,
    "year": 2013,
    "fractiondate": "2013.7479",
    "eventcode": 190,
    "quadclass": 4,
    "nummentions": 8,
    "numsources": 1,
    "numarticles": 8,
    "avgtone": "3.69318181818182",
    "sourceurl": "http://newsok.com/convergence-of-racial-history-with-modern-reality-yields-plenty-of-irony/article/3889075&c=gypxA01AwTXlEZzybhVvrGUKMziHrflLALzTCYAIvso&mkt=en-us",
    "feature_id": "1091235",
    "feature_name": "Cherokee",
    "state_alpha": "OK",
    "county_name": "Alfalfa",
    "county_numeric": "003",
    "prim_lat_dec": "36.7544746",
    "prim_long_dec": "-98.3567403",
    "elev_in_m": "360",
    "elev_in_ft": "1181",
    "lat": 36.7544746,
    "long": -98.3567403
  },
  {
    "globaleventid": 270242464,
    "sqldate": 20131003,
    "monthyear": 201310,
    "year": 2013,
    "fractiondate": "2013.7479",
    "eventcode": 173,
    "quadclass": 4,
    "nummentions": 2,
    "numsources": 1,
    "numarticles": 2,
    "avgtone": "3.55097365406644",
    "sourceurl": "http://www.newburyportnews.com/local/x1442576282/Heroin-arrests-made-in-Port",
    "feature_id": "614293",
    "feature_name": "Newburyport",
    "state_alpha": "MA",
    "county_name": "Essex",
    "county_numeric": "009",
    "prim_lat_dec": "42.8125913",
    "prim_long_dec": "-70.8772751",
    "elev_in_m": "11",
    "elev_in_ft": "36",
    "lat": 42.8125913,
    "long": -70.8772751
  },
  {
    "globaleventid": 270242334,
    "sqldate": 20131003,
    "monthyear": 201310,
    "year": 2013,
    "fractiondate": "2013.7479",
    "eventcode": 161,
    "quadclass": 4,
    "nummentions": 1,
    "numsources": 1,
    "numarticles": 1,
    "avgtone": "0.735294117647059",
    "sourceurl": "http://in.news.yahoo.com/obama-shortens-asia-trip-amid-us-shutdown-standoff-062758969.html",
    "feature_id": "531871",
    "feature_name": "Washington",
    "state_alpha": "DC",
    "county_name": "District of Columbia",
    "county_numeric": "001",
    "prim_lat_dec": "38.8951118",
    "prim_long_dec": "-77.0363658",
    "elev_in_m": "7",
    "elev_in_ft": "23",
    "lat": 38.8951118,
    "long": -77.0363658
  },
  {
    "globaleventid": 270242133,
    "sqldate": 20131003,
    "monthyear": 201310,
    "year": 2013,
    "fractiondate": "2013.7479",
    "eventcode": 190,
    "quadclass": 4,
    "nummentions": 20,
    "numsources": 2,
    "numarticles": 20,
    "avgtone": "4.17982663769249",
    "sourceurl": "http://www.dawn.com/news/1047177/the-tragedy-of-manmohan-singh",
    "feature_id": "531871",
    "feature_name": "Washington",
    "state_alpha": "DC",
    "county_name": "District of Columbia",
    "county_numeric": "001",
    "prim_lat_dec": "38.8951118",
    "prim_long_dec": "-77.0363658",
    "elev_in_m": "7",
    "elev_in_ft": "23",
    "lat": 38.8951118,
    "long": -77.0363658
  },
  {
    "globaleventid": 270242042,
    "sqldate": 20131003,
    "monthyear": 201310,
    "year": 2013,
    "fractiondate": "2013.7479",
    "eventcode": 174,
    "quadclass": 4,
    "nummentions": 8,
    "numsources": 1,
    "numarticles": 8,
    "avgtone": "1.63934426229508",
    "sourceurl": "http://www.philly.com/philly/news/nation_world/20131003_Caracas_envoys_expelled_from_U_S_.html",
    "feature_id": "1380948",
    "feature_name": "Houston",
    "state_alpha": "TX",
    "county_name": "Harris",
    "county_numeric": "201",
    "prim_lat_dec": "29.7632836",
    "prim_long_dec": "-95.3632715",
    "elev_in_m": "11",
    "elev_in_ft": "36",
    "lat": 29.7632836,
    "long": -95.3632715
  },
  {
    "globaleventid": 270242018,
    "sqldate": 20131003,
    "monthyear": 201310,
    "year": 2013,
    "fractiondate": "2013.7479",
    "eventcode": 161,
    "quadclass": 4,
    "nummentions": 2,
    "numsources": 1,
    "numarticles": 2,
    "avgtone": "2.3454157782516",
    "sourceurl": "http://www.thenews.com.pk/Todays-News-1-205922-US-expels-three-Venezuelan-diplomats-in-tit-for-tat-move",
    "feature_id": "531871",
    "feature_name": "Washington",
    "state_alpha": "DC",
    "county_name": "District of Columbia",
    "county_numeric": "001",
    "prim_lat_dec": "38.8951118",
    "prim_long_dec": "-77.0363658",
    "elev_in_m": "7",
    "elev_in_ft": "23",
    "lat": 38.8951118,
    "long": -77.0363658
  },
  {
    "globaleventid": 270242001,
    "sqldate": 20131003,
    "monthyear": 201310,
    "year": 2013,
    "fractiondate": "2013.7479",
    "eventcode": 174,
    "quadclass": 4,
    "nummentions": 2,
    "numsources": 1,
    "numarticles": 2,
    "avgtone": "1.63934426229508",
    "sourceurl": "http://www.philly.com/philly/news/nation_world/20131003_Caracas_envoys_expelled_from_U_S_.html",
    "feature_id": "1380948",
    "feature_name": "Houston",
    "state_alpha": "TX",
    "county_name": "Harris",
    "county_numeric": "201",
    "prim_lat_dec": "29.7632836",
    "prim_long_dec": "-95.3632715",
    "elev_in_m": "11",
    "elev_in_ft": "36",
    "lat": 29.7632836,
    "long": -95.3632715
  },
  {
    "globaleventid": 270241880,
    "sqldate": 20131003,
    "monthyear": 201310,
    "year": 2013,
    "fractiondate": "2013.7479",
    "eventcode": 130,
    "quadclass": 3,
    "nummentions": 3,
    "numsources": 1,
    "numarticles": 3,
    "avgtone": "2.06185567010309",
    "sourceurl": "http://www.independent.ie/world-news/americas/obama-seeks-to-end-shutdown-29630832.html",
    "feature_id": "531871",
    "feature_name": "Washington",
    "state_alpha": "DC",
    "county_name": "District of Columbia",
    "county_numeric": "001",
    "prim_lat_dec": "38.8951118",
    "prim_long_dec": "-77.0363658",
    "elev_in_m": "7",
    "elev_in_ft": "23",
    "lat": 38.8951118,
    "long": -77.0363658
  },
  {
    "globaleventid": 270992811,
    "sqldate": 20131003,
    "monthyear": 201310,
    "year": 2013,
    "fractiondate": "2013.7479",
    "eventcode": 111,
    "quadclass": 3,
    "nummentions": 35,
    "numsources": 1,
    "numarticles": 35,
    "avgtone": "1.78970917225951",
    "sourceurl": "http://www.marketwatch.com/story/twitter-ceo-collides-with-valleys-woman-problem-2013-10-10?siteid=rss&utm_source=feedburner&utm_medium=feed&utm_campaign=Feed%3A%20marketwatch%2Fsoftware%20(MarketWatch.com%20-%20Software%20Industry%20News)",
    "feature_id": "277593",
    "feature_name": "San Francisco",
    "state_alpha": "CA",
    "county_name": "San Francisco",
    "county_numeric": "075",
    "prim_lat_dec": "37.775",
    "prim_long_dec": "-122.4194444",
    "elev_in_m": "16",
    "elev_in_ft": "52",
    "lat": 37.775,
    "long": -122.4194444
  },
  {
    "globaleventid": 270992395,
    "sqldate": 20131003,
    "monthyear": 201310,
    "year": 2013,
    "fractiondate": "2013.7479",
    "eventcode": 160,
    "quadclass": 4,
    "nummentions": 2,
    "numsources": 1,
    "numarticles": 2,
    "avgtone": "2.58620689655172",
    "sourceurl": "http://www.trust.org/item/20131010184814-3gp9a/?source=hpbreaking",
    "feature_id": "531871",
    "feature_name": "Washington",
    "state_alpha": "DC",
    "county_name": "District of Columbia",
    "county_numeric": "001",
    "prim_lat_dec": "38.8951118",
    "prim_long_dec": "-77.0363658",
    "elev_in_m": "7",
    "elev_in_ft": "23",
    "lat": 38.8951118,
    "long": -77.0363658
  },
  {
    "globaleventid": 270992372,
    "sqldate": 20131003,
    "monthyear": 201310,
    "year": 2013,
    "fractiondate": "2013.7479",
    "eventcode": 190,
    "quadclass": 4,
    "nummentions": 6,
    "numsources": 1,
    "numarticles": 6,
    "avgtone": "1.79372197309417",
    "sourceurl": "http://theweek.com/article/index/250915/is-the-us-indirectly-responsible-for-the-abduction-of-libyas-prime-minister",
    "feature_id": "531871",
    "feature_name": "Washington",
    "state_alpha": "DC",
    "county_name": "District of Columbia",
    "county_numeric": "001",
    "prim_lat_dec": "38.8951118",
    "prim_long_dec": "-77.0363658",
    "elev_in_m": "7",
    "elev_in_ft": "23",
    "lat": 38.8951118,
    "long": -77.0363658
  },
  {
    "globaleventid": 270992339,
    "sqldate": 20131003,
    "monthyear": 201310,
    "year": 2013,
    "fractiondate": "2013.7479",
    "eventcode": 190,
    "quadclass": 4,
    "nummentions": 138,
    "numsources": 11,
    "numarticles": 138,
    "avgtone": "2.60014886900075",
    "sourceurl": "http://za.news.yahoo.com/libyan-prime-minister-taken-gunmen-tripoli-government-says-064541719.html",
    "feature_id": "531871",
    "feature_name": "Washington",
    "state_alpha": "DC",
    "county_name": "District of Columbia",
    "county_numeric": "001",
    "prim_lat_dec": "38.8951118",
    "prim_long_dec": "-77.0363658",
    "elev_in_m": "7",
    "elev_in_ft": "23",
    "lat": 38.8951118,
    "long": -77.0363658
  },
  {
    "globaleventid": 270992210,
    "sqldate": 20131003,
    "monthyear": 201310,
    "year": 2013,
    "fractiondate": "2013.7479",
    "eventcode": 120,
    "quadclass": 3,
    "nummentions": 10,
    "numsources": 1,
    "numarticles": 10,
    "avgtone": "2.4390243902439",
    "sourceurl": "http://www.lakewyliepilot.com/2013/10/09/2108633/ohio-trial-witness-suspect-showed.html",
    "feature_id": "1233775",
    "feature_name": "Lake Wylie",
    "state_alpha": "SC",
    "county_name": "York",
    "county_numeric": "091",
    "prim_lat_dec": "35.108476",
    "prim_long_dec": "-81.0428538",
    "elev_in_m": "179",
    "elev_in_ft": "587",
    "lat": 35.108476,
    "long": -81.0428538
  },
  {
    "globaleventid": 270992209,
    "sqldate": 20131003,
    "monthyear": 201310,
    "year": 2013,
    "fractiondate": "2013.7479",
    "eventcode": 120,
    "quadclass": 3,
    "nummentions": 7,
    "numsources": 1,
    "numarticles": 7,
    "avgtone": "2.07852193995381",
    "sourceurl": "http://www.hsconnect.com/page/content.detail/id/388892/Ohio-witnesses-challenge-suspect-in-fraud-trial.html?isap=1&nav=5028",
    "feature_id": "1136645",
    "feature_name": "Portland",
    "state_alpha": "OR",
    "county_name": "Multnomah",
    "county_numeric": "051",
    "prim_lat_dec": "45.5234515",
    "prim_long_dec": "-122.6762071",
    "elev_in_m": "10",
    "elev_in_ft": "33",
    "lat": 45.5234515,
    "long": -122.6762071
  },
  {
    "globaleventid": 270991989,
    "sqldate": 20131003,
    "monthyear": 201310,
    "year": 2013,
    "fractiondate": "2013.7479",
    "eventcode": 174,
    "quadclass": 4,
    "nummentions": 10,
    "numsources": 1,
    "numarticles": 10,
    "avgtone": "0.650759219088937",
    "sourceurl": "http://www.abc15.com/dpp/news/national/government-shutdown-update-government-shutdown-by-the-numbers",
    "feature_id": "531871",
    "feature_name": "Washington",
    "state_alpha": "DC",
    "county_name": "District of Columbia",
    "county_numeric": "001",
    "prim_lat_dec": "38.8951118",
    "prim_long_dec": "-77.0363658",
    "elev_in_m": "7",
    "elev_in_ft": "23",
    "lat": 38.8951118,
    "long": -77.0363658
  },
  {
    "globaleventid": 270991988,
    "sqldate": 20131003,
    "monthyear": 201310,
    "year": 2013,
    "fractiondate": "2013.7479",
    "eventcode": 100,
    "quadclass": 3,
    "nummentions": 5,
    "numsources": 1,
    "numarticles": 5,
    "avgtone": "0.650759219088937",
    "sourceurl": "http://www.abc15.com/dpp/news/national/government-shutdown-update-government-shutdown-by-the-numbers",
    "feature_id": "531871",
    "feature_name": "Washington",
    "state_alpha": "DC",
    "county_name": "District of Columbia",
    "county_numeric": "001",
    "prim_lat_dec": "38.8951118",
    "prim_long_dec": "-77.0363658",
    "elev_in_m": "7",
    "elev_in_ft": "23",
    "lat": 38.8951118,
    "long": -77.0363658
  },
  {
    "globaleventid": 270991977,
    "sqldate": 20131003,
    "monthyear": 201310,
    "year": 2013,
    "fractiondate": "2013.7479",
    "eventcode": 190,
    "quadclass": 4,
    "nummentions": 2,
    "numsources": 1,
    "numarticles": 2,
    "avgtone": "1.84757505773672",
    "sourceurl": "http://newsone.com/2737243/jacqueline-bell-joda-cain/",
    "feature_id": "1136645",
    "feature_name": "Portland",
    "state_alpha": "OR",
    "county_name": "Multnomah",
    "county_numeric": "051",
    "prim_lat_dec": "45.5234515",
    "prim_long_dec": "-122.6762071",
    "elev_in_m": "10",
    "elev_in_ft": "33",
    "lat": 45.5234515,
    "long": -122.6762071
  },
  {
    "globaleventid": 270991976,
    "sqldate": 20131003,
    "monthyear": 201310,
    "year": 2013,
    "fractiondate": "2013.7479",
    "eventcode": 190,
    "quadclass": 4,
    "nummentions": 2,
    "numsources": 1,
    "numarticles": 2,
    "avgtone": "1.84757505773672",
    "sourceurl": "http://newsone.com/2737243/jacqueline-bell-joda-cain/",
    "feature_id": "1118757",
    "feature_name": "Cedar Mill",
    "state_alpha": "OR",
    "county_name": "Washington",
    "county_numeric": "067",
    "prim_lat_dec": "45.5248394",
    "prim_long_dec": "-122.810933",
    "elev_in_m": "79",
    "elev_in_ft": "259",
    "lat": 45.5248394,
    "long": -122.810933
  },
  {
    "globaleventid": 270241859,
    "sqldate": 20131003,
    "monthyear": 201310,
    "year": 2013,
    "fractiondate": "2013.7479",
    "eventcode": 190,
    "quadclass": 4,
    "nummentions": 2,
    "numsources": 1,
    "numarticles": 2,
    "avgtone": "3.99290150842946",
    "sourceurl": "http://www.larouchepub.com/hzl/2013/4039hzl_un_appeal.html",
    "feature_id": "971945",
    "feature_name": "Manhattan",
    "state_alpha": "NY",
    "county_name": "New York",
    "county_numeric": "061",
    "prim_lat_dec": "40.7834345",
    "prim_long_dec": "-73.9662495",
    "elev_in_m": "35",
    "elev_in_ft": "115",
    "lat": 40.7834345,
    "long": -73.9662495
  },
  {
    "globaleventid": 270241835,
    "sqldate": 20131003,
    "monthyear": 201310,
    "year": 2013,
    "fractiondate": "2013.7479",
    "eventcode": 190,
    "quadclass": 4,
    "nummentions": 10,
    "numsources": 1,
    "numarticles": 10,
    "avgtone": "1.75644028103044",
    "sourceurl": "http://www.wnct.com/story/23574812/un-says-nearly-1000-iraqis-killed-in-september",
    "feature_id": "531871",
    "feature_name": "Washington",
    "state_alpha": "DC",
    "county_name": "District of Columbia",
    "county_numeric": "001",
    "prim_lat_dec": "38.8951118",
    "prim_long_dec": "-77.0363658",
    "elev_in_m": "7",
    "elev_in_ft": "23",
    "lat": 38.8951118,
    "long": -77.0363658
  },
  {
    "globaleventid": 270241833,
    "sqldate": 20131003,
    "monthyear": 201310,
    "year": 2013,
    "fractiondate": "2013.7479",
    "eventcode": 154,
    "quadclass": 4,
    "nummentions": 1,
    "numsources": 1,
    "numarticles": 1,
    "avgtone": "1.88045668233714",
    "sourceurl": "http://www.northjersey.com/fromourarchives/For_soldiers_homes_a_whole_new_world.html",
    "feature_id": "881111",
    "feature_name": "Teaneck",
    "state_alpha": "NJ",
    "county_name": "Bergen",
    "county_numeric": "003",
    "prim_lat_dec": "40.8975992",
    "prim_long_dec": "-74.0159727",
    "elev_in_m": "35",
    "elev_in_ft": "115",
    "lat": 40.8975992,
    "long": -74.0159727
  },
  {
    "globaleventid": 270241818,
    "sqldate": 20131003,
    "monthyear": 201310,
    "year": 2013,
    "fractiondate": "2013.7479",
    "eventcode": 160,
    "quadclass": 4,
    "nummentions": 2,
    "numsources": 1,
    "numarticles": 2,
    "avgtone": "0.421940928270042",
    "sourceurl": "http://lmtribune.com/northwest/article_24e2a808-682f-58e1-a439-ea8c5ade3e25.html",
    "feature_id": "770332",
    "feature_name": "Crow Agency",
    "state_alpha": "MT",
    "county_name": "Big Horn",
    "county_numeric": "003",
    "prim_lat_dec": "45.6016413",
    "prim_long_dec": "-107.4611944",
    "elev_in_m": "926",
    "elev_in_ft": "3038",
    "lat": 45.6016413,
    "long": -107.4611944
  },
  {
    "globaleventid": 270241816,
    "sqldate": 20131003,
    "monthyear": 201310,
    "year": 2013,
    "fractiondate": "2013.7479",
    "eventcode": 160,
    "quadclass": 4,
    "nummentions": 4,
    "numsources": 1,
    "numarticles": 4,
    "avgtone": "0.421940928270042",
    "sourceurl": "http://lmtribune.com/northwest/article_24e2a808-682f-58e1-a439-ea8c5ade3e25.html",
    "feature_id": "770332",
    "feature_name": "Crow Agency",
    "state_alpha": "MT",
    "county_name": "Big Horn",
    "county_numeric": "003",
    "prim_lat_dec": "45.6016413",
    "prim_long_dec": "-107.4611944",
    "elev_in_m": "926",
    "elev_in_ft": "3038",
    "lat": 45.6016413,
    "long": -107.4611944
  },
  {
    "globaleventid": 270241804,
    "sqldate": 20131003,
    "monthyear": 201310,
    "year": 2013,
    "fractiondate": "2013.7479",
    "eventcode": 112,
    "quadclass": 3,
    "nummentions": 35,
    "numsources": 5,
    "numarticles": 35,
    "avgtone": "1.911234887383",
    "sourceurl": "http://news.yahoo.com/obama-congressional-leaders-still-deadlocked-shutdown-011854387.html",
    "feature_id": "531871",
    "feature_name": "Washington",
    "state_alpha": "DC",
    "county_name": "District of Columbia",
    "county_numeric": "001",
    "prim_lat_dec": "38.8951118",
    "prim_long_dec": "-77.0363658",
    "elev_in_m": "7",
    "elev_in_ft": "23",
    "lat": 38.8951118,
    "long": -77.0363658
  },
  {
    "globaleventid": 270241797,
    "sqldate": 20131003,
    "monthyear": 201310,
    "year": 2013,
    "fractiondate": "2013.7479",
    "eventcode": 112,
    "quadclass": 3,
    "nummentions": 15,
    "numsources": 5,
    "numarticles": 15,
    "avgtone": "1.911234887383",
    "sourceurl": "http://news.yahoo.com/obama-congressional-leaders-still-deadlocked-shutdown-011854387.html",
    "feature_id": "531871",
    "feature_name": "Washington",
    "state_alpha": "DC",
    "county_name": "District of Columbia",
    "county_numeric": "001",
    "prim_lat_dec": "38.8951118",
    "prim_long_dec": "-77.0363658",
    "elev_in_m": "7",
    "elev_in_ft": "23",
    "lat": 38.8951118,
    "long": -77.0363658
  },
  {
    "globaleventid": 270241553,
    "sqldate": 20131003,
    "monthyear": 201310,
    "year": 2013,
    "fractiondate": "2013.7479",
    "eventcode": 112,
    "quadclass": 3,
    "nummentions": 10,
    "numsources": 1,
    "numarticles": 10,
    "avgtone": "2.17391304347826",
    "sourceurl": "http://www.jta.org/2013/10/03/news-opinion/politics/obama-administration-shutdown-will-affect-israel",
    "feature_id": "531871",
    "feature_name": "Washington",
    "state_alpha": "DC",
    "county_name": "District of Columbia",
    "county_numeric": "001",
    "prim_lat_dec": "38.8951118",
    "prim_long_dec": "-77.0363658",
    "elev_in_m": "7",
    "elev_in_ft": "23",
    "lat": 38.8951118,
    "long": -77.0363658
  },
  {
    "globaleventid": 270241549,
    "sqldate": 20131003,
    "monthyear": 201310,
    "year": 2013,
    "fractiondate": "2013.7479",
    "eventcode": 110,
    "quadclass": 3,
    "nummentions": 2,
    "numsources": 1,
    "numarticles": 2,
    "avgtone": "3.39836509671593",
    "sourceurl": "http://www.registerguard.com/rg/news/local/30547445-75/tax-rep-barnhart-session-vote.html.csp",
    "feature_id": "1167861",
    "feature_name": "Salem",
    "state_alpha": "OR",
    "county_name": "Marion",
    "county_numeric": "047",
    "prim_lat_dec": "44.9428975",
    "prim_long_dec": "-123.0350963",
    "elev_in_m": "48",
    "elev_in_ft": "157",
    "lat": 44.9428975,
    "long": -123.0350963
  },
  {
    "globaleventid": 270241512,
    "sqldate": 20131003,
    "monthyear": 201310,
    "year": 2013,
    "fractiondate": "2013.7479",
    "eventcode": 130,
    "quadclass": 3,
    "nummentions": 20,
    "numsources": 1,
    "numarticles": 20,
    "avgtone": "0.898876404494382",
    "sourceurl": "http://seekingalpha.com/article/1726702-u-s-government-about-to-pull-a-greece-how-should-markets-react?source=google_news",
    "feature_id": "531871",
    "feature_name": "Washington",
    "state_alpha": "DC",
    "county_name": "District of Columbia",
    "county_numeric": "001",
    "prim_lat_dec": "38.8951118",
    "prim_long_dec": "-77.0363658",
    "elev_in_m": "7",
    "elev_in_ft": "23",
    "lat": 38.8951118,
    "long": -77.0363658
  },
  {
    "globaleventid": 270241511,
    "sqldate": 20131003,
    "monthyear": 201310,
    "year": 2013,
    "fractiondate": "2013.7479",
    "eventcode": 120,
    "quadclass": 3,
    "nummentions": 6,
    "numsources": 1,
    "numarticles": 6,
    "avgtone": "1.36986301369863",
    "sourceurl": "http://www.utsandiego.com/news/2013/oct/02/boehner-says-obama-still-wont-negotiate/",
    "feature_id": "531871",
    "feature_name": "Washington",
    "state_alpha": "DC",
    "county_name": "District of Columbia",
    "county_numeric": "001",
    "prim_lat_dec": "38.8951118",
    "prim_long_dec": "-77.0363658",
    "elev_in_m": "7",
    "elev_in_ft": "23",
    "lat": 38.8951118,
    "long": -77.0363658
  },
  {
    "globaleventid": 270241510,
    "sqldate": 20131003,
    "monthyear": 201310,
    "year": 2013,
    "fractiondate": "2013.7479",
    "eventcode": 112,
    "quadclass": 3,
    "nummentions": 2,
    "numsources": 1,
    "numarticles": 2,
    "avgtone": "3.19148936170213",
    "sourceurl": "http://www.reuters.com/video/2013/10/02/members-of-congress-point-blame-for-gove?videoId=274011688&feedType=VideoRSS&feedName=Politics&videoChannel=1003&utm_source=feedburner&utm_medium=feed&utm_campaign=Feed%3A+reuters%2FUSVideoPolitics+%28Video+%2F+US+%",
    "feature_id": "531871",
    "feature_name": "Washington",
    "state_alpha": "DC",
    "county_name": "District of Columbia",
    "county_numeric": "001",
    "prim_lat_dec": "38.8951118",
    "prim_long_dec": "-77.0363658",
    "elev_in_m": "7",
    "elev_in_ft": "23",
    "lat": 38.8951118,
    "long": -77.0363658
  },
  {
    "globaleventid": 270241473,
    "sqldate": 20131003,
    "monthyear": 201310,
    "year": 2013,
    "fractiondate": "2013.7479",
    "eventcode": 190,
    "quadclass": 4,
    "nummentions": 2,
    "numsources": 1,
    "numarticles": 2,
    "avgtone": "2.00308166409861",
    "sourceurl": "http://www.fresnobee.com/2013/10/02/3532143/madera-settles-federal-civil-rights.html",
    "feature_id": "650180",
    "feature_name": "Rochester",
    "state_alpha": "MN",
    "county_name": "Olmsted",
    "county_numeric": "109",
    "prim_lat_dec": "44.0216306",
    "prim_long_dec": "-92.4698992",
    "elev_in_m": "312",
    "elev_in_ft": "1024",
    "lat": 44.0216306,
    "long": -92.4698992
  },
  {
    "globaleventid": 270241471,
    "sqldate": 20131003,
    "monthyear": 201310,
    "year": 2013,
    "fractiondate": "2013.7479",
    "eventcode": 190,
    "quadclass": 4,
    "nummentions": 4,
    "numsources": 1,
    "numarticles": 4,
    "avgtone": "0.523560209424084",
    "sourceurl": "http://www.bostonstar.com/index.php/sid/217486250/scat/141778e5a055112e",
    "feature_id": "617565",
    "feature_name": "Boston",
    "state_alpha": "MA",
    "county_name": "Suffolk",
    "county_numeric": "025",
    "prim_lat_dec": "42.3584308",
    "prim_long_dec": "-71.0597732",
    "elev_in_m": "14",
    "elev_in_ft": "46",
    "lat": 42.3584308,
    "long": -71.0597732
  },
  {
    "globaleventid": 270241470,
    "sqldate": 20131003,
    "monthyear": 201310,
    "year": 2013,
    "fractiondate": "2013.7479",
    "eventcode": 190,
    "quadclass": 4,
    "nummentions": 1,
    "numsources": 1,
    "numarticles": 1,
    "avgtone": "1.13821138211382",
    "sourceurl": "http://www.sbsun.com/general-news/20131002/thomson-trial-details-emerge-about-washington-state-deaths",
    "feature_id": "531871",
    "feature_name": "Washington",
    "state_alpha": "DC",
    "county_name": "District of Columbia",
    "county_numeric": "001",
    "prim_lat_dec": "38.8951118",
    "prim_long_dec": "-77.0363658",
    "elev_in_m": "7",
    "elev_in_ft": "23",
    "lat": 38.8951118,
    "long": -77.0363658
  },
  {
    "globaleventid": 270241469,
    "sqldate": 20131003,
    "monthyear": 201310,
    "year": 2013,
    "fractiondate": "2013.7479",
    "eventcode": 190,
    "quadclass": 4,
    "nummentions": 1,
    "numsources": 1,
    "numarticles": 1,
    "avgtone": "1.13821138211382",
    "sourceurl": "http://www.sbsun.com/general-news/20131002/thomson-trial-details-emerge-about-washington-state-deaths",
    "feature_id": "1661375",
    "feature_name": "San Bernardino",
    "state_alpha": "CA",
    "county_name": "San Bernardino",
    "county_numeric": "071",
    "prim_lat_dec": "34.1083449",
    "prim_long_dec": "-117.2897652",
    "elev_in_m": "321",
    "elev_in_ft": "1053",
    "lat": 34.1083449,
    "long": -117.2897652
  },
  {
    "globaleventid": 270241468,
    "sqldate": 20131003,
    "monthyear": 201310,
    "year": 2013,
    "fractiondate": "2013.7479",
    "eventcode": 190,
    "quadclass": 4,
    "nummentions": 4,
    "numsources": 1,
    "numarticles": 2,
    "avgtone": "3.18570318570319",
    "sourceurl": "http://www.bdlive.co.za/world/americas/2013/10/03/dying-inmate-freed-after-41-years-in-solitary",
    "feature_id": "1629985",
    "feature_name": "New Orleans",
    "state_alpha": "LA",
    "county_name": "Orleans",
    "county_numeric": "071",
    "prim_lat_dec": "29.9546482",
    "prim_long_dec": "-90.075072",
    "elev_in_m": "0",
    "elev_in_ft": "0",
    "lat": 29.9546482,
    "long": -90.075072
  },
  {
    "globaleventid": 270241461,
    "sqldate": 20131003,
    "monthyear": 201310,
    "year": 2013,
    "fractiondate": "2013.7479",
    "eventcode": 173,
    "quadclass": 4,
    "nummentions": 1,
    "numsources": 1,
    "numarticles": 1,
    "avgtone": "3.66492146596859",
    "sourceurl": "http://www.ctpost.com/news/crime/article/Third-robbery-conviction-earns-man-life-in-prison-4864935.php",
    "feature_id": "423587",
    "feature_name": "Chicago",
    "state_alpha": "IL",
    "county_name": "Cook",
    "county_numeric": "031",
    "prim_lat_dec": "41.850033",
    "prim_long_dec": "-87.6500523",
    "elev_in_m": "179",
    "elev_in_ft": "587",
    "lat": 41.850033,
    "long": -87.6500523
  },
  {
    "globaleventid": 270241460,
    "sqldate": 20131003,
    "monthyear": 201310,
    "year": 2013,
    "fractiondate": "2013.7479",
    "eventcode": 173,
    "quadclass": 4,
    "nummentions": 1,
    "numsources": 1,
    "numarticles": 1,
    "avgtone": "3.66492146596859",
    "sourceurl": "http://www.ctpost.com/news/crime/article/Third-robbery-conviction-earns-man-life-in-prison-4864935.php",
    "feature_id": "423587",
    "feature_name": "Chicago",
    "state_alpha": "IL",
    "county_name": "Cook",
    "county_numeric": "031",
    "prim_lat_dec": "41.850033",
    "prim_long_dec": "-87.6500523",
    "elev_in_m": "179",
    "elev_in_ft": "587",
    "lat": 41.850033,
    "long": -87.6500523
  },
  {
    "globaleventid": 270241459,
    "sqldate": 20131003,
    "monthyear": 201310,
    "year": 2013,
    "fractiondate": "2013.7479",
    "eventcode": 173,
    "quadclass": 4,
    "nummentions": 2,
    "numsources": 1,
    "numarticles": 2,
    "avgtone": "1.28354725787631",
    "sourceurl": "http://www.ktvu.com/news/news/crime-law/fed-silk-road-was-sprawling-black-market-bazaar/nbDq4/",
    "feature_id": "277593",
    "feature_name": "San Francisco",
    "state_alpha": "CA",
    "county_name": "San Francisco",
    "county_numeric": "075",
    "prim_lat_dec": "37.775",
    "prim_long_dec": "-122.4194444",
    "elev_in_m": "16",
    "elev_in_ft": "52",
    "lat": 37.775,
    "long": -122.4194444
  },
  {
    "globaleventid": 270241454,
    "sqldate": 20131003,
    "monthyear": 201310,
    "year": 2013,
    "fractiondate": "2013.7479",
    "eventcode": 173,
    "quadclass": 4,
    "nummentions": 6,
    "numsources": 1,
    "numarticles": 2,
    "avgtone": "3.18570318570319",
    "sourceurl": "http://www.bdlive.co.za/world/americas/2013/10/03/dying-inmate-freed-after-41-years-in-solitary",
    "feature_id": "1629985",
    "feature_name": "New Orleans",
    "state_alpha": "LA",
    "county_name": "Orleans",
    "county_numeric": "071",
    "prim_lat_dec": "29.9546482",
    "prim_long_dec": "-90.075072",
    "elev_in_m": "0",
    "elev_in_ft": "0",
    "lat": 29.9546482,
    "long": -90.075072
  },
  {
    "globaleventid": 270241452,
    "sqldate": 20131003,
    "monthyear": 201310,
    "year": 2013,
    "fractiondate": "2013.7479",
    "eventcode": 173,
    "quadclass": 4,
    "nummentions": 30,
    "numsources": 5,
    "numarticles": 30,
    "avgtone": "1.58212698336933",
    "sourceurl": "http://www.wtop.com/41/3471284/Canadian-sentenced-for-bank-wire-fraud-in-Va",
    "feature_id": "1497051",
    "feature_name": "Norfolk",
    "state_alpha": "VA",
    "county_name": "Norfolk (city)",
    "county_numeric": "710",
    "prim_lat_dec": "36.8468146",
    "prim_long_dec": "-76.2852183",
    "elev_in_m": "3",
    "elev_in_ft": "10",
    "lat": 36.8468146,
    "long": -76.2852183
  },
  {
    "globaleventid": 270241449,
    "sqldate": 20131003,
    "monthyear": 201310,
    "year": 2013,
    "fractiondate": "2013.7479",
    "eventcode": 172,
    "quadclass": 4,
    "nummentions": 1,
    "numsources": 1,
    "numarticles": 1,
    "avgtone": "2.50696378830084",
    "sourceurl": "http://heraldbulletin.com/breakingnews/x134970389/Indiana-studying-ruling-throwing-out-deer-farm-ban",
    "feature_id": "452890",
    "feature_name": "Indianapolis",
    "state_alpha": "IN",
    "county_name": "Marion",
    "county_numeric": "097",
    "prim_lat_dec": "39.7683765",
    "prim_long_dec": "-86.1580423",
    "elev_in_m": "219",
    "elev_in_ft": "718",
    "lat": 39.7683765,
    "long": -86.1580423
  },
  {
    "globaleventid": 270241448,
    "sqldate": 20131003,
    "monthyear": 201310,
    "year": 2013,
    "fractiondate": "2013.7479",
    "eventcode": 172,
    "quadclass": 4,
    "nummentions": 4,
    "numsources": 1,
    "numarticles": 4,
    "avgtone": "0.523560209424084",
    "sourceurl": "http://www.bostonstar.com/index.php/sid/217486250/scat/141778e5a055112e",
    "feature_id": "617565",
    "feature_name": "Boston",
    "state_alpha": "MA",
    "county_name": "Suffolk",
    "county_numeric": "025",
    "prim_lat_dec": "42.3584308",
    "prim_long_dec": "-71.0597732",
    "elev_in_m": "14",
    "elev_in_ft": "46",
    "lat": 42.3584308,
    "long": -71.0597732
  },
  {
    "globaleventid": 270241445,
    "sqldate": 20131003,
    "monthyear": 201310,
    "year": 2013,
    "fractiondate": "2013.7479",
    "eventcode": 124,
    "quadclass": 3,
    "nummentions": 2,
    "numsources": 1,
    "numarticles": 2,
    "avgtone": "0.560224089635854",
    "sourceurl": "http://juneauempire.com/state/2013-10-03/ex-tribal-president-pleads-guilty-fund-fraud",
    "feature_id": "1415193",
    "feature_name": "Tatitlek",
    "state_alpha": "AK",
    "county_name": "Valdez-Cordova (CA)",
    "county_numeric": "261",
    "prim_lat_dec": "60.8647222",
    "prim_long_dec": "-146.6786111",
    "elev_in_m": "20",
    "elev_in_ft": "66",
    "lat": 60.8647222,
    "long": -146.6786111
  },
  {
    "globaleventid": 270241441,
    "sqldate": 20131003,
    "monthyear": 201310,
    "year": 2013,
    "fractiondate": "2013.7479",
    "eventcode": 112,
    "quadclass": 3,
    "nummentions": 3,
    "numsources": 1,
    "numarticles": 3,
    "avgtone": "1.13821138211382",
    "sourceurl": "http://www.sbsun.com/general-news/20131002/thomson-trial-details-emerge-about-washington-state-deaths",
    "feature_id": "531871",
    "feature_name": "Washington",
    "state_alpha": "DC",
    "county_name": "District of Columbia",
    "county_numeric": "001",
    "prim_lat_dec": "38.8951118",
    "prim_long_dec": "-77.0363658",
    "elev_in_m": "7",
    "elev_in_ft": "23",
    "lat": 38.8951118,
    "long": -77.0363658
  },
  {
    "globaleventid": 270241438,
    "sqldate": 20131003,
    "monthyear": 201310,
    "year": 2013,
    "fractiondate": "2013.7479",
    "eventcode": 112,
    "quadclass": 3,
    "nummentions": 1,
    "numsources": 1,
    "numarticles": 1,
    "avgtone": "1.13821138211382",
    "sourceurl": "http://www.sbsun.com/general-news/20131002/thomson-trial-details-emerge-about-washington-state-deaths",
    "feature_id": "531871",
    "feature_name": "Washington",
    "state_alpha": "DC",
    "county_name": "District of Columbia",
    "county_numeric": "001",
    "prim_lat_dec": "38.8951118",
    "prim_long_dec": "-77.0363658",
    "elev_in_m": "7",
    "elev_in_ft": "23",
    "lat": 38.8951118,
    "long": -77.0363658
  },
  {
    "globaleventid": 270241437,
    "sqldate": 20131003,
    "monthyear": 201310,
    "year": 2013,
    "fractiondate": "2013.7479",
    "eventcode": 110,
    "quadclass": 3,
    "nummentions": 2,
    "numsources": 1,
    "numarticles": 1,
    "avgtone": "3.18570318570319",
    "sourceurl": "http://www.bdlive.co.za/world/americas/2013/10/03/dying-inmate-freed-after-41-years-in-solitary",
    "feature_id": "1629985",
    "feature_name": "New Orleans",
    "state_alpha": "LA",
    "county_name": "Orleans",
    "county_numeric": "071",
    "prim_lat_dec": "29.9546482",
    "prim_long_dec": "-90.075072",
    "elev_in_m": "0",
    "elev_in_ft": "0",
    "lat": 29.9546482,
    "long": -90.075072
  },
  {
    "globaleventid": 270241359,
    "sqldate": 20131003,
    "monthyear": 201310,
    "year": 2013,
    "fractiondate": "2013.7479",
    "eventcode": 112,
    "quadclass": 3,
    "nummentions": 2,
    "numsources": 1,
    "numarticles": 2,
    "avgtone": "2.70700636942675",
    "sourceurl": "http://www.ohio.com/news/local/appeals-court-shoots-down-northeast-ohio-regional-sewer-district-fee-1.433661",
    "feature_id": "1066654",
    "feature_name": "Cleveland",
    "state_alpha": "OH",
    "county_name": "Cuyahoga",
    "county_numeric": "035",
    "prim_lat_dec": "41.4994954",
    "prim_long_dec": "-81.6954088",
    "elev_in_m": "199",
    "elev_in_ft": "653",
    "lat": 41.4994954,
    "long": -81.6954088
  },
  {
    "globaleventid": 270241199,
    "sqldate": 20131003,
    "monthyear": 201310,
    "year": 2013,
    "fractiondate": "2013.7479",
    "eventcode": 193,
    "quadclass": 4,
    "nummentions": 8,
    "numsources": 1,
    "numarticles": 8,
    "avgtone": "1.3986013986014",
    "sourceurl": "http://www.thestandard.com.hk/breaking_news_detail.asp?id=41475",
    "feature_id": "531871",
    "feature_name": "Washington",
    "state_alpha": "DC",
    "county_name": "District of Columbia",
    "county_numeric": "001",
    "prim_lat_dec": "38.8951118",
    "prim_long_dec": "-77.0363658",
    "elev_in_m": "7",
    "elev_in_ft": "23",
    "lat": 38.8951118,
    "long": -77.0363658
  },
  {
    "globaleventid": 270241193,
    "sqldate": 20131003,
    "monthyear": 201310,
    "year": 2013,
    "fractiondate": "2013.7479",
    "eventcode": 130,
    "quadclass": 3,
    "nummentions": 8,
    "numsources": 1,
    "numarticles": 8,
    "avgtone": "1.3986013986014",
    "sourceurl": "http://www.thestandard.com.hk/breaking_news_detail.asp?id=41475",
    "feature_id": "531871",
    "feature_name": "Washington",
    "state_alpha": "DC",
    "county_name": "District of Columbia",
    "county_numeric": "001",
    "prim_lat_dec": "38.8951118",
    "prim_long_dec": "-77.0363658",
    "elev_in_m": "7",
    "elev_in_ft": "23",
    "lat": 38.8951118,
    "long": -77.0363658
  },
  {
    "globaleventid": 270241037,
    "sqldate": 20131003,
    "monthyear": 201310,
    "year": 2013,
    "fractiondate": "2013.7479",
    "eventcode": 125,
    "quadclass": 3,
    "nummentions": 8,
    "numsources": 1,
    "numarticles": 8,
    "avgtone": "3.13588850174216",
    "sourceurl": "http://www.reuters.com/article/2013/10/02/us-usa-fiscal-obama-boehner-idUSBRE9911CL20131002?feedType=RSS&feedName=wtMostRead",
    "feature_id": "531871",
    "feature_name": "Washington",
    "state_alpha": "DC",
    "county_name": "District of Columbia",
    "county_numeric": "001",
    "prim_lat_dec": "38.8951118",
    "prim_long_dec": "-77.0363658",
    "elev_in_m": "7",
    "elev_in_ft": "23",
    "lat": 38.8951118,
    "long": -77.0363658
  },
  {
    "globaleventid": 270241034,
    "sqldate": 20131003,
    "monthyear": 201310,
    "year": 2013,
    "fractiondate": "2013.7479",
    "eventcode": 120,
    "quadclass": 3,
    "nummentions": 5,
    "numsources": 1,
    "numarticles": 5,
    "avgtone": "3.60401459854015",
    "sourceurl": "http://www.gjsentinel.com/opinion/articles/email-letters-october-1-2013/",
    "feature_id": "204662",
    "feature_name": "Grand Junction",
    "state_alpha": "CO",
    "county_name": "Mesa",
    "county_numeric": "077",
    "prim_lat_dec": "39.0638705",
    "prim_long_dec": "-108.5506486",
    "elev_in_m": "1400",
    "elev_in_ft": "4593",
    "lat": 39.0638705,
    "long": -108.5506486
  },
  {
    "globaleventid": 270241021,
    "sqldate": 20131003,
    "monthyear": 201310,
    "year": 2013,
    "fractiondate": "2013.7479",
    "eventcode": 164,
    "quadclass": 4,
    "nummentions": 14,
    "numsources": 1,
    "numarticles": 7,
    "avgtone": "1.4957264957265",
    "sourceurl": "http://wallstcheatsheet.com/stocks/jack-welch-were-playing-politics-not-country.html/?a=viewall",
    "feature_id": "531871",
    "feature_name": "Washington",
    "state_alpha": "DC",
    "county_name": "District of Columbia",
    "county_numeric": "001",
    "prim_lat_dec": "38.8951118",
    "prim_long_dec": "-77.0363658",
    "elev_in_m": "7",
    "elev_in_ft": "23",
    "lat": 38.8951118,
    "long": -77.0363658
  },
  {
    "globaleventid": 270241018,
    "sqldate": 20131003,
    "monthyear": 201310,
    "year": 2013,
    "fractiondate": "2013.7479",
    "eventcode": 129,
    "quadclass": 3,
    "nummentions": 2,
    "numsources": 1,
    "numarticles": 2,
    "avgtone": "1.27118644067797",
    "sourceurl": "http://www.journalgazette.net/article/20131003/LOCAL12/310039973",
    "feature_id": "531871",
    "feature_name": "Washington",
    "state_alpha": "DC",
    "county_name": "District of Columbia",
    "county_numeric": "001",
    "prim_lat_dec": "38.8951118",
    "prim_long_dec": "-77.0363658",
    "elev_in_m": "7",
    "elev_in_ft": "23",
    "lat": 38.8951118,
    "long": -77.0363658
  },
  {
    "globaleventid": 270240992,
    "sqldate": 20131003,
    "monthyear": 201310,
    "year": 2013,
    "fractiondate": "2013.7479",
    "eventcode": 120,
    "quadclass": 3,
    "nummentions": 7,
    "numsources": 1,
    "numarticles": 7,
    "avgtone": "3.12965722801788",
    "sourceurl": "http://www.stlamerican.com/news/columnists/article_a30513a6-2b97-11e3-bd87-001a4bcf887a.html",
    "feature_id": "531871",
    "feature_name": "Washington",
    "state_alpha": "DC",
    "county_name": "District of Columbia",
    "county_numeric": "001",
    "prim_lat_dec": "38.8951118",
    "prim_long_dec": "-77.0363658",
    "elev_in_m": "7",
    "elev_in_ft": "23",
    "lat": 38.8951118,
    "long": -77.0363658
  },
  {
    "globaleventid": 270240987,
    "sqldate": 20131003,
    "monthyear": 201310,
    "year": 2013,
    "fractiondate": "2013.7479",
    "eventcode": 190,
    "quadclass": 4,
    "nummentions": 44,
    "numsources": 21,
    "numarticles": 44,
    "avgtone": "3.77319383604039",
    "sourceurl": "http://www.turnto23.com/news/state/gov-jerry-brown-to-sign-illegal-immigrant-drivers-license-bill-thursday-100313",
    "feature_id": "1662328",
    "feature_name": "Los Angeles",
    "state_alpha": "CA",
    "county_name": "Los Angeles",
    "county_numeric": "037",
    "prim_lat_dec": "34.0522342",
    "prim_long_dec": "-118.2436849",
    "elev_in_m": "89",
    "elev_in_ft": "292",
    "lat": 34.0522342,
    "long": -118.2436849
  },
  {
    "globaleventid": 270240982,
    "sqldate": 20131003,
    "monthyear": 201310,
    "year": 2013,
    "fractiondate": "2013.7479",
    "eventcode": 164,
    "quadclass": 4,
    "nummentions": 10,
    "numsources": 1,
    "numarticles": 10,
    "avgtone": "2.01342281879195",
    "sourceurl": "http://www.france24.com/en/20131003-us-govevernment-shutdown-obama-exasperated-white-house-meeting-republicans?ns_campaign=editorial&ns_fee=0&ns_linkname=20131003_us_govevernment_shutdown_obama_exasperated_white",
    "feature_id": "531871",
    "feature_name": "Washington",
    "state_alpha": "DC",
    "county_name": "District of Columbia",
    "county_numeric": "001",
    "prim_lat_dec": "38.8951118",
    "prim_long_dec": "-77.0363658",
    "elev_in_m": "7",
    "elev_in_ft": "23",
    "lat": 38.8951118,
    "long": -77.0363658
  },
  {
    "globaleventid": 270240979,
    "sqldate": 20131003,
    "monthyear": 201310,
    "year": 2013,
    "fractiondate": "2013.7479",
    "eventcode": 161,
    "quadclass": 4,
    "nummentions": 19,
    "numsources": 5,
    "numarticles": 19,
    "avgtone": "2.34220988676968",
    "sourceurl": "http://www.dispatch.com/content/stories/national_world/2013/10/03/u-s--retaliates-expels-venezuelan-diplomats.html",
    "feature_id": "531871",
    "feature_name": "Washington",
    "state_alpha": "DC",
    "county_name": "District of Columbia",
    "county_numeric": "001",
    "prim_lat_dec": "38.8951118",
    "prim_long_dec": "-77.0363658",
    "elev_in_m": "7",
    "elev_in_ft": "23",
    "lat": 38.8951118,
    "long": -77.0363658
  },
  {
    "globaleventid": 270240977,
    "sqldate": 20131003,
    "monthyear": 201310,
    "year": 2013,
    "fractiondate": "2013.7479",
    "eventcode": 131,
    "quadclass": 3,
    "nummentions": 172,
    "numsources": 38,
    "numarticles": 172,
    "avgtone": "2.25305547428771",
    "sourceurl": "http://www.lowellsun.com/todaysheadlines/ci_24229396/no-one-blinks-budget-shutdown",
    "feature_id": "531871",
    "feature_name": "Washington",
    "state_alpha": "DC",
    "county_name": "District of Columbia",
    "county_numeric": "001",
    "prim_lat_dec": "38.8951118",
    "prim_long_dec": "-77.0363658",
    "elev_in_m": "7",
    "elev_in_ft": "23",
    "lat": 38.8951118,
    "long": -77.0363658
  },
  {
    "globaleventid": 270240973,
    "sqldate": 20131003,
    "monthyear": 201310,
    "year": 2013,
    "fractiondate": "2013.7479",
    "eventcode": 130,
    "quadclass": 3,
    "nummentions": 2,
    "numsources": 2,
    "numarticles": 2,
    "avgtone": "2.19096398084531",
    "sourceurl": "http://www.denverpost.com/commented/ci_24220451/govt-shutdown-no-progress-ending-stalemate&c=vIFcNEVSaISUPul0KXoc1mCiFI0DLtC6VTRHJay_UDo&mkt=en-us",
    "feature_id": "531871",
    "feature_name": "Washington",
    "state_alpha": "DC",
    "county_name": "District of Columbia",
    "county_numeric": "001",
    "prim_lat_dec": "38.8951118",
    "prim_long_dec": "-77.0363658",
    "elev_in_m": "7",
    "elev_in_ft": "23",
    "lat": 38.8951118,
    "long": -77.0363658
  },
  {
    "globaleventid": 270240972,
    "sqldate": 20131003,
    "monthyear": 201310,
    "year": 2013,
    "fractiondate": "2013.7479",
    "eventcode": 130,
    "quadclass": 3,
    "nummentions": 23,
    "numsources": 2,
    "numarticles": 23,
    "avgtone": "1.87524048000004",
    "sourceurl": "http://www.dailymail.co.uk/news/article-2442363/Obama-warns-world-markets-guarantee-U-S-avoid-defaulting-debts.html",
    "feature_id": "531871",
    "feature_name": "Washington",
    "state_alpha": "DC",
    "county_name": "District of Columbia",
    "county_numeric": "001",
    "prim_lat_dec": "38.8951118",
    "prim_long_dec": "-77.0363658",
    "elev_in_m": "7",
    "elev_in_ft": "23",
    "lat": 38.8951118,
    "long": -77.0363658
  },
  {
    "globaleventid": 270240971,
    "sqldate": 20131003,
    "monthyear": 201310,
    "year": 2013,
    "fractiondate": "2013.7479",
    "eventcode": 129,
    "quadclass": 3,
    "nummentions": 172,
    "numsources": 38,
    "numarticles": 172,
    "avgtone": "2.25305547428771",
    "sourceurl": "http://www.lowellsun.com/todaysheadlines/ci_24229396/no-one-blinks-budget-shutdown",
    "feature_id": "531871",
    "feature_name": "Washington",
    "state_alpha": "DC",
    "county_name": "District of Columbia",
    "county_numeric": "001",
    "prim_lat_dec": "38.8951118",
    "prim_long_dec": "-77.0363658",
    "elev_in_m": "7",
    "elev_in_ft": "23",
    "lat": 38.8951118,
    "long": -77.0363658
  },
  {
    "globaleventid": 270240965,
    "sqldate": 20131003,
    "monthyear": 201310,
    "year": 2013,
    "fractiondate": "2013.7479",
    "eventcode": 112,
    "quadclass": 3,
    "nummentions": 6,
    "numsources": 2,
    "numarticles": 6,
    "avgtone": "1.85985401459854",
    "sourceurl": "http://www.dispatch.com/content/stories/national_world/2013/10/03/u-s--retaliates-expels-venezuelan-diplomats.html",
    "feature_id": "531871",
    "feature_name": "Washington",
    "state_alpha": "DC",
    "county_name": "District of Columbia",
    "county_numeric": "001",
    "prim_lat_dec": "38.8951118",
    "prim_long_dec": "-77.0363658",
    "elev_in_m": "7",
    "elev_in_ft": "23",
    "lat": 38.8951118,
    "long": -77.0363658
  },
  {
    "globaleventid": 270240828,
    "sqldate": 20131003,
    "monthyear": 201310,
    "year": 2013,
    "fractiondate": "2013.7479",
    "eventcode": 130,
    "quadclass": 3,
    "nummentions": 3,
    "numsources": 1,
    "numarticles": 3,
    "avgtone": "2.06185567010309",
    "sourceurl": "http://www.independent.ie/world-news/americas/obama-seeks-to-end-shutdown-29630832.html",
    "feature_id": "531871",
    "feature_name": "Washington",
    "state_alpha": "DC",
    "county_name": "District of Columbia",
    "county_numeric": "001",
    "prim_lat_dec": "38.8951118",
    "prim_long_dec": "-77.0363658",
    "elev_in_m": "7",
    "elev_in_ft": "23",
    "lat": 38.8951118,
    "long": -77.0363658
  },
  {
    "globaleventid": 270240724,
    "sqldate": 20131003,
    "monthyear": 201310,
    "year": 2013,
    "fractiondate": "2013.7479",
    "eventcode": 130,
    "quadclass": 3,
    "nummentions": 3,
    "numsources": 1,
    "numarticles": 3,
    "avgtone": "2.06185567010309",
    "sourceurl": "http://www.independent.ie/world-news/americas/obama-seeks-to-end-shutdown-29630832.html",
    "feature_id": "531871",
    "feature_name": "Washington",
    "state_alpha": "DC",
    "county_name": "District of Columbia",
    "county_numeric": "001",
    "prim_lat_dec": "38.8951118",
    "prim_long_dec": "-77.0363658",
    "elev_in_m": "7",
    "elev_in_ft": "23",
    "lat": 38.8951118,
    "long": -77.0363658
  },
  {
    "globaleventid": 270240713,
    "sqldate": 20131003,
    "monthyear": 201310,
    "year": 2013,
    "fractiondate": "2013.7479",
    "eventcode": 130,
    "quadclass": 3,
    "nummentions": 2,
    "numsources": 2,
    "numarticles": 2,
    "avgtone": "2.19096398084531",
    "sourceurl": "http://www.denverpost.com/commented/ci_24220451/govt-shutdown-no-progress-ending-stalemate&c=vIFcNEVSaISUPul0KXoc1mCiFI0DLtC6VTRHJay_UDo&mkt=en-us",
    "feature_id": "531871",
    "feature_name": "Washington",
    "state_alpha": "DC",
    "county_name": "District of Columbia",
    "county_numeric": "001",
    "prim_lat_dec": "38.8951118",
    "prim_long_dec": "-77.0363658",
    "elev_in_m": "7",
    "elev_in_ft": "23",
    "lat": 38.8951118,
    "long": -77.0363658
  },
  {
    "globaleventid": 270240712,
    "sqldate": 20131003,
    "monthyear": 201310,
    "year": 2013,
    "fractiondate": "2013.7479",
    "eventcode": 129,
    "quadclass": 3,
    "nummentions": 8,
    "numsources": 2,
    "numarticles": 8,
    "avgtone": "1.78577367512776",
    "sourceurl": "http://www.times-standard.com/rss/ci_24220727",
    "feature_id": "531871",
    "feature_name": "Washington",
    "state_alpha": "DC",
    "county_name": "District of Columbia",
    "county_numeric": "001",
    "prim_lat_dec": "38.8951118",
    "prim_long_dec": "-77.0363658",
    "elev_in_m": "7",
    "elev_in_ft": "23",
    "lat": 38.8951118,
    "long": -77.0363658
  },
  {
    "globaleventid": 270240699,
    "sqldate": 20131003,
    "monthyear": 201310,
    "year": 2013,
    "fractiondate": "2013.7479",
    "eventcode": 112,
    "quadclass": 3,
    "nummentions": 64,
    "numsources": 9,
    "numarticles": 64,
    "avgtone": "2.65180021303499",
    "sourceurl": "http://news.yahoo.com/holiday-shopping-expected-unless-110319401--finance.html",
    "feature_id": "531871",
    "feature_name": "Washington",
    "state_alpha": "DC",
    "county_name": "District of Columbia",
    "county_numeric": "001",
    "prim_lat_dec": "38.8951118",
    "prim_long_dec": "-77.0363658",
    "elev_in_m": "7",
    "elev_in_ft": "23",
    "lat": 38.8951118,
    "long": -77.0363658
  },
  {
    "globaleventid": 270240698,
    "sqldate": 20131003,
    "monthyear": 201310,
    "year": 2013,
    "fractiondate": "2013.7479",
    "eventcode": 112,
    "quadclass": 3,
    "nummentions": 4,
    "numsources": 1,
    "numarticles": 4,
    "avgtone": "0.715563506261181",
    "sourceurl": "http://www.journalgazette.net/article/20131002/NEWS03/310029969/1066",
    "feature_id": "434689",
    "feature_name": "Fort Wayne",
    "state_alpha": "IN",
    "county_name": "Allen",
    "county_numeric": "003",
    "prim_lat_dec": "41.1306041",
    "prim_long_dec": "-85.1288597",
    "elev_in_m": "247",
    "elev_in_ft": "810",
    "lat": 41.1306041,
    "long": -85.1288597
  },
  {
    "globaleventid": 270240694,
    "sqldate": 20131003,
    "monthyear": 201310,
    "year": 2013,
    "fractiondate": "2013.7479",
    "eventcode": 100,
    "quadclass": 3,
    "nummentions": 87,
    "numsources": 11,
    "numarticles": 87,
    "avgtone": "2.54609710205345",
    "sourceurl": "http://www.delcotimes.com/general-news/20131003/day-3-obama-hill-leaders-fail-to-solve-shutdown-impasse",
    "feature_id": "531871",
    "feature_name": "Washington",
    "state_alpha": "DC",
    "county_name": "District of Columbia",
    "county_numeric": "001",
    "prim_lat_dec": "38.8951118",
    "prim_long_dec": "-77.0363658",
    "elev_in_m": "7",
    "elev_in_ft": "23",
    "lat": 38.8951118,
    "long": -77.0363658
  },
  {
    "globaleventid": 270240620,
    "sqldate": 20131003,
    "monthyear": 201310,
    "year": 2013,
    "fractiondate": "2013.7479",
    "eventcode": 162,
    "quadclass": 4,
    "nummentions": 10,
    "numsources": 1,
    "numarticles": 10,
    "avgtone": "2.17391304347826",
    "sourceurl": "http://www.jta.org/2013/10/03/news-opinion/politics/obama-administration-shutdown-will-affect-israel",
    "feature_id": "531871",
    "feature_name": "Washington",
    "state_alpha": "DC",
    "county_name": "District of Columbia",
    "county_numeric": "001",
    "prim_lat_dec": "38.8951118",
    "prim_long_dec": "-77.0363658",
    "elev_in_m": "7",
    "elev_in_ft": "23",
    "lat": 38.8951118,
    "long": -77.0363658
  },
  {
    "globaleventid": 270240505,
    "sqldate": 20131003,
    "monthyear": 201310,
    "year": 2013,
    "fractiondate": "2013.7479",
    "eventcode": 130,
    "quadclass": 3,
    "nummentions": 6,
    "numsources": 3,
    "numarticles": 6,
    "avgtone": "2.55102040816327",
    "sourceurl": "http://www.smh.com.au/world/united-states-shutdown-solution-no-closer-after-crisis-meeting-20131003-2uvfk.html",
    "feature_id": "531871",
    "feature_name": "Washington",
    "state_alpha": "DC",
    "county_name": "District of Columbia",
    "county_numeric": "001",
    "prim_lat_dec": "38.8951118",
    "prim_long_dec": "-77.0363658",
    "elev_in_m": "7",
    "elev_in_ft": "23",
    "lat": 38.8951118,
    "long": -77.0363658
  },
  {
    "globaleventid": 270240503,
    "sqldate": 20131003,
    "monthyear": 201310,
    "year": 2013,
    "fractiondate": "2013.7479",
    "eventcode": 120,
    "quadclass": 3,
    "nummentions": 11,
    "numsources": 2,
    "numarticles": 11,
    "avgtone": "2.53066825977602",
    "sourceurl": "http://www.marketwatch.com/story/white-house-meeting-ends-without-deal-2013-10-02?link=MW_popular",
    "feature_id": "531871",
    "feature_name": "Washington",
    "state_alpha": "DC",
    "county_name": "District of Columbia",
    "county_numeric": "001",
    "prim_lat_dec": "38.8951118",
    "prim_long_dec": "-77.0363658",
    "elev_in_m": "7",
    "elev_in_ft": "23",
    "lat": 38.8951118,
    "long": -77.0363658
  },
  {
    "globaleventid": 270240501,
    "sqldate": 20131003,
    "monthyear": 201310,
    "year": 2013,
    "fractiondate": "2013.7479",
    "eventcode": 112,
    "quadclass": 3,
    "nummentions": 11,
    "numsources": 2,
    "numarticles": 11,
    "avgtone": "2.35598047711066",
    "sourceurl": "http://updatednews.ca/2013/10/03/u-s-government-shutdown-gets-mixed-reception-in-rural-georgia/",
    "feature_id": "531871",
    "feature_name": "Washington",
    "state_alpha": "DC",
    "county_name": "District of Columbia",
    "county_numeric": "001",
    "prim_lat_dec": "38.8951118",
    "prim_long_dec": "-77.0363658",
    "elev_in_m": "7",
    "elev_in_ft": "23",
    "lat": 38.8951118,
    "long": -77.0363658
  },
  {
    "globaleventid": 270240443,
    "sqldate": 20131003,
    "monthyear": 201310,
    "year": 2013,
    "fractiondate": "2013.7479",
    "eventcode": 112,
    "quadclass": 3,
    "nummentions": 2,
    "numsources": 1,
    "numarticles": 2,
    "avgtone": "1.2987012987013",
    "sourceurl": "http://www.thenewage.co.za/108475-1020-53-Belarus_leader_says_Obama_surprises_him_blacks_were_slaves",
    "feature_id": "531871",
    "feature_name": "Washington",
    "state_alpha": "DC",
    "county_name": "District of Columbia",
    "county_numeric": "001",
    "prim_lat_dec": "38.8951118",
    "prim_long_dec": "-77.0363658",
    "elev_in_m": "7",
    "elev_in_ft": "23",
    "lat": 38.8951118,
    "long": -77.0363658
  },
  {
    "globaleventid": 270240440,
    "sqldate": 20131003,
    "monthyear": 201310,
    "year": 2013,
    "fractiondate": "2013.7479",
    "eventcode": 170,
    "quadclass": 4,
    "nummentions": 2,
    "numsources": 1,
    "numarticles": 2,
    "avgtone": "3.05927342256214",
    "sourceurl": "http://www.kansas.com/2013/10/03/3035233/shadi-hamid-and-peter-mandaville.html",
    "feature_id": "531871",
    "feature_name": "Washington",
    "state_alpha": "DC",
    "county_name": "District of Columbia",
    "county_numeric": "001",
    "prim_lat_dec": "38.8951118",
    "prim_long_dec": "-77.0363658",
    "elev_in_m": "7",
    "elev_in_ft": "23",
    "lat": 38.8951118,
    "long": -77.0363658
  },
  {
    "globaleventid": 270240437,
    "sqldate": 20131003,
    "monthyear": 201310,
    "year": 2013,
    "fractiondate": "2013.7479",
    "eventcode": 120,
    "quadclass": 3,
    "nummentions": 20,
    "numsources": 1,
    "numarticles": 20,
    "avgtone": "2.87081339712919",
    "sourceurl": "http://www.latimes.com/local/la-me-school-bond-bill-20131003,0,3434214.story?track=rss",
    "feature_id": "1659564",
    "feature_name": "Sacramento",
    "state_alpha": "CA",
    "county_name": "Sacramento",
    "county_numeric": "067",
    "prim_lat_dec": "38.5815719",
    "prim_long_dec": "-121.4943996",
    "elev_in_m": "8",
    "elev_in_ft": "26",
    "lat": 38.5815719,
    "long": -121.4943996
  },
  {
    "globaleventid": 270240433,
    "sqldate": 20131003,
    "monthyear": 201310,
    "year": 2013,
    "fractiondate": "2013.7479",
    "eventcode": 193,
    "quadclass": 4,
    "nummentions": 10,
    "numsources": 1,
    "numarticles": 10,
    "avgtone": "2.73037542662116",
    "sourceurl": "http://www.hispanicbusiness.com/2013/10/2/nasa_preparing_to_launch_3-d_printer.htm",
    "feature_id": "531871",
    "feature_name": "Washington",
    "state_alpha": "DC",
    "county_name": "District of Columbia",
    "county_numeric": "001",
    "prim_lat_dec": "38.8951118",
    "prim_long_dec": "-77.0363658",
    "elev_in_m": "7",
    "elev_in_ft": "23",
    "lat": 38.8951118,
    "long": -77.0363658
  },
  {
    "globaleventid": 270240432,
    "sqldate": 20131003,
    "monthyear": 201310,
    "year": 2013,
    "fractiondate": "2013.7479",
    "eventcode": 173,
    "quadclass": 4,
    "nummentions": 6,
    "numsources": 1,
    "numarticles": 6,
    "avgtone": "0.0",
    "sourceurl": "http://www.westport-news.com/news/crime/article/Vt-mayor-convicted-of-DUI-gets-community-service-4864261.php",
    "feature_id": "1461773",
    "feature_name": "Newport",
    "state_alpha": "VT",
    "county_name": "Orleans",
    "county_numeric": "019",
    "prim_lat_dec": "44.9364356",
    "prim_long_dec": "-72.2051022",
    "elev_in_m": "208",
    "elev_in_ft": "682",
    "lat": 44.9364356,
    "long": -72.2051022
  },
  {
    "globaleventid": 270240407,
    "sqldate": 20131003,
    "monthyear": 201310,
    "year": 2013,
    "fractiondate": "2013.7479",
    "eventcode": 100,
    "quadclass": 3,
    "nummentions": 6,
    "numsources": 1,
    "numarticles": 6,
    "avgtone": "1.74757281553398",
    "sourceurl": "http://thehill.com/blogs/on-the-money/banking-financial-institutions/326145-bank-ceos-huddle-with-obama&c=j3oGmOsplqDDZnxEn9oHyeD3syMTryj8tKmbdhblLcA&mkt=en-us",
    "feature_id": "531871",
    "feature_name": "Washington",
    "state_alpha": "DC",
    "county_name": "District of Columbia",
    "county_numeric": "001",
    "prim_lat_dec": "38.8951118",
    "prim_long_dec": "-77.0363658",
    "elev_in_m": "7",
    "elev_in_ft": "23",
    "lat": 38.8951118,
    "long": -77.0363658
  },
  {
    "globaleventid": 270240404,
    "sqldate": 20131003,
    "monthyear": 201310,
    "year": 2013,
    "fractiondate": "2013.7479",
    "eventcode": 130,
    "quadclass": 3,
    "nummentions": 30,
    "numsources": 3,
    "numarticles": 30,
    "avgtone": "1.34022345957976",
    "sourceurl": "http://businesstoday.intoday.in/story/us-govt-shutdown-no-progress-on-stalemate/1/199116.html",
    "feature_id": "531871",
    "feature_name": "Washington",
    "state_alpha": "DC",
    "county_name": "District of Columbia",
    "county_numeric": "001",
    "prim_lat_dec": "38.8951118",
    "prim_long_dec": "-77.0363658",
    "elev_in_m": "7",
    "elev_in_ft": "23",
    "lat": 38.8951118,
    "long": -77.0363658
  },
  {
    "globaleventid": 270240403,
    "sqldate": 20131003,
    "monthyear": 201310,
    "year": 2013,
    "fractiondate": "2013.7479",
    "eventcode": 125,
    "quadclass": 3,
    "nummentions": 20,
    "numsources": 1,
    "numarticles": 20,
    "avgtone": "2.94464075382803",
    "sourceurl": "http://www.thehindubusinessline.com/news/international/no-end-to-us-shutdown-in-sight-after-obama-meeting/article5195561.ece",
    "feature_id": "531871",
    "feature_name": "Washington",
    "state_alpha": "DC",
    "county_name": "District of Columbia",
    "county_numeric": "001",
    "prim_lat_dec": "38.8951118",
    "prim_long_dec": "-77.0363658",
    "elev_in_m": "7",
    "elev_in_ft": "23",
    "lat": 38.8951118,
    "long": -77.0363658
  },
  {
    "globaleventid": 270240196,
    "sqldate": 20131003,
    "monthyear": 201310,
    "year": 2013,
    "fractiondate": "2013.7479",
    "eventcode": 120,
    "quadclass": 3,
    "nummentions": 10,
    "numsources": 1,
    "numarticles": 10,
    "avgtone": "3.21615557217651",
    "sourceurl": "http://www.eurasiareview.com/03102013-curse-russian-exceptionalism-oped/",
    "feature_id": "973301",
    "feature_name": "Yale",
    "state_alpha": "NY",
    "county_name": "Seneca",
    "county_numeric": "099",
    "prim_lat_dec": "42.8064569",
    "prim_long_dec": "-76.9199618",
    "elev_in_m": "165",
    "elev_in_ft": "541",
    "lat": 42.8064569,
    "long": -76.9199618
  },
  {
    "globaleventid": 270240195,
    "sqldate": 20131003,
    "monthyear": 201310,
    "year": 2013,
    "fractiondate": "2013.7479",
    "eventcode": 112,
    "quadclass": 3,
    "nummentions": 4,
    "numsources": 1,
    "numarticles": 4,
    "avgtone": "2.5",
    "sourceurl": "http://news.ninemsn.com.au/national/2013/10/03/13/20/wa-whistleblower-extortion-charge-dropped",
    "feature_id": "531871",
    "feature_name": "Washington",
    "state_alpha": "DC",
    "county_name": "District of Columbia",
    "county_numeric": "001",
    "prim_lat_dec": "38.8951118",
    "prim_long_dec": "-77.0363658",
    "elev_in_m": "7",
    "elev_in_ft": "23",
    "lat": 38.8951118,
    "long": -77.0363658
  },
  {
    "globaleventid": 270240180,
    "sqldate": 20131003,
    "monthyear": 201310,
    "year": 2013,
    "fractiondate": "2013.7479",
    "eventcode": 190,
    "quadclass": 4,
    "nummentions": 8,
    "numsources": 1,
    "numarticles": 8,
    "avgtone": "2.83018867924528",
    "sourceurl": "http://www.columbiaspectator.com/2013/10/03/wiseman-discusses-new-film-italian-academy",
    "feature_id": "1658037",
    "feature_name": "Berkeley",
    "state_alpha": "CA",
    "county_name": "Alameda",
    "county_numeric": "001",
    "prim_lat_dec": "37.8715926",
    "prim_long_dec": "-122.272747",
    "elev_in_m": "52",
    "elev_in_ft": "171",
    "lat": 37.8715926,
    "long": -122.272747
  },
  {
    "globaleventid": 270240179,
    "sqldate": 20131003,
    "monthyear": 201310,
    "year": 2013,
    "fractiondate": "2013.7479",
    "eventcode": 173,
    "quadclass": 4,
    "nummentions": 4,
    "numsources": 1,
    "numarticles": 4,
    "avgtone": "3.0416471689284",
    "sourceurl": "http://www.gjsentinel.com/opinion/articles/printed-letters-october-2-2013/",
    "feature_id": "204662",
    "feature_name": "Grand Junction",
    "state_alpha": "CO",
    "county_name": "Mesa",
    "county_numeric": "077",
    "prim_lat_dec": "39.0638705",
    "prim_long_dec": "-108.5506486",
    "elev_in_m": "1400",
    "elev_in_ft": "4593",
    "lat": 39.0638705,
    "long": -108.5506486
  },
  {
    "globaleventid": 270240178,
    "sqldate": 20131003,
    "monthyear": 201310,
    "year": 2013,
    "fractiondate": "2013.7479",
    "eventcode": 138,
    "quadclass": 3,
    "nummentions": 1,
    "numsources": 1,
    "numarticles": 1,
    "avgtone": "2.78497409326425",
    "sourceurl": "http://artvoice.com/issues/v12n40/news_analysis",
    "feature_id": "423587",
    "feature_name": "Chicago",
    "state_alpha": "IL",
    "county_name": "Cook",
    "county_numeric": "031",
    "prim_lat_dec": "41.850033",
    "prim_long_dec": "-87.6500523",
    "elev_in_m": "179",
    "elev_in_ft": "587",
    "lat": 41.850033,
    "long": -87.6500523
  },
  {
    "globaleventid": 270240091,
    "sqldate": 20131003,
    "monthyear": 201310,
    "year": 2013,
    "fractiondate": "2013.7479",
    "eventcode": 112,
    "quadclass": 3,
    "nummentions": 5,
    "numsources": 1,
    "numarticles": 5,
    "avgtone": "2.98313878080415",
    "sourceurl": "http://www.buffalonews.com/city-region/education/forum-on-testing-reform-draws-2500-vocal-teachers-parents-and-administrators-20131002",
    "feature_id": "972351",
    "feature_name": "Crawford",
    "state_alpha": "NY",
    "county_name": "Ulster",
    "county_numeric": "111",
    "prim_lat_dec": "41.6556492",
    "prim_long_dec": "-74.3282078",
    "elev_in_m": "197",
    "elev_in_ft": "646",
    "lat": 41.6556492,
    "long": -74.3282078
  },
  {
    "globaleventid": 270240090,
    "sqldate": 20131003,
    "monthyear": 201310,
    "year": 2013,
    "fractiondate": "2013.7479",
    "eventcode": 112,
    "quadclass": 3,
    "nummentions": 1,
    "numsources": 1,
    "numarticles": 1,
    "avgtone": "2.98313878080415",
    "sourceurl": "http://www.buffalonews.com/city-region/education/forum-on-testing-reform-draws-2500-vocal-teachers-parents-and-administrators-20131002",
    "feature_id": "971949",
    "feature_name": "West Seneca",
    "state_alpha": "NY",
    "county_name": "Erie",
    "county_numeric": "029",
    "prim_lat_dec": "42.8500585",
    "prim_long_dec": "-78.7997547",
    "elev_in_m": "182",
    "elev_in_ft": "597",
    "lat": 42.8500585,
    "long": -78.7997547
  },
  {
    "globaleventid": 270240017,
    "sqldate": 20131003,
    "monthyear": 201310,
    "year": 2013,
    "fractiondate": "2013.7479",
    "eventcode": 193,
    "quadclass": 4,
    "nummentions": 2,
    "numsources": 1,
    "numarticles": 2,
    "avgtone": "1.31578947368421",
    "sourceurl": "http://www.suntimes.com/news/crime/22937191-418/1-killed-1-hurt-in-kenwood-shooting.html",
    "feature_id": "411416",
    "feature_name": "Kenwood",
    "state_alpha": "IL",
    "county_name": "Champaign",
    "county_numeric": "019",
    "prim_lat_dec": "40.1061427",
    "prim_long_dec": "-88.2944963",
    "elev_in_m": "221",
    "elev_in_ft": "725",
    "lat": 40.1061427,
    "long": -88.2944963
  },
  {
    "globaleventid": 270240016,
    "sqldate": 20131003,
    "monthyear": 201310,
    "year": 2013,
    "fractiondate": "2013.7479",
    "eventcode": 193,
    "quadclass": 4,
    "nummentions": 4,
    "numsources": 1,
    "numarticles": 4,
    "avgtone": "1.31578947368421",
    "sourceurl": "http://www.suntimes.com/news/crime/22937191-418/1-killed-1-hurt-in-kenwood-shooting.html",
    "feature_id": "405372",
    "feature_name": "Calumet City",
    "state_alpha": "IL",
    "county_name": "Cook",
    "county_numeric": "031",
    "prim_lat_dec": "41.6155909",
    "prim_long_dec": "-87.5294871",
    "elev_in_m": "180",
    "elev_in_ft": "591",
    "lat": 41.6155909,
    "long": -87.5294871
  },