[
  {
    "globaleventid": 259479213,
    "sqldate": 20130714,
    "monthyear": 201307,
    "year": 2013,
    "fractiondate": "2013.5315",
    "eventcode": 190,
    "quadclass": 4,
    "nummentions": 7,
    "numsources": 1,
    "numarticles": 7,
    "avgtone": "1.89003436426117",
    "sourceurl": "http://newyork.cbslocal.com/2013/07/13/not-guilty-verdict-delivered-in-zimmerman-trial/",
    "feature_id": "295004",
    "feature_name": "Miami",
    "state_alpha": "FL",
    "county_name": "Miami-Dade",
    "county_numeric": "086",
    "prim_lat_dec": "25.7742658",
    "prim_long_dec": "-80.1936589",
    "elev_in_m": "2",
    "elev_in_ft": "7",
    "lat": 25.7742658,
    "long": -80.1936589
  },
  {
    "globaleventid": 259479212,
    "sqldate": 20130714,
    "monthyear": 201307,
    "year": 2013,
    "fractiondate": "2013.5315",
    "eventcode": 190,
    "quadclass": 4,
    "nummentions": 2,
    "numsources": 1,
    "numarticles": 2,
    "avgtone": "0.0",
    "sourceurl": "http://www.ktts.com/news/215421371.html",
    "feature_id": "83350",
    "feature_name": "Little Rock",
    "state_alpha": "AR",
    "county_name": "Pulaski",
    "county_numeric": "119",
    "prim_lat_dec": "34.7464809",
    "prim_long_dec": "-92.2895948",
    "elev_in_m": "102",
    "elev_in_ft": "335",
    "lat": 34.7464809,
    "long": -92.2895948
  },
  {
    "globaleventid": 259479210,
    "sqldate": 20130714,
    "monthyear": 201307,
    "year": 2013,
    "fractiondate": "2013.5315",
    "eventcode": 190,
    "quadclass": 4,
    "nummentions": 8,
    "numsources": 1,
    "numarticles": 8,
    "avgtone": "0.0",
    "sourceurl": "http://www.ktts.com/news/215421371.html",
    "feature_id": "83350",
    "feature_name": "Little Rock",
    "state_alpha": "AR",
    "county_name": "Pulaski",
    "county_numeric": "119",
    "prim_lat_dec": "34.7464809",
    "prim_long_dec": "-92.2895948",
    "elev_in_m": "102",
    "elev_in_ft": "335",
    "lat": 34.7464809,
    "long": -92.2895948
  },
  {
    "globaleventid": 259479209,
    "sqldate": 20130714,
    "monthyear": 201307,
    "year": 2013,
    "fractiondate": "2013.5315",
    "eventcode": 190,
    "quadclass": 4,
    "nummentions": 26,
    "numsources": 2,
    "numarticles": 26,
    "avgtone": "1.61377084454008",
    "sourceurl": "http://www.thv11.com/news/article/271889/2/Ark-State-Police-investigating-triple-murder-in-Delight",
    "feature_id": "77237",
    "feature_name": "Hot Springs",
    "state_alpha": "AR",
    "county_name": "Garland",
    "county_numeric": "051",
    "prim_lat_dec": "34.5037004",
    "prim_long_dec": "-93.0551795",
    "elev_in_m": "182",
    "elev_in_ft": "597",
    "lat": 34.5037004,
    "long": -93.0551795
  },
  {
    "globaleventid": 259479207,
    "sqldate": 20130714,
    "monthyear": 201307,
    "year": 2013,
    "fractiondate": "2013.5315",
    "eventcode": 190,
    "quadclass": 4,
    "nummentions": 6,
    "numsources": 1,
    "numarticles": 6,
    "avgtone": "2.53841160970317",
    "sourceurl": "http://www.channelnewsasia.com/news/world/us-jury-finds-zimmerman/743710.html",
    "feature_id": "288240",
    "feature_name": "Orlando",
    "state_alpha": "FL",
    "county_name": "Orange",
    "county_numeric": "095",
    "prim_lat_dec": "28.5383355",
    "prim_long_dec": "-81.3792365",
    "elev_in_m": "31",
    "elev_in_ft": "102",
    "lat": 28.5383355,
    "long": -81.3792365
  },
  {
    "globaleventid": 259479206,
    "sqldate": 20130714,
    "monthyear": 201307,
    "year": 2013,
    "fractiondate": "2013.5315",
    "eventcode": 190,
    "quadclass": 4,
    "nummentions": 1,
    "numsources": 1,
    "numarticles": 1,
    "avgtone": "2.02842759846017",
    "sourceurl": "http://www.heraldtribune.com/article/20130713/WIRE/130719890",
    "feature_id": "277566",
    "feature_name": "Oakland",
    "state_alpha": "CA",
    "county_name": "Alameda",
    "county_numeric": "001",
    "prim_lat_dec": "37.8043722",
    "prim_long_dec": "-122.2708026",
    "elev_in_m": "13",
    "elev_in_ft": "43",
    "lat": 37.8043722,
    "long": -122.2708026
  },
  {
    "globaleventid": 259479204,
    "sqldate": 20130714,
    "monthyear": 201307,
    "year": 2013,
    "fractiondate": "2013.5315",
    "eventcode": 190,
    "quadclass": 4,
    "nummentions": 4,
    "numsources": 1,
    "numarticles": 4,
    "avgtone": "3.73333333333333",
    "sourceurl": "http://au.news.yahoo.com/latest/a/-/latest/17991202/zimmerman-not-guilty-in-death-of-trayvon-martin/",
    "feature_id": "1662328",
    "feature_name": "Los Angeles",
    "state_alpha": "CA",
    "county_name": "Los Angeles",
    "county_numeric": "037",
    "prim_lat_dec": "34.0522342",
    "prim_long_dec": "-118.2436849",
    "elev_in_m": "89",
    "elev_in_ft": "292",
    "lat": 34.0522342,
    "long": -118.2436849
  },
  {
    "globaleventid": 259479203,
    "sqldate": 20130714,
    "monthyear": 201307,
    "year": 2013,
    "fractiondate": "2013.5315",
    "eventcode": 190,
    "quadclass": 4,
    "nummentions": 28,
    "numsources": 6,
    "numarticles": 28,
    "avgtone": "0.840011429610485",
    "sourceurl": "http://english.people.com.cn/90777/8325377.html",
    "feature_id": "1380948",
    "feature_name": "Houston",
    "state_alpha": "TX",
    "county_name": "Harris",
    "county_numeric": "201",
    "prim_lat_dec": "29.7632836",
    "prim_long_dec": "-95.3632715",
    "elev_in_m": "11",
    "elev_in_ft": "36",
    "lat": 29.7632836,
    "long": -95.3632715
  },
  {
    "globaleventid": 259479202,
    "sqldate": 20130714,
    "monthyear": 201307,
    "year": 2013,
    "fractiondate": "2013.5315",
    "eventcode": 190,
    "quadclass": 4,
    "nummentions": 2,
    "numsources": 1,
    "numarticles": 2,
    "avgtone": "1.61662817551963",
    "sourceurl": "http://metro.co.uk/2013/07/14/seven-police-officers-injured-in-second-night-of-belfast-rioting-3881823/?ITO=news-sitemap",
    "feature_id": "1191775",
    "feature_name": "Woodvale",
    "state_alpha": "PA",
    "county_name": "Cambria",
    "county_numeric": "021",
    "prim_lat_dec": "40.3353517",
    "prim_long_dec": "-78.903636",
    "elev_in_m": "369",
    "elev_in_ft": "1211",
    "lat": 40.3353517,
    "long": -78.903636
  },
  {
    "globaleventid": 259479195,
    "sqldate": 20130714,
    "monthyear": 201307,
    "year": 2013,
    "fractiondate": "2013.5315",
    "eventcode": 180,
    "quadclass": 4,
    "nummentions": 2,
    "numsources": 1,
    "numarticles": 2,
    "avgtone": "0.659340659340659",
    "sourceurl": "http://lubbockonline.com/texas/2013-07-14/texas-region",
    "feature_id": "1369752",
    "feature_name": "Texarkana",
    "state_alpha": "TX",
    "county_name": "Bowie",
    "county_numeric": "037",
    "prim_lat_dec": "33.425125",
    "prim_long_dec": "-94.0476882",
    "elev_in_m": "91",
    "elev_in_ft": "299",
    "lat": 33.425125,
    "long": -94.0476882
  },
  {
    "globaleventid": 259479194,
    "sqldate": 20130714,
    "monthyear": 201307,
    "year": 2013,
    "fractiondate": "2013.5315",
    "eventcode": 180,
    "quadclass": 4,
    "nummentions": 6,
    "numsources": 1,
    "numarticles": 6,
    "avgtone": "0.659340659340659",
    "sourceurl": "http://lubbockonline.com/texas/2013-07-14/texas-region",
    "feature_id": "1369752",
    "feature_name": "Texarkana",
    "state_alpha": "TX",
    "county_name": "Bowie",
    "county_numeric": "037",
    "prim_lat_dec": "33.425125",
    "prim_long_dec": "-94.0476882",
    "elev_in_m": "91",
    "elev_in_ft": "299",
    "lat": 33.425125,
    "long": -94.0476882
  },
  {
    "globaleventid": 259479189,
    "sqldate": 20130714,
    "monthyear": 201307,
    "year": 2013,
    "fractiondate": "2013.5315",
    "eventcode": 180,
    "quadclass": 4,
    "nummentions": 4,
    "numsources": 1,
    "numarticles": 4,
    "avgtone": "0.0",
    "sourceurl": "http://www.wcax.com/story/22833980/high-speed-chase-ends-without-arrest",
    "feature_id": "1457298",
    "feature_name": "East Montpelier",
    "state_alpha": "VT",
    "county_name": "Washington",
    "county_numeric": "023",
    "prim_lat_dec": "44.2711706",
    "prim_long_dec": "-72.4870503",
    "elev_in_m": "226",
    "elev_in_ft": "741",
    "lat": 44.2711706,
    "long": -72.4870503
  },
  {
    "globaleventid": 259479163,
    "sqldate": 20130714,
    "monthyear": 201307,
    "year": 2013,
    "fractiondate": "2013.5315",
    "eventcode": 173,
    "quadclass": 4,
    "nummentions": 1,
    "numsources": 1,
    "numarticles": 1,
    "avgtone": "0.0",
    "sourceurl": "http://www.wpri.com/dpp/news/local_news/se_mass/chatham-one-killed-four-hurt-after-man-flees-from-police",
    "feature_id": "615912",
    "feature_name": "Chatham",
    "state_alpha": "MA",
    "county_name": "Barnstable",
    "county_numeric": "001",
    "prim_lat_dec": "41.6820563",
    "prim_long_dec": "-69.9597376",
    "elev_in_m": "4",
    "elev_in_ft": "13",
    "lat": 41.6820563,
    "long": -69.9597376
  },
  {
    "globaleventid": 259479161,
    "sqldate": 20130714,
    "monthyear": 201307,
    "year": 2013,
    "fractiondate": "2013.5315",
    "eventcode": 173,
    "quadclass": 4,
    "nummentions": 4,
    "numsources": 1,
    "numarticles": 4,
    "avgtone": "3.18396226415094",
    "sourceurl": "http://www.washingtonpost.com/opinions/fred-hiatt-obamas-broken-commitment-to-human-rights-in-russia/2013/07/14/516f91b4-eb0b-11e2-aa9f-c03a72e2d342_story.html",
    "feature_id": "531871",
    "feature_name": "Washington",
    "state_alpha": "DC",
    "county_name": "District of Columbia",
    "county_numeric": "001",
    "prim_lat_dec": "38.8951118",
    "prim_long_dec": "-77.0363658",
    "elev_in_m": "7",
    "elev_in_ft": "23",
    "lat": 38.8951118,
    "long": -77.0363658
  },
  {
    "globaleventid": 259479157,
    "sqldate": 20130714,
    "monthyear": 201307,
    "year": 2013,
    "fractiondate": "2013.5315",
    "eventcode": 173,
    "quadclass": 4,
    "nummentions": 6,
    "numsources": 1,
    "numarticles": 6,
    "avgtone": "2.53841160970317",
    "sourceurl": "http://www.channelnewsasia.com/news/world/us-jury-finds-zimmerman/743710.html",
    "feature_id": "288240",
    "feature_name": "Orlando",
    "state_alpha": "FL",
    "county_name": "Orange",
    "county_numeric": "095",
    "prim_lat_dec": "28.5383355",
    "prim_long_dec": "-81.3792365",
    "elev_in_m": "31",
    "elev_in_ft": "102",
    "lat": 28.5383355,
    "long": -81.3792365
  },
  {
    "globaleventid": 259479156,
    "sqldate": 20130714,
    "monthyear": 201307,
    "year": 2013,
    "fractiondate": "2013.5315",
    "eventcode": 173,
    "quadclass": 4,
    "nummentions": 1,
    "numsources": 1,
    "numarticles": 1,
    "avgtone": "1.36518771331058",
    "sourceurl": "http://gantdaily.com/2013/07/14/zimmerman-acquittal-sparks-oakland-san-francisco-protests/",
    "feature_id": "277566",
    "feature_name": "Oakland",
    "state_alpha": "CA",
    "county_name": "Alameda",
    "county_numeric": "001",
    "prim_lat_dec": "37.8043722",
    "prim_long_dec": "-122.2708026",
    "elev_in_m": "13",
    "elev_in_ft": "43",
    "lat": 37.8043722,
    "long": -122.2708026
  },
  {
    "globaleventid": 259479153,
    "sqldate": 20130714,
    "monthyear": 201307,
    "year": 2013,
    "fractiondate": "2013.5315",
    "eventcode": 173,
    "quadclass": 4,
    "nummentions": 2,
    "numsources": 1,
    "numarticles": 2,
    "avgtone": "2.25563909774436",
    "sourceurl": "http://middletownpress.com/articles/2013/07/14/opinion/doc51e2bb97055e9245127432.txt",
    "feature_id": "208877",
    "feature_name": "Middletown",
    "state_alpha": "CT",
    "county_name": "Middlesex",
    "county_numeric": "007",
    "prim_lat_dec": "41.5623209",
    "prim_long_dec": "-72.6506488",
    "elev_in_m": "16",
    "elev_in_ft": "52",
    "lat": 41.5623209,
    "long": -72.6506488
  },
  {
    "globaleventid": 259479152,
    "sqldate": 20130714,
    "monthyear": 201307,
    "year": 2013,
    "fractiondate": "2013.5315",
    "eventcode": 173,
    "quadclass": 4,
    "nummentions": 46,
    "numsources": 5,
    "numarticles": 46,
    "avgtone": "0.634119760472077",
    "sourceurl": "http://www.starherald.com/news/regional_statewide/man-who-raped-girl-gets-years-to-life/article_85a57666-ecae-11e2-b8c0-0019bb2963f4.html",
    "feature_id": "204797",
    "feature_name": "Colorado Springs",
    "state_alpha": "CO",
    "county_name": "El Paso",
    "county_numeric": "041",
    "prim_lat_dec": "38.8338816",
    "prim_long_dec": "-104.8213634",
    "elev_in_m": "1832",
    "elev_in_ft": "6010",
    "lat": 38.8338816,
    "long": -104.8213634
  },
  {
    "globaleventid": 259479151,
    "sqldate": 20130714,
    "monthyear": 201307,
    "year": 2013,
    "fractiondate": "2013.5315",
    "eventcode": 173,
    "quadclass": 4,
    "nummentions": 4,
    "numsources": 1,
    "numarticles": 4,
    "avgtone": "2.68817204301075",
    "sourceurl": "http://www.chieftain.com/news/1472951-120/sain-fields-rathod-denver",
    "feature_id": "201738",
    "feature_name": "Denver",
    "state_alpha": "CO",
    "county_name": "Denver",
    "county_numeric": "031",
    "prim_lat_dec": "39.7391536",
    "prim_long_dec": "-104.9847034",
    "elev_in_m": "1609",
    "elev_in_ft": "5279",
    "lat": 39.7391536,
    "long": -104.9847034
  },
  {
    "globaleventid": 259479150,
    "sqldate": 20130714,
    "monthyear": 201307,
    "year": 2013,
    "fractiondate": "2013.5315",
    "eventcode": 173,
    "quadclass": 4,
    "nummentions": 34,
    "numsources": 14,
    "numarticles": 34,
    "avgtone": "2.13933457750342",
    "sourceurl": "http://www.thesudburystar.com/2013/07/14/george-zimmerman-cleared-in-trayvon-martin-death-faces-outrage",
    "feature_id": "1662328",
    "feature_name": "Los Angeles",
    "state_alpha": "CA",
    "county_name": "Los Angeles",
    "county_numeric": "037",
    "prim_lat_dec": "34.0522342",
    "prim_long_dec": "-118.2436849",
    "elev_in_m": "89",
    "elev_in_ft": "292",
    "lat": 34.0522342,
    "long": -118.2436849
  },
  {
    "globaleventid": 259479149,
    "sqldate": 20130714,
    "monthyear": 201307,
    "year": 2013,
    "fractiondate": "2013.5315",
    "eventcode": 173,
    "quadclass": 4,
    "nummentions": 2,
    "numsources": 1,
    "numarticles": 2,
    "avgtone": "0.965250965250965",
    "sourceurl": "http://www.greenwichtime.com/news/crime/article/DA-decides-against-hate-crime-in-beating-4663593.php",
    "feature_id": "1629914",
    "feature_name": "Baton Rouge",
    "state_alpha": "LA",
    "county_name": "East Baton Rouge",
    "county_numeric": "033",
    "prim_lat_dec": "30.4507462",
    "prim_long_dec": "-91.154551",
    "elev_in_m": "14",
    "elev_in_ft": "46",
    "lat": 30.4507462,
    "long": -91.154551
  },
  {
    "globaleventid": 259479147,
    "sqldate": 20130714,
    "monthyear": 201307,
    "year": 2013,
    "fractiondate": "2013.5315",
    "eventcode": 173,
    "quadclass": 4,
    "nummentions": 2,
    "numsources": 1,
    "numarticles": 2,
    "avgtone": "0.965250965250965",
    "sourceurl": "http://www.greenwichtime.com/news/crime/article/DA-decides-against-hate-crime-in-beating-4663593.php",
    "feature_id": "1629914",
    "feature_name": "Baton Rouge",
    "state_alpha": "LA",
    "county_name": "East Baton Rouge",
    "county_numeric": "033",
    "prim_lat_dec": "30.4507462",
    "prim_long_dec": "-91.154551",
    "elev_in_m": "14",
    "elev_in_ft": "46",
    "lat": 30.4507462,
    "long": -91.154551
  },
  {
    "globaleventid": 259479146,
    "sqldate": 20130714,
    "monthyear": 201307,
    "year": 2013,
    "fractiondate": "2013.5315",
    "eventcode": 173,
    "quadclass": 4,
    "nummentions": 2,
    "numsources": 1,
    "numarticles": 2,
    "avgtone": "0.462962962962963",
    "sourceurl": "http://www.mysanantonio.com/news/crime/article/Man-who-raped-girl-12-gets-224-years-to-life-4663830.php",
    "feature_id": "204797",
    "feature_name": "Colorado Springs",
    "state_alpha": "CO",
    "county_name": "El Paso",
    "county_numeric": "041",
    "prim_lat_dec": "38.8338816",
    "prim_long_dec": "-104.8213634",
    "elev_in_m": "1832",
    "elev_in_ft": "6010",
    "lat": 38.8338816,
    "long": -104.8213634
  },
  {
    "globaleventid": 259479144,
    "sqldate": 20130714,
    "monthyear": 201307,
    "year": 2013,
    "fractiondate": "2013.5315",
    "eventcode": 173,
    "quadclass": 4,
    "nummentions": 2,
    "numsources": 1,
    "numarticles": 2,
    "avgtone": "0.462962962962963",
    "sourceurl": "http://www.chron.com/news/crime/article/Man-who-raped-girl-12-gets-224-years-to-life-4663830.php",
    "feature_id": "204797",
    "feature_name": "Colorado Springs",
    "state_alpha": "CO",
    "county_name": "El Paso",
    "county_numeric": "041",
    "prim_lat_dec": "38.8338816",
    "prim_long_dec": "-104.8213634",
    "elev_in_m": "1832",
    "elev_in_ft": "6010",
    "lat": 38.8338816,
    "long": -104.8213634
  },
  {
    "globaleventid": 259479143,
    "sqldate": 20130714,
    "monthyear": 201307,
    "year": 2013,
    "fractiondate": "2013.5315",
    "eventcode": 173,
    "quadclass": 4,
    "nummentions": 6,
    "numsources": 1,
    "numarticles": 6,
    "avgtone": "2.12264150943396",
    "sourceurl": "http://news.yahoo.com/some-sanford-residents-struggle-to-cope-with-zimmerman-verdict-192519048.html",
    "feature_id": "1380948",
    "feature_name": "Houston",
    "state_alpha": "TX",
    "county_name": "Harris",
    "county_numeric": "201",
    "prim_lat_dec": "29.7632836",
    "prim_long_dec": "-95.3632715",
    "elev_in_m": "11",
    "elev_in_ft": "36",
    "lat": 29.7632836,
    "long": -95.3632715
  },
  {
    "globaleventid": 259479142,
    "sqldate": 20130714,
    "monthyear": 201307,
    "year": 2013,
    "fractiondate": "2013.5315",
    "eventcode": 173,
    "quadclass": 4,
    "nummentions": 10,
    "numsources": 1,
    "numarticles": 10,
    "avgtone": "0.659340659340659",
    "sourceurl": "http://lubbockonline.com/texas/2013-07-14/texas-region",
    "feature_id": "1380944",
    "feature_name": "Dallas",
    "state_alpha": "TX",
    "county_name": "Dallas",
    "county_numeric": "113",
    "prim_lat_dec": "32.7830556",
    "prim_long_dec": "-96.8066667",
    "elev_in_m": "128",
    "elev_in_ft": "420",
    "lat": 32.7830556,
    "long": -96.8066667
  },
  {
    "globaleventid": 259479140,
    "sqldate": 20130714,
    "monthyear": 201307,
    "year": 2013,
    "fractiondate": "2013.5315",
    "eventcode": 172,
    "quadclass": 4,
    "nummentions": 6,
    "numsources": 1,
    "numarticles": 6,
    "avgtone": "5.3639846743295",
    "sourceurl": "http://www.baltimoresun.com/news/maryland/bs-md-sondheim-prize-20130713,0,3664401.story",
    "feature_id": "531871",
    "feature_name": "Washington",
    "state_alpha": "DC",
    "county_name": "District of Columbia",
    "county_numeric": "001",
    "prim_lat_dec": "38.8951118",
    "prim_long_dec": "-77.0363658",
    "elev_in_m": "7",
    "elev_in_ft": "23",
    "lat": 38.8951118,
    "long": -77.0363658
  },
  {
    "globaleventid": 259479139,
    "sqldate": 20130714,
    "monthyear": 201307,
    "year": 2013,
    "fractiondate": "2013.5315",
    "eventcode": 172,
    "quadclass": 4,
    "nummentions": 4,
    "numsources": 1,
    "numarticles": 4,
    "avgtone": "1.97368421052632",
    "sourceurl": "http://www.wchstv.com/newsroom/eyewitness/130714_17530.shtml",
    "feature_id": "1558347",
    "feature_name": "Charleston",
    "state_alpha": "WV",
    "county_name": "Kanawha",
    "county_numeric": "039",
    "prim_lat_dec": "38.3498195",
    "prim_long_dec": "-81.6326235",
    "elev_in_m": "182",
    "elev_in_ft": "597",
    "lat": 38.3498195,
    "long": -81.6326235
  },
  {
    "globaleventid": 259479131,
    "sqldate": 20130714,
    "monthyear": 201307,
    "year": 2013,
    "fractiondate": "2013.5315",
    "eventcode": 152,
    "quadclass": 4,
    "nummentions": 2,
    "numsources": 1,
    "numarticles": 2,
    "avgtone": "3.26086956521739",
    "sourceurl": "http://www.commercialappeal.com/news/2013/jul/14/california-protests-planned-after-zimmerman-acquit/",
    "feature_id": "277566",
    "feature_name": "Oakland",
    "state_alpha": "CA",
    "county_name": "Alameda",
    "county_numeric": "001",
    "prim_lat_dec": "37.8043722",
    "prim_long_dec": "-122.2708026",
    "elev_in_m": "13",
    "elev_in_ft": "43",
    "lat": 37.8043722,
    "long": -122.2708026
  },
  {
    "globaleventid": 259479130,
    "sqldate": 20130714,
    "monthyear": 201307,
    "year": 2013,
    "fractiondate": "2013.5315",
    "eventcode": 152,
    "quadclass": 4,
    "nummentions": 2,
    "numsources": 1,
    "numarticles": 2,
    "avgtone": "2.8436018957346",
    "sourceurl": "http://www.10news.com/news/protests-planned-in-california-after-zimmerman-acquittal-07142013",
    "feature_id": "288004",
    "feature_name": "Oakland",
    "state_alpha": "FL",
    "county_name": "Orange",
    "county_numeric": "095",
    "prim_lat_dec": "28.555001",
    "prim_long_dec": "-81.6331299",
    "elev_in_m": "36",
    "elev_in_ft": "118",
    "lat": 28.555001,
    "long": -81.6331299
  },
  {
    "globaleventid": 259479129,
    "sqldate": 20130714,
    "monthyear": 201307,
    "year": 2013,
    "fractiondate": "2013.5315",
    "eventcode": 152,
    "quadclass": 4,
    "nummentions": 3,
    "numsources": 2,
    "numarticles": 3,
    "avgtone": "2.01738601515574",
    "sourceurl": "http://www.sfexaminer.com/sanfrancisco/protests-planned-across-california-after-zimmerman-acquittal/Content?oid=2510426",
    "feature_id": "1662328",
    "feature_name": "Los Angeles",
    "state_alpha": "CA",
    "county_name": "Los Angeles",
    "county_numeric": "037",
    "prim_lat_dec": "34.0522342",
    "prim_long_dec": "-118.2436849",
    "elev_in_m": "89",
    "elev_in_ft": "292",
    "lat": 34.0522342,
    "long": -118.2436849
  },
  {
    "globaleventid": 259479128,
    "sqldate": 20130714,
    "monthyear": 201307,
    "year": 2013,
    "fractiondate": "2013.5315",
    "eventcode": 152,
    "quadclass": 4,
    "nummentions": 1,
    "numsources": 1,
    "numarticles": 1,
    "avgtone": "2.17391304347826",
    "sourceurl": "http://www.wsls.com/story/22835157/protesters-of-zimmerman-acquittal-march-in-la-sf",
    "feature_id": "1662328",
    "feature_name": "Los Angeles",
    "state_alpha": "CA",
    "county_name": "Los Angeles",
    "county_numeric": "037",
    "prim_lat_dec": "34.0522342",
    "prim_long_dec": "-118.2436849",
    "elev_in_m": "89",
    "elev_in_ft": "292",
    "lat": 34.0522342,
    "long": -118.2436849
  },
  {
    "globaleventid": 259479127,
    "sqldate": 20130714,
    "monthyear": 201307,
    "year": 2013,
    "fractiondate": "2013.5315",
    "eventcode": 152,
    "quadclass": 4,
    "nummentions": 1,
    "numsources": 1,
    "numarticles": 1,
    "avgtone": "3.26086956521739",
    "sourceurl": "http://www.commercialappeal.com/news/2013/jul/14/california-protests-planned-after-zimmerman-acquit/",
    "feature_id": "1662328",
    "feature_name": "Los Angeles",
    "state_alpha": "CA",
    "county_name": "Los Angeles",
    "county_numeric": "037",
    "prim_lat_dec": "34.0522342",
    "prim_long_dec": "-118.2436849",
    "elev_in_m": "89",
    "elev_in_ft": "292",
    "lat": 34.0522342,
    "long": -118.2436849
  },
  {
    "globaleventid": 259479126,
    "sqldate": 20130714,
    "monthyear": 201307,
    "year": 2013,
    "fractiondate": "2013.5315",
    "eventcode": 152,
    "quadclass": 4,
    "nummentions": 13,
    "numsources": 4,
    "numarticles": 13,
    "avgtone": "2.5391470143655",
    "sourceurl": "http://www.10news.com/news/protests-planned-in-california-after-zimmerman-acquittal-07142013",
    "feature_id": "1662328",
    "feature_name": "Los Angeles",
    "state_alpha": "CA",
    "county_name": "Los Angeles",
    "county_numeric": "037",
    "prim_lat_dec": "34.0522342",
    "prim_long_dec": "-118.2436849",
    "elev_in_m": "89",
    "elev_in_ft": "292",
    "lat": 34.0522342,
    "long": -118.2436849
  },
  {
    "globaleventid": 259479125,
    "sqldate": 20130714,
    "monthyear": 201307,
    "year": 2013,
    "fractiondate": "2013.5315",
    "eventcode": 152,
    "quadclass": 4,
    "nummentions": 33,
    "numsources": 5,
    "numarticles": 33,
    "avgtone": "2.05455541496671",
    "sourceurl": "http://www.wsls.com/story/22835157/protesters-of-zimmerman-acquittal-march-in-la-sf",
    "feature_id": "1661377",
    "feature_name": "San Diego",
    "state_alpha": "CA",
    "county_name": "San Diego",
    "county_numeric": "073",
    "prim_lat_dec": "32.7153292",
    "prim_long_dec": "-117.1572551",
    "elev_in_m": "19",
    "elev_in_ft": "62",
    "lat": 32.7153292,
    "long": -117.1572551
  },
  {
    "globaleventid": 259479124,
    "sqldate": 20130714,
    "monthyear": 201307,
    "year": 2013,
    "fractiondate": "2013.5315",
    "eventcode": 152,
    "quadclass": 4,
    "nummentions": 8,
    "numsources": 4,
    "numarticles": 8,
    "avgtone": "2.49087054990405",
    "sourceurl": "http://www.dailybulletin.com/breakingnews/ci_23658675/more-protests-planned-los-angeles-other-cities-after",
    "feature_id": "1661377",
    "feature_name": "San Diego",
    "state_alpha": "CA",
    "county_name": "San Diego",
    "county_numeric": "073",
    "prim_lat_dec": "32.7153292",
    "prim_long_dec": "-117.1572551",
    "elev_in_m": "19",
    "elev_in_ft": "62",
    "lat": 32.7153292,
    "long": -117.1572551
  },
  {
    "globaleventid": 259479123,
    "sqldate": 20130714,
    "monthyear": 201307,
    "year": 2013,
    "fractiondate": "2013.5315",
    "eventcode": 152,
    "quadclass": 4,
    "nummentions": 9,
    "numsources": 5,
    "numarticles": 9,
    "avgtone": "2.39236027489986",
    "sourceurl": "http://www.sfexaminer.com/sanfrancisco/protests-planned-across-california-after-zimmerman-acquittal/Content?oid=2510426",
    "feature_id": "1661377",
    "feature_name": "San Diego",
    "state_alpha": "CA",
    "county_name": "San Diego",
    "county_numeric": "073",
    "prim_lat_dec": "32.7153292",
    "prim_long_dec": "-117.1572551",
    "elev_in_m": "19",
    "elev_in_ft": "62",
    "lat": 32.7153292,
    "long": -117.1572551
  },
  {
    "globaleventid": 259479122,
    "sqldate": 20130714,
    "monthyear": 201307,
    "year": 2013,
    "fractiondate": "2013.5315",
    "eventcode": 152,
    "quadclass": 4,
    "nummentions": 12,
    "numsources": 4,
    "numarticles": 12,
    "avgtone": "2.49087054990405",
    "sourceurl": "http://www.dailybulletin.com/breakingnews/ci_23658675/more-protests-planned-los-angeles-other-cities-after",
    "feature_id": "1659145",
    "feature_name": "Mission District",
    "state_alpha": "CA",
    "county_name": "San Francisco",
    "county_numeric": "075",
    "prim_lat_dec": "37.75993",
    "prim_long_dec": "-122.4191376",
    "elev_in_m": "13",
    "elev_in_ft": "43",
    "lat": 37.75993,
    "long": -122.4191376
  },
  {
    "globaleventid": 259479121,
    "sqldate": 20130714,
    "monthyear": 201307,
    "year": 2013,
    "fractiondate": "2013.5315",
    "eventcode": 151,
    "quadclass": 4,
    "nummentions": 2,
    "numsources": 1,
    "numarticles": 2,
    "avgtone": "3.26086956521739",
    "sourceurl": "http://www.commercialappeal.com/news/2013/jul/14/california-protests-planned-after-zimmerman-acquit/",
    "feature_id": "277566",
    "feature_name": "Oakland",
    "state_alpha": "CA",
    "county_name": "Alameda",
    "county_numeric": "001",
    "prim_lat_dec": "37.8043722",
    "prim_long_dec": "-122.2708026",
    "elev_in_m": "13",
    "elev_in_ft": "43",
    "lat": 37.8043722,
    "long": -122.2708026
  },
  {
    "globaleventid": 259479120,
    "sqldate": 20130714,
    "monthyear": 201307,
    "year": 2013,
    "fractiondate": "2013.5315",
    "eventcode": 151,
    "quadclass": 4,
    "nummentions": 4,
    "numsources": 2,
    "numarticles": 4,
    "avgtone": "2.68230514954797",
    "sourceurl": "http://www.10news.com/news/protests-planned-in-california-after-zimmerman-acquittal-07142013",
    "feature_id": "1662328",
    "feature_name": "Los Angeles",
    "state_alpha": "CA",
    "county_name": "Los Angeles",
    "county_numeric": "037",
    "prim_lat_dec": "34.0522342",
    "prim_long_dec": "-118.2436849",
    "elev_in_m": "89",
    "elev_in_ft": "292",
    "lat": 34.0522342,
    "long": -118.2436849
  },
  {
    "globaleventid": 259479119,
    "sqldate": 20130714,
    "monthyear": 201307,
    "year": 2013,
    "fractiondate": "2013.5315",
    "eventcode": 151,
    "quadclass": 4,
    "nummentions": 4,
    "numsources": 3,
    "numarticles": 4,
    "avgtone": "2.14329161220714",
    "sourceurl": "http://www.sfexaminer.com/sanfrancisco/protests-planned-across-california-after-zimmerman-acquittal/Content?oid=2510426",
    "feature_id": "1662328",
    "feature_name": "Los Angeles",
    "state_alpha": "CA",
    "county_name": "Los Angeles",
    "county_numeric": "037",
    "prim_lat_dec": "34.0522342",
    "prim_long_dec": "-118.2436849",
    "elev_in_m": "89",
    "elev_in_ft": "292",
    "lat": 34.0522342,
    "long": -118.2436849
  },
  {
    "globaleventid": 259479118,
    "sqldate": 20130714,
    "monthyear": 201307,
    "year": 2013,
    "fractiondate": "2013.5315",
    "eventcode": 151,
    "quadclass": 4,
    "nummentions": 16,
    "numsources": 8,
    "numarticles": 16,
    "avgtone": "2.21866913133289",
    "sourceurl": "http://www.dailybulletin.com/breakingnews/ci_23658675/more-protests-planned-los-angeles-other-cities-after",
    "feature_id": "1662328",
    "feature_name": "Los Angeles",
    "state_alpha": "CA",
    "county_name": "Los Angeles",
    "county_numeric": "037",
    "prim_lat_dec": "34.0522342",
    "prim_long_dec": "-118.2436849",
    "elev_in_m": "89",
    "elev_in_ft": "292",
    "lat": 34.0522342,
    "long": -118.2436849
  },
  {
    "globaleventid": 259479117,
    "sqldate": 20130714,
    "monthyear": 201307,
    "year": 2013,
    "fractiondate": "2013.5315",
    "eventcode": 151,
    "quadclass": 4,
    "nummentions": 9,
    "numsources": 9,
    "numarticles": 9,
    "avgtone": "2.33446917954228",
    "sourceurl": "http://www.dailybulletin.com/breakingnews/ci_23658675/more-protests-planned-los-angeles-other-cities-after",
    "feature_id": "1662328",
    "feature_name": "Los Angeles",
    "state_alpha": "CA",
    "county_name": "Los Angeles",
    "county_numeric": "037",
    "prim_lat_dec": "34.0522342",
    "prim_long_dec": "-118.2436849",
    "elev_in_m": "89",
    "elev_in_ft": "292",
    "lat": 34.0522342,
    "long": -118.2436849
  },
  {
    "globaleventid": 259479116,
    "sqldate": 20130714,
    "monthyear": 201307,
    "year": 2013,
    "fractiondate": "2013.5315",
    "eventcode": 151,
    "quadclass": 4,
    "nummentions": 49,
    "numsources": 12,
    "numarticles": 49,
    "avgtone": "2.31674942927015",
    "sourceurl": "http://www.sfexaminer.com/sanfrancisco/protests-planned-across-california-after-zimmerman-acquittal/Content?oid=2510426",
    "feature_id": "1662328",
    "feature_name": "Los Angeles",
    "state_alpha": "CA",
    "county_name": "Los Angeles",
    "county_numeric": "037",
    "prim_lat_dec": "34.0522342",
    "prim_long_dec": "-118.2436849",
    "elev_in_m": "89",
    "elev_in_ft": "292",
    "lat": 34.0522342,
    "long": -118.2436849
  },
  {
    "globaleventid": 259479102,
    "sqldate": 20130714,
    "monthyear": 201307,
    "year": 2013,
    "fractiondate": "2013.5315",
    "eventcode": 141,
    "quadclass": 3,
    "nummentions": 1,
    "numsources": 1,
    "numarticles": 1,
    "avgtone": "1.88679245283019",
    "sourceurl": "http://www.cp24.com/world/acquittal-in-trayvon-martin-death-sparks-protests-1.1366462",
    "feature_id": "277566",
    "feature_name": "Oakland",
    "state_alpha": "CA",
    "county_name": "Alameda",
    "county_numeric": "001",
    "prim_lat_dec": "37.8043722",
    "prim_long_dec": "-122.2708026",
    "elev_in_m": "13",
    "elev_in_ft": "43",
    "lat": 37.8043722,
    "long": -122.2708026
  },
  {
    "globaleventid": 259479101,
    "sqldate": 20130714,
    "monthyear": 201307,
    "year": 2013,
    "fractiondate": "2013.5315",
    "eventcode": 141,
    "quadclass": 3,
    "nummentions": 12,
    "numsources": 3,
    "numarticles": 12,
    "avgtone": "0.899515568152123",
    "sourceurl": "http://www.kmbz.com/California-protesters-commit-vandalism-after-Zimme/16810754",
    "feature_id": "288004",
    "feature_name": "Oakland",
    "state_alpha": "FL",
    "county_name": "Orange",
    "county_numeric": "095",
    "prim_lat_dec": "28.555001",
    "prim_long_dec": "-81.6331299",
    "elev_in_m": "36",
    "elev_in_ft": "118",
    "lat": 28.555001,
    "long": -81.6331299
  },
  {
    "globaleventid": 259479098,
    "sqldate": 20130714,
    "monthyear": 201307,
    "year": 2013,
    "fractiondate": "2013.5315",
    "eventcode": 141,
    "quadclass": 3,
    "nummentions": 1,
    "numsources": 1,
    "numarticles": 1,
    "avgtone": "1.98830409356725",
    "sourceurl": "http://www.the-leader.com/news/x624129909/Protesters-of-Zimmerman-acquittal-march-in-Calif",
    "feature_id": "277566",
    "feature_name": "Oakland",
    "state_alpha": "CA",
    "county_name": "Alameda",
    "county_numeric": "001",
    "prim_lat_dec": "37.8043722",
    "prim_long_dec": "-122.2708026",
    "elev_in_m": "13",
    "elev_in_ft": "43",
    "lat": 37.8043722,
    "long": -122.2708026
  },
  {
    "globaleventid": 259479097,
    "sqldate": 20130714,
    "monthyear": 201307,
    "year": 2013,
    "fractiondate": "2013.5315",
    "eventcode": 141,
    "quadclass": 3,
    "nummentions": 2,
    "numsources": 1,
    "numarticles": 2,
    "avgtone": "2.44444444444444",
    "sourceurl": "http://www.scpr.org/news/2013/07/14/38170/protesters-of-zimmerman-acquittal-march-in-oakland/",
    "feature_id": "277566",
    "feature_name": "Oakland",
    "state_alpha": "CA",
    "county_name": "Alameda",
    "county_numeric": "001",
    "prim_lat_dec": "37.8043722",
    "prim_long_dec": "-122.2708026",
    "elev_in_m": "13",
    "elev_in_ft": "43",
    "lat": 37.8043722,
    "long": -122.2708026
  },
  {
    "globaleventid": 259479096,
    "sqldate": 20130714,
    "monthyear": 201307,
    "year": 2013,
    "fractiondate": "2013.5315",
    "eventcode": 141,
    "quadclass": 3,
    "nummentions": 2,
    "numsources": 1,
    "numarticles": 2,
    "avgtone": "2.46636771300448",
    "sourceurl": "http://www.kypost.com/dpps/news/national/george-zimmerman-verdict-mostly-peaceful-protests-in-calif-after-acquital-announced_8653584",
    "feature_id": "277566",
    "feature_name": "Oakland",
    "state_alpha": "CA",
    "county_name": "Alameda",
    "county_numeric": "001",
    "prim_lat_dec": "37.8043722",
    "prim_long_dec": "-122.2708026",
    "elev_in_m": "13",
    "elev_in_ft": "43",
    "lat": 37.8043722,
    "long": -122.2708026
  },
  {
    "globaleventid": 259479094,
    "sqldate": 20130714,
    "monthyear": 201307,
    "year": 2013,
    "fractiondate": "2013.5315",
    "eventcode": 141,
    "quadclass": 3,
    "nummentions": 5,
    "numsources": 3,
    "numarticles": 5,
    "avgtone": "2.34714236571822",
    "sourceurl": "http://www.the-leader.com/news/x624129909/Protesters-of-Zimmerman-acquittal-march-in-Calif",
    "feature_id": "277566",
    "feature_name": "Oakland",
    "state_alpha": "CA",
    "county_name": "Alameda",
    "county_numeric": "001",
    "prim_lat_dec": "37.8043722",
    "prim_long_dec": "-122.2708026",
    "elev_in_m": "13",
    "elev_in_ft": "43",
    "lat": 37.8043722,
    "long": -122.2708026
  },
  {
    "globaleventid": 259479091,
    "sqldate": 20130714,
    "monthyear": 201307,
    "year": 2013,
    "fractiondate": "2013.5315",
    "eventcode": 141,
    "quadclass": 3,
    "nummentions": 18,
    "numsources": 9,
    "numarticles": 18,
    "avgtone": "2.14049927533981",
    "sourceurl": "http://www.calgaryherald.com/news/Acquittal+Trayvon+Martin+death+sparks+protest+Calif+cities+vandalism+hits+Oakland/8658124/story.html",
    "feature_id": "1732788",
    "feature_name": "Leimert Park",
    "state_alpha": "CA",
    "county_name": "Los Angeles",
    "county_numeric": "037",
    "prim_lat_dec": "34.0069572",
    "prim_long_dec": "-118.3314646",
    "elev_in_m": "37",
    "elev_in_ft": "121",
    "lat": 34.0069572,
    "long": -118.3314646
  },
  {
    "globaleventid": 259479089,
    "sqldate": 20130714,
    "monthyear": 201307,
    "year": 2013,
    "fractiondate": "2013.5315",
    "eventcode": 141,
    "quadclass": 3,
    "nummentions": 12,
    "numsources": 5,
    "numarticles": 12,
    "avgtone": "2.21342189005284",
    "sourceurl": "http://www.montgomeryadvertiser.com/viewart/20130714/NEWS/130714002/Protesters-George-Zimmerman-acquittal-march-California",
    "feature_id": "1732788",
    "feature_name": "Leimert Park",
    "state_alpha": "CA",
    "county_name": "Los Angeles",
    "county_numeric": "037",
    "prim_lat_dec": "34.0069572",
    "prim_long_dec": "-118.3314646",
    "elev_in_m": "37",
    "elev_in_ft": "121",
    "lat": 34.0069572,
    "long": -118.3314646
  },
  {
    "globaleventid": 259479088,
    "sqldate": 20130714,
    "monthyear": 201307,
    "year": 2013,
    "fractiondate": "2013.5315",
    "eventcode": 141,
    "quadclass": 3,
    "nummentions": 2,
    "numsources": 1,
    "numarticles": 2,
    "avgtone": "1.23456790123457",
    "sourceurl": "http://www.nwaonline.com/news/2013/jul/14/protesters-zimmerman-acquittal-march-california/?news",
    "feature_id": "1732788",
    "feature_name": "Leimert Park",
    "state_alpha": "CA",
    "county_name": "Los Angeles",
    "county_numeric": "037",
    "prim_lat_dec": "34.0069572",
    "prim_long_dec": "-118.3314646",
    "elev_in_m": "37",
    "elev_in_ft": "121",
    "lat": 34.0069572,
    "long": -118.3314646
  },
  {
    "globaleventid": 259479087,
    "sqldate": 20130714,
    "monthyear": 201307,
    "year": 2013,
    "fractiondate": "2013.5315",
    "eventcode": 141,
    "quadclass": 3,
    "nummentions": 1,
    "numsources": 1,
    "numarticles": 1,
    "avgtone": "1.85873605947955",
    "sourceurl": "http://www.arkansasonline.com/news/2013/jul/14/protesters-zimmerman-acquittal-march-california/",
    "feature_id": "1662328",
    "feature_name": "Los Angeles",
    "state_alpha": "CA",
    "county_name": "Los Angeles",
    "county_numeric": "037",
    "prim_lat_dec": "34.0522342",
    "prim_long_dec": "-118.2436849",
    "elev_in_m": "89",
    "elev_in_ft": "292",
    "lat": 34.0522342,
    "long": -118.2436849
  },
  {
    "globaleventid": 259479086,
    "sqldate": 20130714,
    "monthyear": 201307,
    "year": 2013,
    "fractiondate": "2013.5315",
    "eventcode": 141,
    "quadclass": 3,
    "nummentions": 1,
    "numsources": 1,
    "numarticles": 1,
    "avgtone": "1.85873605947955",
    "sourceurl": "http://www.arkansasonline.com/news/2013/jul/14/protesters-zimmerman-acquittal-march-california/",
    "feature_id": "1662328",
    "feature_name": "Los Angeles",
    "state_alpha": "CA",
    "county_name": "Los Angeles",
    "county_numeric": "037",
    "prim_lat_dec": "34.0522342",
    "prim_long_dec": "-118.2436849",
    "elev_in_m": "89",
    "elev_in_ft": "292",
    "lat": 34.0522342,
    "long": -118.2436849
  },
  {
    "globaleventid": 259479085,
    "sqldate": 20130714,
    "monthyear": 201307,
    "year": 2013,
    "fractiondate": "2013.5315",
    "eventcode": 141,
    "quadclass": 3,
    "nummentions": 134,
    "numsources": 44,
    "numarticles": 134,
    "avgtone": "1.80256344612732",
    "sourceurl": "http://blogs.windsorstar.com/2013/07/14/zimmerman-acquittal-sparks-protest-in-4-calif-cities/",
    "feature_id": "1659564",
    "feature_name": "Sacramento",
    "state_alpha": "CA",
    "county_name": "Sacramento",
    "county_numeric": "067",
    "prim_lat_dec": "38.5815719",
    "prim_long_dec": "-121.4943996",
    "elev_in_m": "8",
    "elev_in_ft": "26",
    "lat": 38.5815719,
    "long": -121.4943996
  },
  {
    "globaleventid": 259479082,
    "sqldate": 20130714,
    "monthyear": 201307,
    "year": 2013,
    "fractiondate": "2013.5315",
    "eventcode": 141,
    "quadclass": 3,
    "nummentions": 2,
    "numsources": 1,
    "numarticles": 2,
    "avgtone": "3.38600451467269",
    "sourceurl": "http://www.fresnobee.com/2013/07/13/3386511/dan-walters-what-is-the-best-election.html",
    "feature_id": "1659564",
    "feature_name": "Sacramento",
    "state_alpha": "CA",
    "county_name": "Sacramento",
    "county_numeric": "067",
    "prim_lat_dec": "38.5815719",
    "prim_long_dec": "-121.4943996",
    "elev_in_m": "8",
    "elev_in_ft": "26",
    "lat": 38.5815719,
    "long": -121.4943996
  },
  {
    "globaleventid": 259479081,
    "sqldate": 20130714,
    "monthyear": 201307,
    "year": 2013,
    "fractiondate": "2013.5315",
    "eventcode": 141,
    "quadclass": 3,
    "nummentions": 2,
    "numsources": 1,
    "numarticles": 2,
    "avgtone": "3.07017543859649",
    "sourceurl": "http://www.sanluisobispo.com/2013/07/14/2582087/dan-walters-which-voting-system.html",
    "feature_id": "1652663",
    "feature_name": "Anaheim",
    "state_alpha": "CA",
    "county_name": "Orange",
    "county_numeric": "059",
    "prim_lat_dec": "33.8352932",
    "prim_long_dec": "-117.9145036",
    "elev_in_m": "49",
    "elev_in_ft": "161",
    "lat": 33.8352932,
    "long": -117.9145036
  },
  {
    "globaleventid": 259479073,
    "sqldate": 20130714,
    "monthyear": 201307,
    "year": 2013,
    "fractiondate": "2013.5315",
    "eventcode": 124,
    "quadclass": 3,
    "nummentions": 4,
    "numsources": 2,
    "numarticles": 4,
    "avgtone": "0.263157894736842",
    "sourceurl": "http://www.therepublic.com/view/story/56870e3a477c44f3ae69d97136854ac5/MA--Multi-Vehicle-Crash",
    "feature_id": "615912",
    "feature_name": "Chatham",
    "state_alpha": "MA",
    "county_name": "Barnstable",
    "county_numeric": "001",
    "prim_lat_dec": "41.6820563",
    "prim_long_dec": "-69.9597376",
    "elev_in_m": "4",
    "elev_in_ft": "13",
    "lat": 41.6820563,
    "long": -69.9597376
  },
  {
    "globaleventid": 259479070,
    "sqldate": 20130714,
    "monthyear": 201307,
    "year": 2013,
    "fractiondate": "2013.5315",
    "eventcode": 115,
    "quadclass": 3,
    "nummentions": 2,
    "numsources": 1,
    "numarticles": 2,
    "avgtone": "1.14566284779051",
    "sourceurl": "http://wislawjournal.com/2013/07/14/2nd-officer-pleads-no-contest-in-strip-search/",
    "feature_id": "1577901",
    "feature_name": "Milwaukee",
    "state_alpha": "WI",
    "county_name": "Milwaukee",
    "county_numeric": "079",
    "prim_lat_dec": "43.0389025",
    "prim_long_dec": "-87.9064736",
    "elev_in_m": "187",
    "elev_in_ft": "614",
    "lat": 43.0389025,
    "long": -87.9064736
  },
  {
    "globaleventid": 259479065,
    "sqldate": 20130714,
    "monthyear": 201307,
    "year": 2013,
    "fractiondate": "2013.5315",
    "eventcode": 112,
    "quadclass": 3,
    "nummentions": 6,
    "numsources": 1,
    "numarticles": 6,
    "avgtone": "1.67597765363128",
    "sourceurl": "http://www.wdtn.com/dpp/news/local/darke/alcohol-suspected-in-darke-co-collision",
    "feature_id": "1064762",
    "feature_name": "Greenville",
    "state_alpha": "OH",
    "county_name": "Darke",
    "county_numeric": "037",
    "prim_lat_dec": "40.1028264",
    "prim_long_dec": "-84.6330115",
    "elev_in_m": "318",
    "elev_in_ft": "1043",
    "lat": 40.1028264,
    "long": -84.6330115
  },
  {
    "globaleventid": 259479064,
    "sqldate": 20130714,
    "monthyear": 201307,
    "year": 2013,
    "fractiondate": "2013.5315",
    "eventcode": 112,
    "quadclass": 3,
    "nummentions": 4,
    "numsources": 1,
    "numarticles": 4,
    "avgtone": "1.67597765363128",
    "sourceurl": "http://www.wdtn.com/dpp/news/local/darke/alcohol-suspected-in-darke-co-collision",
    "feature_id": "1061544",
    "feature_name": "Piqua",
    "state_alpha": "OH",
    "county_name": "Miami",
    "county_numeric": "109",
    "prim_lat_dec": "40.1447732",
    "prim_long_dec": "-84.2424449",
    "elev_in_m": "267",
    "elev_in_ft": "876",
    "lat": 40.1447732,
    "long": -84.2424449
  },
  {
    "globaleventid": 259479061,
    "sqldate": 20130714,
    "monthyear": 201307,
    "year": 2013,
    "fractiondate": "2013.5315",
    "eventcode": 111,
    "quadclass": 3,
    "nummentions": 6,
    "numsources": 2,
    "numarticles": 6,
    "avgtone": "2.5923016496465",
    "sourceurl": "http://www.sanluisobispo.com/2013/07/14/2582132/why-california-wont-build-prisons.html",
    "feature_id": "1658037",
    "feature_name": "Berkeley",
    "state_alpha": "CA",
    "county_name": "Alameda",
    "county_numeric": "001",
    "prim_lat_dec": "37.8715926",
    "prim_long_dec": "-122.272747",
    "elev_in_m": "52",
    "elev_in_ft": "171",
    "lat": 37.8715926,
    "long": -122.272747
  },
  {
    "globaleventid": 259479060,
    "sqldate": 20130714,
    "monthyear": 201307,
    "year": 2013,
    "fractiondate": "2013.5315",
    "eventcode": 111,
    "quadclass": 3,
    "nummentions": 2,
    "numsources": 2,
    "numarticles": 2,
    "avgtone": "2.5923016496465",
    "sourceurl": "http://www.sanluisobispo.com/2013/07/14/2582132/why-california-wont-build-prisons.html",
    "feature_id": "1658037",
    "feature_name": "Berkeley",
    "state_alpha": "CA",
    "county_name": "Alameda",
    "county_numeric": "001",
    "prim_lat_dec": "37.8715926",
    "prim_long_dec": "-122.272747",
    "elev_in_m": "52",
    "elev_in_ft": "171",
    "lat": 37.8715926,
    "long": -122.272747
  },
  {
    "globaleventid": 259479057,
    "sqldate": 20130714,
    "monthyear": 201307,
    "year": 2013,
    "fractiondate": "2013.5315",
    "eventcode": 110,
    "quadclass": 3,
    "nummentions": 10,
    "numsources": 1,
    "numarticles": 10,
    "avgtone": "2.42990654205607",
    "sourceurl": "http://www.detroitnews.com/article/20130714/NATION/307140030/",
    "feature_id": "407150",
    "feature_name": "Detroit",
    "state_alpha": "IL",
    "county_name": "Pike",
    "county_numeric": "149",
    "prim_lat_dec": "39.6206031",
    "prim_long_dec": "-90.6767936",
    "elev_in_m": "195",
    "elev_in_ft": "640",
    "lat": 39.6206031,
    "long": -90.6767936
  },
  {
    "globaleventid": 259479056,
    "sqldate": 20130714,
    "monthyear": 201307,
    "year": 2013,
    "fractiondate": "2013.5315",
    "eventcode": 110,
    "quadclass": 3,
    "nummentions": 1,
    "numsources": 1,
    "numarticles": 1,
    "avgtone": "1.24223602484472",
    "sourceurl": "http://www.kmbz.com/California-protesters-commit-vandalism-after-Zimme/16810754",
    "feature_id": "288004",
    "feature_name": "Oakland",
    "state_alpha": "FL",
    "county_name": "Orange",
    "county_numeric": "095",
    "prim_lat_dec": "28.555001",
    "prim_long_dec": "-81.6331299",
    "elev_in_m": "36",
    "elev_in_ft": "118",
    "lat": 28.555001,
    "long": -81.6331299
  },
  {
    "globaleventid": 259479054,
    "sqldate": 20130714,
    "monthyear": 201307,
    "year": 2013,
    "fractiondate": "2013.5315",
    "eventcode": 110,
    "quadclass": 3,
    "nummentions": 1,
    "numsources": 1,
    "numarticles": 1,
    "avgtone": "1.96560196560197",
    "sourceurl": "http://www.startribune.com/nation/215417591.html",
    "feature_id": "1732788",
    "feature_name": "Leimert Park",
    "state_alpha": "CA",
    "county_name": "Los Angeles",
    "county_numeric": "037",
    "prim_lat_dec": "34.0069572",
    "prim_long_dec": "-118.3314646",
    "elev_in_m": "37",
    "elev_in_ft": "121",
    "lat": 34.0069572,
    "long": -118.3314646
  },
  {
    "globaleventid": 259479052,
    "sqldate": 20130714,
    "monthyear": 201307,
    "year": 2013,
    "fractiondate": "2013.5315",
    "eventcode": 110,
    "quadclass": 3,
    "nummentions": 96,
    "numsources": 30,
    "numarticles": 96,
    "avgtone": "1.7128813219841",
    "sourceurl": "http://www.newschannel5.com/story/22835157/protesters-of-zimmerman-acquittal-march-in-la-sf",
    "feature_id": "1659564",
    "feature_name": "Sacramento",
    "state_alpha": "CA",
    "county_name": "Sacramento",
    "county_numeric": "067",
    "prim_lat_dec": "38.5815719",
    "prim_long_dec": "-121.4943996",
    "elev_in_m": "8",
    "elev_in_ft": "26",
    "lat": 38.5815719,
    "long": -121.4943996
  },
  {
    "globaleventid": 259478869,
    "sqldate": 20130714,
    "monthyear": 201307,
    "year": 2013,
    "fractiondate": "2013.5315",
    "eventcode": 130,
    "quadclass": 3,
    "nummentions": 6,
    "numsources": 3,
    "numarticles": 6,
    "avgtone": "0.940714061833645",
    "sourceurl": "http://www.newstimes.com/news/article/Amish-say-rocky-roads-causing-horse-injuries-4664385.php",
    "feature_id": "531871",
    "feature_name": "Washington",
    "state_alpha": "DC",
    "county_name": "District of Columbia",
    "county_numeric": "001",
    "prim_lat_dec": "38.8951118",
    "prim_long_dec": "-77.0363658",
    "elev_in_m": "7",
    "elev_in_ft": "23",
    "lat": 38.8951118,
    "long": -77.0363658
  },
  {
    "globaleventid": 259478868,
    "sqldate": 20130714,
    "monthyear": 201307,
    "year": 2013,
    "fractiondate": "2013.5315",
    "eventcode": 130,
    "quadclass": 3,
    "nummentions": 10,
    "numsources": 4,
    "numarticles": 10,
    "avgtone": "0.827586331837029",
    "sourceurl": "http://www.newstimes.com/news/article/Amish-say-rocky-roads-causing-horse-injuries-4664385.php",
    "feature_id": "531871",
    "feature_name": "Washington",
    "state_alpha": "DC",
    "county_name": "District of Columbia",
    "county_numeric": "001",
    "prim_lat_dec": "38.8951118",
    "prim_long_dec": "-77.0363658",
    "elev_in_m": "7",
    "elev_in_ft": "23",
    "lat": 38.8951118,
    "long": -77.0363658
  },
  {
    "globaleventid": 259478867,
    "sqldate": 20130714,
    "monthyear": 201307,
    "year": 2013,
    "fractiondate": "2013.5315",
    "eventcode": 130,
    "quadclass": 3,
    "nummentions": 4,
    "numsources": 1,
    "numarticles": 4,
    "avgtone": "0.796812749003984",
    "sourceurl": "http://www.mysanantonio.com/news/article/Amish-say-rocky-roads-causing-horse-injuries-4664385.php&c=6wB80J8oFM6Ziff53-egWADeOCwTHVoUhG_9IVc4TI4&mkt=en-us",
    "feature_id": "1380951",
    "feature_name": "San Antonio",
    "state_alpha": "TX",
    "county_name": "Bexar",
    "county_numeric": "029",
    "prim_lat_dec": "29.4241219",
    "prim_long_dec": "-98.4936282",
    "elev_in_m": "198",
    "elev_in_ft": "650",
    "lat": 29.4241219,
    "long": -98.4936282
  },
  {
    "globaleventid": 259478835,
    "sqldate": 20130714,
    "monthyear": 201307,
    "year": 2013,
    "fractiondate": "2013.5315",
    "eventcode": 190,
    "quadclass": 4,
    "nummentions": 1,
    "numsources": 1,
    "numarticles": 1,
    "avgtone": "1.06382978723404",
    "sourceurl": "http://www.irishsun.com/index.php/sid/215810734/scat/b8de8e630faf3631",
    "feature_id": "1662328",
    "feature_name": "Los Angeles",
    "state_alpha": "CA",
    "county_name": "Los Angeles",
    "county_numeric": "037",
    "prim_lat_dec": "34.0522342",
    "prim_long_dec": "-118.2436849",
    "elev_in_m": "89",
    "elev_in_ft": "292",
    "lat": 34.0522342,
    "long": -118.2436849
  },
  {
    "globaleventid": 259478820,
    "sqldate": 20130714,
    "monthyear": 201307,
    "year": 2013,
    "fractiondate": "2013.5315",
    "eventcode": 111,
    "quadclass": 3,
    "nummentions": 13,
    "numsources": 7,
    "numarticles": 13,
    "avgtone": "1.90370692154184",
    "sourceurl": "http://www.nation.com.pk/pakistan-news-newspaper-daily-english-online/international/15-Jul-2013/snowden-could-cause-more-damage-to-us",
    "feature_id": "531871",
    "feature_name": "Washington",
    "state_alpha": "DC",
    "county_name": "District of Columbia",
    "county_numeric": "001",
    "prim_lat_dec": "38.8951118",
    "prim_long_dec": "-77.0363658",
    "elev_in_m": "7",
    "elev_in_ft": "23",
    "lat": 38.8951118,
    "long": -77.0363658
  },
  {
    "globaleventid": 259478813,
    "sqldate": 20130714,
    "monthyear": 201307,
    "year": 2013,
    "fractiondate": "2013.5315",
    "eventcode": 110,
    "quadclass": 3,
    "nummentions": 2,
    "numsources": 1,
    "numarticles": 2,
    "avgtone": "0.831024930747922",
    "sourceurl": "http://uk.reuters.com/article/2013/06/27/uk-usa-security-snowden-idUKBRE95Q0SH20130627?feedType=RSS&feedName=worldNews",
    "feature_id": "531871",
    "feature_name": "Washington",
    "state_alpha": "DC",
    "county_name": "District of Columbia",
    "county_numeric": "001",
    "prim_lat_dec": "38.8951118",
    "prim_long_dec": "-77.0363658",
    "elev_in_m": "7",
    "elev_in_ft": "23",
    "lat": 38.8951118,
    "long": -77.0363658
  },
  {
    "globaleventid": 259478627,
    "sqldate": 20130714,
    "monthyear": 201307,
    "year": 2013,
    "fractiondate": "2013.5315",
    "eventcode": 192,
    "quadclass": 4,
    "nummentions": 8,
    "numsources": 1,
    "numarticles": 8,
    "avgtone": "2.19058050383352",
    "sourceurl": "http://thegazette.com/2013/07/14/iowa-banking-on-data-storage-demand/",
    "feature_id": "423587",
    "feature_name": "Chicago",
    "state_alpha": "IL",
    "county_name": "Cook",
    "county_numeric": "031",
    "prim_lat_dec": "41.850033",
    "prim_long_dec": "-87.6500523",
    "elev_in_m": "179",
    "elev_in_ft": "587",
    "lat": 41.850033,
    "long": -87.6500523
  },
  {
    "globaleventid": 259478626,
    "sqldate": 20130714,
    "monthyear": 201307,
    "year": 2013,
    "fractiondate": "2013.5315",
    "eventcode": 192,
    "quadclass": 4,
    "nummentions": 2,
    "numsources": 1,
    "numarticles": 2,
    "avgtone": "1.75953079178886",
    "sourceurl": "http://triblive.com/news/allegheny/4231864-74/law-energy-shale",
    "feature_id": "1065416",
    "feature_name": "Utica",
    "state_alpha": "OH",
    "county_name": "Warren",
    "county_numeric": "165",
    "prim_lat_dec": "39.4975599",
    "prim_long_dec": "-84.1602136",
    "elev_in_m": "292",
    "elev_in_ft": "958",
    "lat": 39.4975599,
    "long": -84.1602136
  },
  {
    "globaleventid": 259478616,
    "sqldate": 20130714,
    "monthyear": 201307,
    "year": 2013,
    "fractiondate": "2013.5315",
    "eventcode": 190,
    "quadclass": 4,
    "nummentions": 9,
    "numsources": 1,
    "numarticles": 9,
    "avgtone": "0.0",
    "sourceurl": "http://www.miamiherald.com/2013/07/14/3497900/miami-key-in-battle-against-superbugs.html",
    "feature_id": "295004",
    "feature_name": "Miami",
    "state_alpha": "FL",
    "county_name": "Miami-Dade",
    "county_numeric": "086",
    "prim_lat_dec": "25.7742658",
    "prim_long_dec": "-80.1936589",
    "elev_in_m": "2",
    "elev_in_ft": "7",
    "lat": 25.7742658,
    "long": -80.1936589
  },
  {
    "globaleventid": 259478608,
    "sqldate": 20130714,
    "monthyear": 201307,
    "year": 2013,
    "fractiondate": "2013.5315",
    "eventcode": 172,
    "quadclass": 4,
    "nummentions": 3,
    "numsources": 1,
    "numarticles": 3,
    "avgtone": "2.3972602739726",
    "sourceurl": "http://www.thenewstribune.com/2013/07/14/2677064/bridge-projects-170m-demise-gives.html",
    "feature_id": "531871",
    "feature_name": "Washington",
    "state_alpha": "DC",
    "county_name": "District of Columbia",
    "county_numeric": "001",
    "prim_lat_dec": "38.8951118",
    "prim_long_dec": "-77.0363658",
    "elev_in_m": "7",
    "elev_in_ft": "23",
    "lat": 38.8951118,
    "long": -77.0363658
  },
  {
    "globaleventid": 259478604,
    "sqldate": 20130714,
    "monthyear": 201307,
    "year": 2013,
    "fractiondate": "2013.5315",
    "eventcode": 161,
    "quadclass": 4,
    "nummentions": 1,
    "numsources": 1,
    "numarticles": 1,
    "avgtone": "3.72340425531915",
    "sourceurl": "http://amarillo.com/news/local-news/2013-07-14/abbott-announces-bid-governor&c=a72HPbbQsmRZpnESvQYI8ijwfHUd3EPkf2fcuJ3HkX0&mkt=en-us",
    "feature_id": "1351066",
    "feature_name": "Amarillo",
    "state_alpha": "TX",
    "county_name": "Potter",
    "county_numeric": "375",
    "prim_lat_dec": "35.2219971",
    "prim_long_dec": "-101.8312969",
    "elev_in_m": "1118",
    "elev_in_ft": "3668",
    "lat": 35.2219971,
    "long": -101.8312969
  },
  {
    "globaleventid": 259478603,
    "sqldate": 20130714,
    "monthyear": 201307,
    "year": 2013,
    "fractiondate": "2013.5315",
    "eventcode": 160,
    "quadclass": 4,
    "nummentions": 2,
    "numsources": 1,
    "numarticles": 2,
    "avgtone": "0.404858299595142",
    "sourceurl": "http://www.sandiego6.com/story/san-diegans-traveling-warned-to-avoid-central-los-angeles-20130714",
    "feature_id": "1662328",
    "feature_name": "Los Angeles",
    "state_alpha": "CA",
    "county_name": "Los Angeles",
    "county_numeric": "037",
    "prim_lat_dec": "34.0522342",
    "prim_long_dec": "-118.2436849",
    "elev_in_m": "89",
    "elev_in_ft": "292",
    "lat": 34.0522342,
    "long": -118.2436849
  },
  {
    "globaleventid": 259478597,
    "sqldate": 20130714,
    "monthyear": 201307,
    "year": 2013,
    "fractiondate": "2013.5315",
    "eventcode": 153,
    "quadclass": 4,
    "nummentions": 2,
    "numsources": 1,
    "numarticles": 2,
    "avgtone": "2.28690228690229",
    "sourceurl": "http://www.newsminer.com/news/dermot_cole/doyon-goes-out-in-search-of-oil-in-latest-nenana/article_3f64a3d2-ec5b-11e2-810a-001a4bcf6878.html",
    "feature_id": "1401958",
    "feature_name": "Fairbanks",
    "state_alpha": "AK",
    "county_name": "Fairbanks North Star",
    "county_numeric": "090",
    "prim_lat_dec": "64.8377778",
    "prim_long_dec": "-147.7163889",
    "elev_in_m": "136",
    "elev_in_ft": "446",
    "lat": 64.8377778,
    "long": -147.7163889
  },
  {
    "globaleventid": 259478594,
    "sqldate": 20130714,
    "monthyear": 201307,
    "year": 2013,
    "fractiondate": "2013.5315",
    "eventcode": 141,
    "quadclass": 3,
    "nummentions": 4,
    "numsources": 1,
    "numarticles": 4,
    "avgtone": "0.75187969924812",
    "sourceurl": "http://www.huffingtonpost.com/2013/07/12/george-koukos-stabs-scabb_n_3588753.html?utm_hp_ref=chicago",
    "feature_id": "423587",
    "feature_name": "Chicago",
    "state_alpha": "IL",
    "county_name": "Cook",
    "county_numeric": "031",
    "prim_lat_dec": "41.850033",
    "prim_long_dec": "-87.6500523",
    "elev_in_m": "179",
    "elev_in_ft": "587",
    "lat": 41.850033,
    "long": -87.6500523
  },
  {
    "globaleventid": 259478593,
    "sqldate": 20130714,
    "monthyear": 201307,
    "year": 2013,
    "fractiondate": "2013.5315",
    "eventcode": 141,
    "quadclass": 3,
    "nummentions": 6,
    "numsources": 1,
    "numarticles": 6,
    "avgtone": "0.75187969924812",
    "sourceurl": "http://www.huffingtonpost.com/2013/07/12/george-koukos-stabs-scabb_n_3588753.html?utm_hp_ref=chicago",
    "feature_id": "423587",
    "feature_name": "Chicago",
    "state_alpha": "IL",
    "county_name": "Cook",
    "county_numeric": "031",
    "prim_lat_dec": "41.850033",
    "prim_long_dec": "-87.6500523",
    "elev_in_m": "179",
    "elev_in_ft": "587",
    "lat": 41.850033,
    "long": -87.6500523
  },
  {
    "globaleventid": 259478585,
    "sqldate": 20130714,
    "monthyear": 201307,
    "year": 2013,
    "fractiondate": "2013.5315",
    "eventcode": 128,
    "quadclass": 3,
    "nummentions": 8,
    "numsources": 1,
    "numarticles": 8,
    "avgtone": "1.98757763975155",
    "sourceurl": "http://www.mysanantonio.com/news/crime/article/Utah-Internet-company-defies-subpoena-law-4663700.php",
    "feature_id": "1380951",
    "feature_name": "San Antonio",
    "state_alpha": "TX",
    "county_name": "Bexar",
    "county_numeric": "029",
    "prim_lat_dec": "29.4241219",
    "prim_long_dec": "-98.4936282",
    "elev_in_m": "198",
    "elev_in_ft": "650",
    "lat": 29.4241219,
    "long": -98.4936282
  },
  {
    "globaleventid": 259478583,
    "sqldate": 20130714,
    "monthyear": 201307,
    "year": 2013,
    "fractiondate": "2013.5315",
    "eventcode": 120,
    "quadclass": 3,
    "nummentions": 4,
    "numsources": 1,
    "numarticles": 4,
    "avgtone": "1.96463654223969",
    "sourceurl": "http://wcfcourier.com/business/local/community-foundation-shifts-assets-away-from-local-bank-oversight/article_0f1bb155-d9cd-574b-856f-d800ad1818c4.html",
    "feature_id": "423587",
    "feature_name": "Chicago",
    "state_alpha": "IL",
    "county_name": "Cook",
    "county_numeric": "031",
    "prim_lat_dec": "41.850033",
    "prim_long_dec": "-87.6500523",
    "elev_in_m": "179",
    "elev_in_ft": "587",
    "lat": 41.850033,
    "long": -87.6500523
  },
  {
    "globaleventid": 259478580,
    "sqldate": 20130714,
    "monthyear": 201307,
    "year": 2013,
    "fractiondate": "2013.5315",
    "eventcode": 111,
    "quadclass": 3,
    "nummentions": 2,
    "numsources": 1,
    "numarticles": 2,
    "avgtone": "1.33779264214047",
    "sourceurl": "http://www.bostonglobe.com/business/2013/07/14/frommer-bought-back-from-google-publish-new-titles-oct/muSfSO1eGTyjhJf2Zsae5M/story.html",
    "feature_id": "617565",
    "feature_name": "Boston",
    "state_alpha": "MA",
    "county_name": "Suffolk",
    "county_numeric": "025",
    "prim_lat_dec": "42.3584308",
    "prim_long_dec": "-71.0597732",
    "elev_in_m": "14",
    "elev_in_ft": "46",
    "lat": 42.3584308,
    "long": -71.0597732
  },
  {
    "globaleventid": 259478577,
    "sqldate": 20130714,
    "monthyear": 201307,
    "year": 2013,
    "fractiondate": "2013.5315",
    "eventcode": 110,
    "quadclass": 3,
    "nummentions": 6,
    "numsources": 2,
    "numarticles": 6,
    "avgtone": "3.45029239766082",
    "sourceurl": "http://www.menafn.com/3ea26b46-72fd-447e-809e-2f0be880e100/Black-Gold-Brides-NM-oil-wife-says-she-prays-every-day-her-husband-returns-home?src=main",
    "feature_id": "885911",
    "feature_name": "Artesia",
    "state_alpha": "NM",
    "county_name": "Eddy",
    "county_numeric": "015",
    "prim_lat_dec": "32.8423345",
    "prim_long_dec": "-104.4032963",
    "elev_in_m": "1030",
    "elev_in_ft": "3379",
    "lat": 32.8423345,
    "long": -104.4032963
  },
  {
    "globaleventid": 259478576,
    "sqldate": 20130714,
    "monthyear": 201307,
    "year": 2013,
    "fractiondate": "2013.5315",
    "eventcode": 110,
    "quadclass": 3,
    "nummentions": 12,
    "numsources": 2,
    "numarticles": 12,
    "avgtone": "3.45029239766082",
    "sourceurl": "http://www.menafn.com/3ea26b46-72fd-447e-809e-2f0be880e100/Black-Gold-Brides-NM-oil-wife-says-she-prays-every-day-her-husband-returns-home?src=main",
    "feature_id": "885911",
    "feature_name": "Artesia",
    "state_alpha": "NM",
    "county_name": "Eddy",
    "county_numeric": "015",
    "prim_lat_dec": "32.8423345",
    "prim_long_dec": "-104.4032963",
    "elev_in_m": "1030",
    "elev_in_ft": "3379",
    "lat": 32.8423345,
    "long": -104.4032963
  },
  {
    "globaleventid": 259478575,
    "sqldate": 20130714,
    "monthyear": 201307,
    "year": 2013,
    "fractiondate": "2013.5315",
    "eventcode": 100,
    "quadclass": 3,
    "nummentions": 8,
    "numsources": 2,
    "numarticles": 8,
    "avgtone": "2.53178464919165",
    "sourceurl": "http://www.globalpost.com/dispatch/news/regions/asia-pacific/myanmar/130712/myanmar-north-korea-i-can-t-quit-you-baby",
    "feature_id": "531871",
    "feature_name": "Washington",
    "state_alpha": "DC",
    "county_name": "District of Columbia",
    "county_numeric": "001",
    "prim_lat_dec": "38.8951118",
    "prim_long_dec": "-77.0363658",
    "elev_in_m": "7",
    "elev_in_ft": "23",
    "lat": 38.8951118,
    "long": -77.0363658
  },
  {
    "globaleventid": 259478320,
    "sqldate": 20130714,
    "monthyear": 201307,
    "year": 2013,
    "fractiondate": "2013.5315",
    "eventcode": 120,
    "quadclass": 3,
    "nummentions": 1,
    "numsources": 1,
    "numarticles": 1,
    "avgtone": "2.32558139534884",
    "sourceurl": "http://www.opednews.com/articles/Coup-d-etat-by-Paul-Craig-Roberts-130714-363.html",
    "feature_id": "531871",
    "feature_name": "Washington",
    "state_alpha": "DC",
    "county_name": "District of Columbia",
    "county_numeric": "001",
    "prim_lat_dec": "38.8951118",
    "prim_long_dec": "-77.0363658",
    "elev_in_m": "7",
    "elev_in_ft": "23",
    "lat": 38.8951118,
    "long": -77.0363658
  },
  {
    "globaleventid": 259478319,
    "sqldate": 20130714,
    "monthyear": 201307,
    "year": 2013,
    "fractiondate": "2013.5315",
    "eventcode": 1125,
    "quadclass": 3,
    "nummentions": 2,
    "numsources": 1,
    "numarticles": 2,
    "avgtone": "2.33236151603499",
    "sourceurl": "http://au.businessinsider.com/bolivian-president-evo-morales-accuses-the-us-of-hacking-email-accounts-2013-7",
    "feature_id": "531871",
    "feature_name": "Washington",
    "state_alpha": "DC",
    "county_name": "District of Columbia",
    "county_numeric": "001",
    "prim_lat_dec": "38.8951118",
    "prim_long_dec": "-77.0363658",
    "elev_in_m": "7",
    "elev_in_ft": "23",
    "lat": 38.8951118,
    "long": -77.0363658
  },
  {
    "globaleventid": 259478262,
    "sqldate": 20130714,
    "monthyear": 201307,
    "year": 2013,
    "fractiondate": "2013.5315",
    "eventcode": 190,
    "quadclass": 4,
    "nummentions": 1,
    "numsources": 1,
    "numarticles": 1,
    "avgtone": "3.47533632286996",
    "sourceurl": "http://www.rgj.com/usatoday/article/2515143&c=g1fjYYwSQXi8vg5y1PGLNS72S4Ozwepgn62ROOcktsM&mkt=en-us",
    "feature_id": "1617959",
    "feature_name": "Detroit",
    "state_alpha": "MI",
    "county_name": "Wayne",
    "county_numeric": "163",
    "prim_lat_dec": "42.331427",
    "prim_long_dec": "-83.0457538",
    "elev_in_m": "182",
    "elev_in_ft": "597",
    "lat": 42.331427,
    "long": -83.0457538
  },
  {
    "globaleventid": 259478261,
    "sqldate": 20130714,
    "monthyear": 201307,
    "year": 2013,
    "fractiondate": "2013.5315",
    "eventcode": 190,
    "quadclass": 4,
    "nummentions": 1,
    "numsources": 1,
    "numarticles": 1,
    "avgtone": "3.47533632286996",
    "sourceurl": "http://www.rgj.com/usatoday/article/2515143&c=g1fjYYwSQXi8vg5y1PGLNS72S4Ozwepgn62ROOcktsM&mkt=en-us",
    "feature_id": "1617959",
    "feature_name": "Detroit",
    "state_alpha": "MI",
    "county_name": "Wayne",
    "county_numeric": "163",
    "prim_lat_dec": "42.331427",
    "prim_long_dec": "-83.0457538",
    "elev_in_m": "182",
    "elev_in_ft": "597",
    "lat": 42.331427,
    "long": -83.0457538
  },
  {
    "globaleventid": 259478184,
    "sqldate": 20130714,
    "monthyear": 201307,
    "year": 2013,
    "fractiondate": "2013.5315",
    "eventcode": 190,
    "quadclass": 4,
    "nummentions": 1,
    "numsources": 1,
    "numarticles": 1,
    "avgtone": "1.76470588235294",
    "sourceurl": "http://www.usnews.com/news/us/articles/2013/07/13/nyc-case-casts-light-on-west-african-mining-fight",
    "feature_id": "971945",
    "feature_name": "Manhattan",
    "state_alpha": "NY",
    "county_name": "New York",
    "county_numeric": "061",
    "prim_lat_dec": "40.7834345",
    "prim_long_dec": "-73.9662495",
    "elev_in_m": "35",
    "elev_in_ft": "115",
    "lat": 40.7834345,
    "long": -73.9662495
  },
  {
    "globaleventid": 259478180,
    "sqldate": 20130714,
    "monthyear": 201307,
    "year": 2013,
    "fractiondate": "2013.5315",
    "eventcode": 112,
    "quadclass": 3,
    "nummentions": 8,
    "numsources": 1,
    "numarticles": 8,
    "avgtone": "2.30167674828818",
    "sourceurl": "http://www.freep.com/article/20130714/NEWS01/307140134&c=qhgYCwbnAeffvgE6W36rjJJOYtj4Nqfo77XUVSnAlg8&mkt=en-us",
    "feature_id": "624432",
    "feature_name": "Dearborn",
    "state_alpha": "MI",
    "county_name": "Wayne",
    "county_numeric": "163",
    "prim_lat_dec": "42.3222599",
    "prim_long_dec": "-83.1763145",
    "elev_in_m": "180",
    "elev_in_ft": "591",
    "lat": 42.3222599,
    "long": -83.1763145
  },
  {
    "globaleventid": 259478127,
    "sqldate": 20130714,
    "monthyear": 201307,
    "year": 2013,
    "fractiondate": "2013.5315",
    "eventcode": 190,
    "quadclass": 4,
    "nummentions": 2,
    "numsources": 1,
    "numarticles": 2,
    "avgtone": "3.2258064516129",
    "sourceurl": "http://www.presstv.ir/detail/2013/07/14/313781/afghans-suspend-security-talks-with-us/",
    "feature_id": "531871",
    "feature_name": "Washington",
    "state_alpha": "DC",
    "county_name": "District of Columbia",
    "county_numeric": "001",
    "prim_lat_dec": "38.8951118",
    "prim_long_dec": "-77.0363658",
    "elev_in_m": "7",
    "elev_in_ft": "23",
    "lat": 38.8951118,
    "long": -77.0363658
  },
  {
    "globaleventid": 259478122,
    "sqldate": 20130714,
    "monthyear": 201307,
    "year": 2013,
    "fractiondate": "2013.5315",
    "eventcode": 190,
    "quadclass": 4,
    "nummentions": 2,
    "numsources": 1,
    "numarticles": 2,
    "avgtone": "1.31782945736434",
    "sourceurl": "http://www.pottsmerc.com/article/20130713/NEWS01/130719658/lower-pottsgrove-police-incident-with-awol-soldier-raises-questions-about-military-suicides",
    "feature_id": "1214003",
    "feature_name": "Pottstown",
    "state_alpha": "PA",
    "county_name": "Montgomery",
    "county_numeric": "091",
    "prim_lat_dec": "40.2453741",
    "prim_long_dec": "-75.6496302",
    "elev_in_m": "47",
    "elev_in_ft": "154",
    "lat": 40.2453741,
    "long": -75.6496302
  },
  {
    "globaleventid": 259473749,
    "sqldate": 20130714,
    "monthyear": 201307,
    "year": 2013,
    "fractiondate": "2013.5315",
    "eventcode": 110,
    "quadclass": 3,
    "nummentions": 2,
    "numsources": 1,
    "numarticles": 2,
    "avgtone": "1.1038961038961",
    "sourceurl": "http://www.oaoa.com/news/business/article_553b6b58-eb3b-11e2-8bb5-001a4bcf6878.html",
    "feature_id": "1343067",
    "feature_name": "Odessa",
    "state_alpha": "TX",
    "county_name": "Ector",
    "county_numeric": "135",
    "prim_lat_dec": "31.8456816",
    "prim_long_dec": "-102.3676431",
    "elev_in_m": "884",
    "elev_in_ft": "2900",
    "lat": 31.8456816,
    "long": -102.3676431
  },
  {
    "globaleventid": 259473651,
    "sqldate": 20130714,
    "monthyear": 201307,
    "year": 2013,
    "fractiondate": "2013.5315",
    "eventcode": 1123,
    "quadclass": 3,
    "nummentions": 8,
    "numsources": 1,
    "numarticles": 8,
    "avgtone": "2.11187214611872",
    "sourceurl": "http://www.frontline.in/world-affairs/snowden-saga/article4894149.ece",
    "feature_id": "531871",
    "feature_name": "Washington",
    "state_alpha": "DC",
    "county_name": "District of Columbia",
    "county_numeric": "001",
    "prim_lat_dec": "38.8951118",
    "prim_long_dec": "-77.0363658",
    "elev_in_m": "7",
    "elev_in_ft": "23",
    "lat": 38.8951118,
    "long": -77.0363658
  },
  {
    "globaleventid": 259473423,
    "sqldate": 20130714,
    "monthyear": 201307,
    "year": 2013,
    "fractiondate": "2013.5315",
    "eventcode": 190,
    "quadclass": 4,
    "nummentions": 8,
    "numsources": 1,
    "numarticles": 8,
    "avgtone": "0.0",
    "sourceurl": "http://english.people.com.cn/90777/8325377.html",
    "feature_id": "1380948",
    "feature_name": "Houston",
    "state_alpha": "TX",
    "county_name": "Harris",
    "county_numeric": "201",
    "prim_lat_dec": "29.7632836",
    "prim_long_dec": "-95.3632715",
    "elev_in_m": "11",
    "elev_in_ft": "36",
    "lat": 29.7632836,
    "long": -95.3632715
  },
  {
    "globaleventid": 259473419,
    "sqldate": 20130714,
    "monthyear": 201307,
    "year": 2013,
    "fractiondate": "2013.5315",
    "eventcode": 193,
    "quadclass": 4,
    "nummentions": 6,
    "numsources": 1,
    "numarticles": 6,
    "avgtone": "0.714285714285714",
    "sourceurl": "http://www.therepublic.com/view/story/0f2480b5107c4ee18cb52b8de875af1f/AL--Child-Shot-Tuscaloosa",
    "feature_id": "153742",
    "feature_name": "Tuscaloosa",
    "state_alpha": "AL",
    "county_name": "Tuscaloosa",
    "county_numeric": "125",
    "prim_lat_dec": "33.2098407",
    "prim_long_dec": "-87.5691735",
    "elev_in_m": "67",
    "elev_in_ft": "220",
    "lat": 33.2098407,
    "long": -87.5691735
  },
  {
    "globaleventid": 259473412,
    "sqldate": 20130714,
    "monthyear": 201307,
    "year": 2013,
    "fractiondate": "2013.5315",
    "eventcode": 1123,
    "quadclass": 3,
    "nummentions": 24,
    "numsources": 5,
    "numarticles": 24,
    "avgtone": "1.86020045610479",
    "sourceurl": "http://www.bendbulletin.com/apps/pbcs.dll/article?AID=/20130714/NEWS0107/307140367/1009/NEWS01&nav_category=NEWS01",
    "feature_id": "1166631",
    "feature_name": "Clackamas",
    "state_alpha": "OR",
    "county_name": "Clackamas",
    "county_numeric": "005",
    "prim_lat_dec": "45.4076205",
    "prim_long_dec": "-122.5703692",
    "elev_in_m": "53",
    "elev_in_ft": "174",
    "lat": 45.4076205,
    "long": -122.5703692
  },
  {
    "globaleventid": 259473188,
    "sqldate": 20130714,
    "monthyear": 201307,
    "year": 2013,
    "fractiondate": "2013.5315",
    "eventcode": 190,
    "quadclass": 4,
    "nummentions": 130,
    "numsources": 12,
    "numarticles": 130,
    "avgtone": "2.52190037134254",
    "sourceurl": "http://in.reuters.com/article/2013/07/15/egypt-protests-sinai-idINDEE96E01E20130715",
    "feature_id": "531871",
    "feature_name": "Washington",
    "state_alpha": "DC",
    "county_name": "District of Columbia",
    "county_numeric": "001",
    "prim_lat_dec": "38.8951118",
    "prim_long_dec": "-77.0363658",
    "elev_in_m": "7",
    "elev_in_ft": "23",
    "lat": 38.8951118,
    "long": -77.0363658
  },
  {
    "globaleventid": 259473048,
    "sqldate": 20130714,
    "monthyear": 201307,
    "year": 2013,
    "fractiondate": "2013.5315",
    "eventcode": 193,
    "quadclass": 4,
    "nummentions": 30,
    "numsources": 1,
    "numarticles": 30,
    "avgtone": "0.767263427109974",
    "sourceurl": "http://www.csmonitor.com/USA/Latest-News-Wires/2013/0714/San-Francisco-shooting-Two-women-killed-gunman-in-custody?utm_source=feedburner&utm_medium=feed&utm_campaign=Feed%3A+feeds%2Fusa+%28Christian+Science+Monitor+%7C+USA%29",
    "feature_id": "277593",
    "feature_name": "San Francisco",
    "state_alpha": "CA",
    "county_name": "San Francisco",
    "county_numeric": "075",
    "prim_lat_dec": "37.775",
    "prim_long_dec": "-122.4194444",
    "elev_in_m": "16",
    "elev_in_ft": "52",
    "lat": 37.775,
    "long": -122.4194444
  },
  {
    "globaleventid": 259472709,
    "sqldate": 20130714,
    "monthyear": 201307,
    "year": 2013,
    "fractiondate": "2013.5315",
    "eventcode": 1721,
    "quadclass": 4,
    "nummentions": 10,
    "numsources": 1,
    "numarticles": 10,
    "avgtone": "2.09424083769634",
    "sourceurl": "http://www.lakewyliepilot.com/2013/07/13/1976295/typhoon-hits-china-after-killing.html",
    "feature_id": "1233775",
    "feature_name": "Lake Wylie",
    "state_alpha": "SC",
    "county_name": "York",
    "county_numeric": "091",
    "prim_lat_dec": "35.108476",
    "prim_long_dec": "-81.0428538",
    "elev_in_m": "179",
    "elev_in_ft": "587",
    "lat": 35.108476,
    "long": -81.0428538
  },
  {
    "globaleventid": 259472065,
    "sqldate": 20130714,
    "monthyear": 201307,
    "year": 2013,
    "fractiondate": "2013.5315",
    "eventcode": 1822,
    "quadclass": 4,
    "nummentions": 4,
    "numsources": 1,
    "numarticles": 4,
    "avgtone": "2.24066390041494",
    "sourceurl": "http://truth-out.org/news/item/17560-no-justice-for-tortured-bahraini-journalist&c=-yU-m77I3o5aAv7QkZ2rD2RHFitqu_EWlLPi9ICMVEo&mkt=en-us",
    "feature_id": "531871",
    "feature_name": "Washington",
    "state_alpha": "DC",
    "county_name": "District of Columbia",
    "county_numeric": "001",
    "prim_lat_dec": "38.8951118",
    "prim_long_dec": "-77.0363658",
    "elev_in_m": "7",
    "elev_in_ft": "23",
    "lat": 38.8951118,
    "long": -77.0363658
  },
  {
    "globaleventid": 259470675,
    "sqldate": 20130714,
    "monthyear": 201307,
    "year": 2013,
    "fractiondate": "2013.5315",
    "eventcode": 114,
    "quadclass": 3,
    "nummentions": 4,
    "numsources": 1,
    "numarticles": 4,
    "avgtone": "2.7431421446384",
    "sourceurl": "http://english.ruvr.ru/news/2013_07_14/German-opposition-bashes-Merkel-s-interior-minister-over-US-spying-7686/",
    "feature_id": "531871",
    "feature_name": "Washington",
    "state_alpha": "DC",
    "county_name": "District of Columbia",
    "county_numeric": "001",
    "prim_lat_dec": "38.8951118",
    "prim_long_dec": "-77.0363658",
    "elev_in_m": "7",
    "elev_in_ft": "23",
    "lat": 38.8951118,
    "long": -77.0363658
  },
  {
    "globaleventid": 259470298,
    "sqldate": 20130714,
    "monthyear": 201307,
    "year": 2013,
    "fractiondate": "2013.5315",
    "eventcode": 190,
    "quadclass": 4,
    "nummentions": 6,
    "numsources": 1,
    "numarticles": 6,
    "avgtone": "0.993377483443709",
    "sourceurl": "http://www.ctpost.com/news/article/Family-s-flight-from-Gettysburg-battle-recounted-4664704.php",
    "feature_id": "1213625",
    "feature_name": "Gettysburg",
    "state_alpha": "PA",
    "county_name": "Adams",
    "county_numeric": "001",
    "prim_lat_dec": "39.8309293",
    "prim_long_dec": "-77.2310955",
    "elev_in_m": "163",
    "elev_in_ft": "535",
    "lat": 39.8309293,
    "long": -77.2310955
  },
  {
    "globaleventid": 259470291,
    "sqldate": 20130714,
    "monthyear": 201307,
    "year": 2013,
    "fractiondate": "2013.5315",
    "eventcode": 172,
    "quadclass": 4,
    "nummentions": 10,
    "numsources": 4,
    "numarticles": 10,
    "avgtone": "2.02083993587822",
    "sourceurl": "http://www.asianage.com/india/2-chinese-choppers-violated-indian-airspace-soon-after-antonys-china-visit-130",
    "feature_id": "1422736",
    "feature_name": "Indian",
    "state_alpha": "AK",
    "county_name": "Anchorage",
    "county_numeric": "020",
    "prim_lat_dec": "60.9872222",
    "prim_long_dec": "-149.5136111",
    "elev_in_m": "18",
    "elev_in_ft": "59",
    "lat": 60.9872222,
    "long": -149.5136111
  },
  {
    "globaleventid": 259469177,
    "sqldate": 20130714,
    "monthyear": 201307,
    "year": 2013,
    "fractiondate": "2013.5315",
    "eventcode": 193,
    "quadclass": 4,
    "nummentions": 2,
    "numsources": 1,
    "numarticles": 2,
    "avgtone": "2.660406885759",
    "sourceurl": "http://www.thedailystar.net/beta2/news/russia-faces-us-wrath/",
    "feature_id": "531871",
    "feature_name": "Washington",
    "state_alpha": "DC",
    "county_name": "District of Columbia",
    "county_numeric": "001",
    "prim_lat_dec": "38.8951118",
    "prim_long_dec": "-77.0363658",
    "elev_in_m": "7",
    "elev_in_ft": "23",
    "lat": 38.8951118,
    "long": -77.0363658
  },
  {
    "globaleventid": 259469160,
    "sqldate": 20130714,
    "monthyear": 201307,
    "year": 2013,
    "fractiondate": "2013.5315",
    "eventcode": 120,
    "quadclass": 3,
    "nummentions": 4,
    "numsources": 1,
    "numarticles": 4,
    "avgtone": "1.77514792899408",
    "sourceurl": "http://truthdive.com/2013/07/14/Russia-denies-receiving-asylum-request-from-NSA-whistleblower-Snowden.html",
    "feature_id": "531871",
    "feature_name": "Washington",
    "state_alpha": "DC",
    "county_name": "District of Columbia",
    "county_numeric": "001",
    "prim_lat_dec": "38.8951118",
    "prim_long_dec": "-77.0363658",
    "elev_in_m": "7",
    "elev_in_ft": "23",
    "lat": 38.8951118,
    "long": -77.0363658
  },
  {
    "globaleventid": 259468899,
    "sqldate": 20130714,
    "monthyear": 201307,
    "year": 2013,
    "fractiondate": "2013.5315",
    "eventcode": 110,
    "quadclass": 3,
    "nummentions": 14,
    "numsources": 12,
    "numarticles": 14,
    "avgtone": "1.8091494709827",
    "sourceurl": "http://www.nation.com.pk/pakistan-news-newspaper-daily-english-online/international/15-Jul-2013/snowden-could-cause-more-damage-to-us",
    "feature_id": "531871",
    "feature_name": "Washington",
    "state_alpha": "DC",
    "county_name": "District of Columbia",
    "county_numeric": "001",
    "prim_lat_dec": "38.8951118",
    "prim_long_dec": "-77.0363658",
    "elev_in_m": "7",
    "elev_in_ft": "23",
    "lat": 38.8951118,
    "long": -77.0363658
  },
  {
    "globaleventid": 259468845,
    "sqldate": 20130714,
    "monthyear": 201307,
    "year": 2013,
    "fractiondate": "2013.5315",
    "eventcode": 172,
    "quadclass": 4,
    "nummentions": 1,
    "numsources": 1,
    "numarticles": 1,
    "avgtone": "1.70375521557719",
    "sourceurl": "http://lareviewofbooks.org/article.php?id=1854&fulltext=1&c=_SpFK6vyHbR6ukHQWTOuhjGbxlyyZ40xFS4Q5rt7aPI&mkt=en-us",
    "feature_id": "1662328",
    "feature_name": "Los Angeles",
    "state_alpha": "CA",
    "county_name": "Los Angeles",
    "county_numeric": "037",
    "prim_lat_dec": "34.0522342",
    "prim_long_dec": "-118.2436849",
    "elev_in_m": "89",
    "elev_in_ft": "292",
    "lat": 34.0522342,
    "long": -118.2436849
  },
  {
    "globaleventid": 259468196,
    "sqldate": 20130714,
    "monthyear": 201307,
    "year": 2013,
    "fractiondate": "2013.5315",
    "eventcode": 112,
    "quadclass": 3,
    "nummentions": 9,
    "numsources": 2,
    "numarticles": 9,
    "avgtone": "1.49831688780409",
    "sourceurl": "http://www.usatoday.com/story/news/nation/2013/07/14/zimmerman-trayvon-martin-lawyers-verdict/2516065/",
    "feature_id": "1380944",
    "feature_name": "Dallas",
    "state_alpha": "TX",
    "county_name": "Dallas",
    "county_numeric": "113",
    "prim_lat_dec": "32.7830556",
    "prim_long_dec": "-96.8066667",
    "elev_in_m": "128",
    "elev_in_ft": "420",
    "lat": 32.7830556,
    "long": -96.8066667
  },
  {
    "globaleventid": 259468186,
    "sqldate": 20130714,
    "monthyear": 201307,
    "year": 2013,
    "fractiondate": "2013.5315",
    "eventcode": 112,
    "quadclass": 3,
    "nummentions": 1,
    "numsources": 1,
    "numarticles": 1,
    "avgtone": "1.64233576642336",
    "sourceurl": "http://www.freep.com/article/20130714/NEWS07/307140133/george-zimmerman-trayvon-martin-verdict",
    "feature_id": "1380944",
    "feature_name": "Dallas",
    "state_alpha": "TX",
    "county_name": "Dallas",
    "county_numeric": "113",
    "prim_lat_dec": "32.7830556",
    "prim_long_dec": "-96.8066667",
    "elev_in_m": "128",
    "elev_in_ft": "420",
    "lat": 32.7830556,
    "long": -96.8066667
  },
  {
    "globaleventid": 259468185,
    "sqldate": 20130714,
    "monthyear": 201307,
    "year": 2013,
    "fractiondate": "2013.5315",
    "eventcode": 112,
    "quadclass": 3,
    "nummentions": 3,
    "numsources": 2,
    "numarticles": 3,
    "avgtone": "1.49831688780409",
    "sourceurl": "http://www.usatoday.com/story/news/nation/2013/07/14/zimmerman-trayvon-martin-lawyers-verdict/2516065/",
    "feature_id": "1380944",
    "feature_name": "Dallas",
    "state_alpha": "TX",
    "county_name": "Dallas",
    "county_numeric": "113",
    "prim_lat_dec": "32.7830556",
    "prim_long_dec": "-96.8066667",
    "elev_in_m": "128",
    "elev_in_ft": "420",
    "lat": 32.7830556,
    "long": -96.8066667
  },
  {
    "globaleventid": 259468050,
    "sqldate": 20130714,
    "monthyear": 201307,
    "year": 2013,
    "fractiondate": "2013.5315",
    "eventcode": 130,
    "quadclass": 3,
    "nummentions": 2,
    "numsources": 1,
    "numarticles": 2,
    "avgtone": "1.6246953696182",
    "sourceurl": "http://www.nagalandpost.com/ChannelNews/International/InternationalNews.aspx?news=TkVXUzEwMDA0MTIwNQ%3D%3D-E7iSAhvrzuI%3D",
    "feature_id": "531871",
    "feature_name": "Washington",
    "state_alpha": "DC",
    "county_name": "District of Columbia",
    "county_numeric": "001",
    "prim_lat_dec": "38.8951118",
    "prim_long_dec": "-77.0363658",
    "elev_in_m": "7",
    "elev_in_ft": "23",
    "lat": 38.8951118,
    "long": -77.0363658
  },
  {
    "globaleventid": 259467802,
    "sqldate": 20130714,
    "monthyear": 201307,
    "year": 2013,
    "fractiondate": "2013.5315",
    "eventcode": 190,
    "quadclass": 4,
    "nummentions": 4,
    "numsources": 2,
    "numarticles": 4,
    "avgtone": "3.57142857142857",
    "sourceurl": "http://www.navytimes.com/article/20130714/NEWS/307140007/Statue-slain-Navy-SEAL-dog-unveiled",
    "feature_id": "413098",
    "feature_name": "Mason City",
    "state_alpha": "IL",
    "county_name": "Mason",
    "county_numeric": "125",
    "prim_lat_dec": "40.2022663",
    "prim_long_dec": "-89.6981639",
    "elev_in_m": "177",
    "elev_in_ft": "581",
    "lat": 40.2022663,
    "long": -89.6981639
  },
  {
    "globaleventid": 259467799,
    "sqldate": 20130714,
    "monthyear": 201307,
    "year": 2013,
    "fractiondate": "2013.5315",
    "eventcode": 190,
    "quadclass": 4,
    "nummentions": 6,
    "numsources": 1,
    "numarticles": 6,
    "avgtone": "3.41207349081365",
    "sourceurl": "http://www.chron.com/news/article/Iowa-statue-of-slain-Navy-SEAL-dog-unveiled-4663767.php",
    "feature_id": "458840",
    "feature_name": "Mason City",
    "state_alpha": "IA",
    "county_name": "Cerro Gordo",
    "county_numeric": "033",
    "prim_lat_dec": "43.1535728",
    "prim_long_dec": "-93.2010367",
    "elev_in_m": "345",
    "elev_in_ft": "1132",
    "lat": 43.1535728,
    "long": -93.2010367
  },
  {
    "globaleventid": 259467798,
    "sqldate": 20130714,
    "monthyear": 201307,
    "year": 2013,
    "fractiondate": "2013.5315",
    "eventcode": 190,
    "quadclass": 4,
    "nummentions": 10,
    "numsources": 5,
    "numarticles": 10,
    "avgtone": "3.57293539242174",
    "sourceurl": "http://www.navytimes.com/article/20130714/NEWS/307140007/Statue-slain-Navy-SEAL-dog-unveiled",
    "feature_id": "457327",
    "feature_name": "Hawkeye",
    "state_alpha": "IA",
    "county_name": "Fayette",
    "county_numeric": "065",
    "prim_lat_dec": "42.9385894",
    "prim_long_dec": "-91.9501687",
    "elev_in_m": "355",
    "elev_in_ft": "1165",
    "lat": 42.9385894,
    "long": -91.9501687
  },
  {
    "globaleventid": 259467797,
    "sqldate": 20130714,
    "monthyear": 201307,
    "year": 2013,
    "fractiondate": "2013.5315",
    "eventcode": 190,
    "quadclass": 4,
    "nummentions": 20,
    "numsources": 4,
    "numarticles": 20,
    "avgtone": "3.6214953271028",
    "sourceurl": "http://www.thonline.com/news/iowa-illinois-wisconsin/article_3ddb2f7e-c8a5-5403-83e0-3993b95d0d14.html",
    "feature_id": "413098",
    "feature_name": "Mason City",
    "state_alpha": "IL",
    "county_name": "Mason",
    "county_numeric": "125",
    "prim_lat_dec": "40.2022663",
    "prim_long_dec": "-89.6981639",
    "elev_in_m": "177",
    "elev_in_ft": "581",
    "lat": 40.2022663,
    "long": -89.6981639
  },
  {
    "globaleventid": 259467531,
    "sqldate": 20130714,
    "monthyear": 201307,
    "year": 2013,
    "fractiondate": "2013.5315",
    "eventcode": 193,
    "quadclass": 4,
    "nummentions": 3,
    "numsources": 1,
    "numarticles": 3,
    "avgtone": "2.29759299781182",
    "sourceurl": "http://www.mlive.com/news/grand-rapids/index.ssf/2013/07/whites_bridge_does_rebirth_of.html",
    "feature_id": "1456284",
    "feature_name": "Bartonsville",
    "state_alpha": "VT",
    "county_name": "Windham",
    "county_numeric": "025",
    "prim_lat_dec": "43.2256315",
    "prim_long_dec": "-72.5356456",
    "elev_in_m": "156",
    "elev_in_ft": "512",
    "lat": 43.2256315,
    "long": -72.5356456
  },
  {
    "globaleventid": 259467377,
    "sqldate": 20130714,
    "monthyear": 201307,
    "year": 2013,
    "fractiondate": "2013.5315",
    "eventcode": 186,
    "quadclass": 4,
    "nummentions": 1,
    "numsources": 1,
    "numarticles": 1,
    "avgtone": "3.84615384615385",
    "sourceurl": "http://www.asiaone.com/News/AsiaOne%2BNews/Asia/Story/A1Story20130714-437027.html",
    "feature_id": "617565",
    "feature_name": "Boston",
    "state_alpha": "MA",
    "county_name": "Suffolk",
    "county_numeric": "025",
    "prim_lat_dec": "42.3584308",
    "prim_long_dec": "-71.0597732",
    "elev_in_m": "14",
    "elev_in_ft": "46",
    "lat": 42.3584308,
    "long": -71.0597732
  },
  {
    "globaleventid": 259467376,
    "sqldate": 20130714,
    "monthyear": 201307,
    "year": 2013,
    "fractiondate": "2013.5315",
    "eventcode": 186,
    "quadclass": 4,
    "nummentions": 1,
    "numsources": 1,
    "numarticles": 1,
    "avgtone": "3.84615384615385",
    "sourceurl": "http://www.asiaone.com/News/AsiaOne%2BNews/Asia/Story/A1Story20130714-437027.html",
    "feature_id": "1380944",
    "feature_name": "Dallas",
    "state_alpha": "TX",
    "county_name": "Dallas",
    "county_numeric": "113",
    "prim_lat_dec": "32.7830556",
    "prim_long_dec": "-96.8066667",
    "elev_in_m": "128",
    "elev_in_ft": "420",
    "lat": 32.7830556,
    "long": -96.8066667
  },
  {
    "globaleventid": 259467375,
    "sqldate": 20130714,
    "monthyear": 201307,
    "year": 2013,
    "fractiondate": "2013.5315",
    "eventcode": 130,
    "quadclass": 3,
    "nummentions": 2,
    "numsources": 1,
    "numarticles": 2,
    "avgtone": "1.61476355247982",
    "sourceurl": "http://articles.chicagotribune.com/2013-07-12/opinion/ct-edit-clifford-20130714_1_alex-clifford-metra-chairman-brad-o-halloran-memo",
    "feature_id": "423587",
    "feature_name": "Chicago",
    "state_alpha": "IL",
    "county_name": "Cook",
    "county_numeric": "031",
    "prim_lat_dec": "41.850033",
    "prim_long_dec": "-87.6500523",
    "elev_in_m": "179",
    "elev_in_ft": "587",
    "lat": 41.850033,
    "long": -87.6500523
  },
  {
    "globaleventid": 259467374,
    "sqldate": 20130714,
    "monthyear": 201307,
    "year": 2013,
    "fractiondate": "2013.5315",
    "eventcode": 130,
    "quadclass": 3,
    "nummentions": 2,
    "numsources": 1,
    "numarticles": 2,
    "avgtone": "1.61476355247982",
    "sourceurl": "http://articles.chicagotribune.com/2013-07-12/opinion/ct-edit-clifford-20130714_1_alex-clifford-metra-chairman-brad-o-halloran-memo",
    "feature_id": "423587",
    "feature_name": "Chicago",
    "state_alpha": "IL",
    "county_name": "Cook",
    "county_numeric": "031",
    "prim_lat_dec": "41.850033",
    "prim_long_dec": "-87.6500523",
    "elev_in_m": "179",
    "elev_in_ft": "587",
    "lat": 41.850033,
    "long": -87.6500523
  },
  {
    "globaleventid": 259467372,
    "sqldate": 20130714,
    "monthyear": 201307,
    "year": 2013,
    "fractiondate": "2013.5315",
    "eventcode": 114,
    "quadclass": 3,
    "nummentions": 4,
    "numsources": 2,
    "numarticles": 4,
    "avgtone": "2.8169014084507",
    "sourceurl": "http://www.ibtimes.co.in/articles/490090/20130715/trayvon-martin-rally-george-zimmerman-riot-trayvon-martin-riot-stand-your-ground-law-emmitt-till-geo.htm",
    "feature_id": "279437",
    "feature_name": "Brooklyn",
    "state_alpha": "FL",
    "county_name": "Duval",
    "county_numeric": "031",
    "prim_lat_dec": "30.3235726",
    "prim_long_dec": "-81.6745406",
    "elev_in_m": "6",
    "elev_in_ft": "20",
    "lat": 30.3235726,
    "long": -81.6745406
  },
  {
    "globaleventid": 259467013,
    "sqldate": 20130714,
    "monthyear": 201307,
    "year": 2013,
    "fractiondate": "2013.5315",
    "eventcode": 181,
    "quadclass": 4,
    "nummentions": 4,
    "numsources": 1,
    "numarticles": 4,
    "avgtone": "2.51076040172166",
    "sourceurl": "http://www.thepeoplesvoice.org/TPV3/Voices.php/2013/07/14/israel-governs-lawlessly",
    "feature_id": "423587",
    "feature_name": "Chicago",
    "state_alpha": "IL",
    "county_name": "Cook",
    "county_numeric": "031",
    "prim_lat_dec": "41.850033",
    "prim_long_dec": "-87.6500523",
    "elev_in_m": "179",
    "elev_in_ft": "587",
    "lat": 41.850033,
    "long": -87.6500523
  },
  {
    "globaleventid": 259466832,
    "sqldate": 20130714,
    "monthyear": 201307,
    "year": 2013,
    "fractiondate": "2013.5315",
    "eventcode": 138,
    "quadclass": 3,
    "nummentions": 2,
    "numsources": 1,
    "numarticles": 2,
    "avgtone": "2.90909090909091",
    "sourceurl": "http://www.forbes.com/sites/larrybell/2013/07/14/indefensible-policies-our-commander-in-chief-retreats-as-putins-missile-programs-advance/",
    "feature_id": "1661377",
    "feature_name": "San Diego",
    "state_alpha": "CA",
    "county_name": "San Diego",
    "county_numeric": "073",
    "prim_lat_dec": "32.7153292",
    "prim_long_dec": "-117.1572551",
    "elev_in_m": "19",
    "elev_in_ft": "62",
    "lat": 32.7153292,
    "long": -117.1572551
  },
  {
    "globaleventid": 259466661,
    "sqldate": 20130714,
    "monthyear": 201307,
    "year": 2013,
    "fractiondate": "2013.5315",
    "eventcode": 112,
    "quadclass": 3,
    "nummentions": 20,
    "numsources": 3,
    "numarticles": 16,
    "avgtone": "1.83639410113876",
    "sourceurl": "http://www.heraldtribune.com/article/20130713/WIRE/130719861/2055/NEWS?Title=Hundreds-of-new-charges-filed-in-Ohio-kidnapping-case",
    "feature_id": "1066654",
    "feature_name": "Cleveland",
    "state_alpha": "OH",
    "county_name": "Cuyahoga",
    "county_numeric": "035",
    "prim_lat_dec": "41.4994954",
    "prim_long_dec": "-81.6954088",
    "elev_in_m": "199",
    "elev_in_ft": "653",
    "lat": 41.4994954,
    "long": -81.6954088
  },
  {
    "globaleventid": 259466589,
    "sqldate": 20130714,
    "monthyear": 201307,
    "year": 2013,
    "fractiondate": "2013.5315",
    "eventcode": 120,
    "quadclass": 3,
    "nummentions": 2,
    "numsources": 1,
    "numarticles": 2,
    "avgtone": "2.9874213836478",
    "sourceurl": "http://www.alaskadispatch.com/article/20130714/alaska-redistricting-board-adopts-revised-voting-district-map",
    "feature_id": "1401545",
    "feature_name": "Eagle River",
    "state_alpha": "AK",
    "county_name": "Anchorage",
    "county_numeric": "020",
    "prim_lat_dec": "61.3213889",
    "prim_long_dec": "-149.5677778",
    "elev_in_m": "96",
    "elev_in_ft": "315",
    "lat": 61.3213889,
    "long": -149.5677778
  },
  {
    "globaleventid": 259466588,
    "sqldate": 20130714,
    "monthyear": 201307,
    "year": 2013,
    "fractiondate": "2013.5315",
    "eventcode": 120,
    "quadclass": 3,
    "nummentions": 2,
    "numsources": 1,
    "numarticles": 2,
    "avgtone": "2.9874213836478",
    "sourceurl": "http://www.alaskadispatch.com/article/20130714/alaska-redistricting-board-adopts-revised-voting-district-map",
    "feature_id": "1401545",
    "feature_name": "Eagle River",
    "state_alpha": "AK",
    "county_name": "Anchorage",
    "county_numeric": "020",
    "prim_lat_dec": "61.3213889",
    "prim_long_dec": "-149.5677778",
    "elev_in_m": "96",
    "elev_in_ft": "315",
    "lat": 61.3213889,
    "long": -149.5677778
  },
  {
    "globaleventid": 259465634,
    "sqldate": 20130714,
    "monthyear": 201307,
    "year": 2013,
    "fractiondate": "2013.5315",
    "eventcode": 190,
    "quadclass": 4,
    "nummentions": 6,
    "numsources": 1,
    "numarticles": 6,
    "avgtone": "0.0",
    "sourceurl": "http://www.karachinews.net/index.php/sid/215822723/scat/8c3d7d78943a99c7",
    "feature_id": "201738",
    "feature_name": "Denver",
    "state_alpha": "CO",
    "county_name": "Denver",
    "county_numeric": "031",
    "prim_lat_dec": "39.7391536",
    "prim_long_dec": "-104.9847034",
    "elev_in_m": "1609",
    "elev_in_ft": "5279",
    "lat": 39.7391536,
    "long": -104.9847034
  },
  {
    "globaleventid": 259465528,
    "sqldate": 20130714,
    "monthyear": 201307,
    "year": 2013,
    "fractiondate": "2013.5315",
    "eventcode": 111,
    "quadclass": 3,
    "nummentions": 2,
    "numsources": 1,
    "numarticles": 2,
    "avgtone": "1.52526215443279",
    "sourceurl": "http://www.wtvy.com/news/headlines/World-News-Israel-Air-Strike-in-Syria-Syrian-Rebels-Infighting-Killer-Cow-215413461.html",
    "feature_id": "531871",
    "feature_name": "Washington",
    "state_alpha": "DC",
    "county_name": "District of Columbia",
    "county_numeric": "001",
    "prim_lat_dec": "38.8951118",
    "prim_long_dec": "-77.0363658",
    "elev_in_m": "7",
    "elev_in_ft": "23",
    "lat": 38.8951118,
    "long": -77.0363658
  },
  {
    "globaleventid": 259464985,
    "sqldate": 20130714,
    "monthyear": 201307,
    "year": 2013,
    "fractiondate": "2013.5315",
    "eventcode": 141,
    "quadclass": 3,
    "nummentions": 4,
    "numsources": 1,
    "numarticles": 4,
    "avgtone": "2.03488372093023",
    "sourceurl": "http://www.i4u.com/2013/07/george-zimmerman/wakes-ecuador-volcano&c=m1ljxvSqCAP11UUC0gVLEiNnb6nbaRuKkmy8ikEratQ&mkt=en-us",
    "feature_id": "423587",
    "feature_name": "Chicago",
    "state_alpha": "IL",
    "county_name": "Cook",
    "county_numeric": "031",
    "prim_lat_dec": "41.850033",
    "prim_long_dec": "-87.6500523",
    "elev_in_m": "179",
    "elev_in_ft": "587",
    "lat": 41.850033,
    "long": -87.6500523
  },
  {
    "globaleventid": 259464973,
    "sqldate": 20130714,
    "monthyear": 201307,
    "year": 2013,
    "fractiondate": "2013.5315",
    "eventcode": 141,
    "quadclass": 3,
    "nummentions": 3,
    "numsources": 1,
    "numarticles": 3,
    "avgtone": "3.43642611683849",
    "sourceurl": "http://www.abc.net.au/news/2013-07-15/obama-calls-for-calm-after-trayvon-martin-verdict/4819576",
    "feature_id": "277593",
    "feature_name": "San Francisco",
    "state_alpha": "CA",
    "county_name": "San Francisco",
    "county_numeric": "075",
    "prim_lat_dec": "37.775",
    "prim_long_dec": "-122.4194444",
    "elev_in_m": "16",
    "elev_in_ft": "52",
    "lat": 37.775,
    "long": -122.4194444
  },
  {
    "globaleventid": 259464961,
    "sqldate": 20130714,
    "monthyear": 201307,
    "year": 2013,
    "fractiondate": "2013.5315",
    "eventcode": 141,
    "quadclass": 3,
    "nummentions": 2,
    "numsources": 1,
    "numarticles": 2,
    "avgtone": "1.07142857142857",
    "sourceurl": "http://www.pbs.org/newshour/rundown/2013/07/zimmerman-verdict-sparks-countrywide-protests.html",
    "feature_id": "530554",
    "feature_name": "Columbia Heights",
    "state_alpha": "DC",
    "county_name": "District of Columbia",
    "county_numeric": "001",
    "prim_lat_dec": "38.9256669",
    "prim_long_dec": "-77.0294212",
    "elev_in_m": "55",
    "elev_in_ft": "180",
    "lat": 38.9256669,
    "long": -77.0294212
  },
  {
    "globaleventid": 259464960,
    "sqldate": 20130714,
    "monthyear": 201307,
    "year": 2013,
    "fractiondate": "2013.5315",
    "eventcode": 141,
    "quadclass": 3,
    "nummentions": 6,
    "numsources": 1,
    "numarticles": 6,
    "avgtone": "1.07142857142857",
    "sourceurl": "http://www.pbs.org/newshour/rundown/2013/07/zimmerman-verdict-sparks-countrywide-protests.html",
    "feature_id": "530554",
    "feature_name": "Columbia Heights",
    "state_alpha": "DC",
    "county_name": "District of Columbia",
    "county_numeric": "001",
    "prim_lat_dec": "38.9256669",
    "prim_long_dec": "-77.0294212",
    "elev_in_m": "55",
    "elev_in_ft": "180",
    "lat": 38.9256669,
    "long": -77.0294212
  },
  {
    "globaleventid": 259464959,
    "sqldate": 20130714,
    "monthyear": 201307,
    "year": 2013,
    "fractiondate": "2013.5315",
    "eventcode": 141,
    "quadclass": 3,
    "nummentions": 8,
    "numsources": 1,
    "numarticles": 8,
    "avgtone": "1.07142857142857",
    "sourceurl": "http://www.pbs.org/newshour/rundown/2013/07/zimmerman-verdict-sparks-countrywide-protests.html",
    "feature_id": "277566",
    "feature_name": "Oakland",
    "state_alpha": "CA",
    "county_name": "Alameda",
    "county_numeric": "001",
    "prim_lat_dec": "37.8043722",
    "prim_long_dec": "-122.2708026",
    "elev_in_m": "13",
    "elev_in_ft": "43",
    "lat": 37.8043722,
    "long": -122.2708026
  },