[
  {
    "globaleventid": 257603518,
    "sqldate": 20130627,
    "monthyear": 201306,
    "year": 2013,
    "fractiondate": "2013.4849",
    "eventcode": 190,
    "quadclass": 4,
    "nummentions": 1,
    "numsources": 1,
    "numarticles": 1,
    "avgtone": "1.44927536231884",
    "sourceurl": "http://www.newstimes.com/news/article/Ex-Ga-radio-personality-found-dead-4629741.php",
    "feature_id": "331443",
    "feature_name": "Columbus",
    "state_alpha": "GA",
    "county_name": "Muscogee",
    "county_numeric": "215",
    "prim_lat_dec": "32.4609764",
    "prim_long_dec": "-84.9877094",
    "elev_in_m": "74",
    "elev_in_ft": "243",
    "lat": 32.4609764,
    "long": -84.9877094
  },
  {
    "globaleventid": 257603489,
    "sqldate": 20130627,
    "monthyear": 201306,
    "year": 2013,
    "fractiondate": "2013.4849",
    "eventcode": 173,
    "quadclass": 4,
    "nummentions": 4,
    "numsources": 1,
    "numarticles": 4,
    "avgtone": "0.549450549450549",
    "sourceurl": "http://www.bbc.co.uk/news/uk-england-leeds-23087444",
    "feature_id": "617565",
    "feature_name": "Boston",
    "state_alpha": "MA",
    "county_name": "Suffolk",
    "county_numeric": "025",
    "prim_lat_dec": "42.3584308",
    "prim_long_dec": "-71.0597732",
    "elev_in_m": "14",
    "elev_in_ft": "46",
    "lat": 42.3584308,
    "long": -71.0597732
  },
  {
    "globaleventid": 257603109,
    "sqldate": 20130627,
    "monthyear": 201306,
    "year": 2013,
    "fractiondate": "2013.4849",
    "eventcode": 190,
    "quadclass": 4,
    "nummentions": 2,
    "numsources": 1,
    "numarticles": 2,
    "avgtone": "0.943396226415094",
    "sourceurl": "http://www.inquisitr.com/818450/aaron-hernandez-fugitive-carlos-ortiz-also-arrested-in-odin-lloyd-murder-case/",
    "feature_id": "617565",
    "feature_name": "Boston",
    "state_alpha": "MA",
    "county_name": "Suffolk",
    "county_numeric": "025",
    "prim_lat_dec": "42.3584308",
    "prim_long_dec": "-71.0597732",
    "elev_in_m": "14",
    "elev_in_ft": "46",
    "lat": 42.3584308,
    "long": -71.0597732
  },
  {
    "globaleventid": 257603108,
    "sqldate": 20130627,
    "monthyear": 201306,
    "year": 2013,
    "fractiondate": "2013.4849",
    "eventcode": 174,
    "quadclass": 4,
    "nummentions": 1,
    "numsources": 1,
    "numarticles": 1,
    "avgtone": "2.80210157618214",
    "sourceurl": "http://7thspace.com/headlines/440200/former_ceo_of_london_based_company_sentenced_to_41_months_in_prison_in__21_million_fraud_scheme_.html",
    "feature_id": "531871",
    "feature_name": "Washington",
    "state_alpha": "DC",
    "county_name": "District of Columbia",
    "county_numeric": "001",
    "prim_lat_dec": "38.8951118",
    "prim_long_dec": "-77.0363658",
    "elev_in_m": "7",
    "elev_in_ft": "23",
    "lat": 38.8951118,
    "long": -77.0363658
  },
  {
    "globaleventid": 257602163,
    "sqldate": 20130627,
    "monthyear": 201306,
    "year": 2013,
    "fractiondate": "2013.4849",
    "eventcode": 173,
    "quadclass": 4,
    "nummentions": 6,
    "numsources": 1,
    "numarticles": 6,
    "avgtone": "0.0",
    "sourceurl": "http://www.wtnh.com/dpp/news/crime/new-london-man-arrested-for-burglary",
    "feature_id": "209237",
    "feature_name": "New London",
    "state_alpha": "CT",
    "county_name": "New London",
    "county_numeric": "011",
    "prim_lat_dec": "41.3556539",
    "prim_long_dec": "-72.0995209",
    "elev_in_m": "17",
    "elev_in_ft": "56",
    "lat": 41.3556539,
    "long": -72.0995209
  },
  {
    "globaleventid": 257601231,
    "sqldate": 20130627,
    "monthyear": 201306,
    "year": 2013,
    "fractiondate": "2013.4849",
    "eventcode": 194,
    "quadclass": 4,
    "nummentions": 2,
    "numsources": 1,
    "numarticles": 2,
    "avgtone": "4.0920716112532",
    "sourceurl": "http://merrimack.patch.com/groups/summer/p/state-fire-marshal-offers-fireworks-safety-tips",
    "feature_id": "868713",
    "feature_name": "New London",
    "state_alpha": "NH",
    "county_name": "Merrimack",
    "county_numeric": "013",
    "prim_lat_dec": "43.4139637",
    "prim_long_dec": "-71.9850838",
    "elev_in_m": "392",
    "elev_in_ft": "1286",
    "lat": 43.4139637,
    "long": -71.9850838
  },
  {
    "globaleventid": 257601226,
    "sqldate": 20130627,
    "monthyear": 201306,
    "year": 2013,
    "fractiondate": "2013.4849",
    "eventcode": 173,
    "quadclass": 4,
    "nummentions": 4,
    "numsources": 1,
    "numarticles": 4,
    "avgtone": "1.7156862745098",
    "sourceurl": "http://www.blabbermouth.net/news.aspx?mode=Article&newsitemID=191811",
    "feature_id": "1662328",
    "feature_name": "Los Angeles",
    "state_alpha": "CA",
    "county_name": "Los Angeles",
    "county_numeric": "037",
    "prim_lat_dec": "34.0522342",
    "prim_long_dec": "-118.2436849",
    "elev_in_m": "89",
    "elev_in_ft": "292",
    "lat": 34.0522342,
    "long": -118.2436849
  },
  {
    "globaleventid": 257601219,
    "sqldate": 20130627,
    "monthyear": 201306,
    "year": 2013,
    "fractiondate": "2013.4849",
    "eventcode": 112,
    "quadclass": 3,
    "nummentions": 4,
    "numsources": 1,
    "numarticles": 4,
    "avgtone": "2.47933884297521",
    "sourceurl": "http://www.france24.com/en/20130627-us-army-reviews-rules-engagement-over-cyber-threat",
    "feature_id": "531871",
    "feature_name": "Washington",
    "state_alpha": "DC",
    "county_name": "District of Columbia",
    "county_numeric": "001",
    "prim_lat_dec": "38.8951118",
    "prim_long_dec": "-77.0363658",
    "elev_in_m": "7",
    "elev_in_ft": "23",
    "lat": 38.8951118,
    "long": -77.0363658
  },
  {
    "globaleventid": 257600895,
    "sqldate": 20130627,
    "monthyear": 201306,
    "year": 2013,
    "fractiondate": "2013.4849",
    "eventcode": 112,
    "quadclass": 3,
    "nummentions": 10,
    "numsources": 1,
    "numarticles": 10,
    "avgtone": "1.43884892086331",
    "sourceurl": "http://in.omg.yahoo.com/news/facebook-bullies-destroyed-paris-jackson-091627510.html",
    "feature_id": "1662328",
    "feature_name": "Los Angeles",
    "state_alpha": "CA",
    "county_name": "Los Angeles",
    "county_numeric": "037",
    "prim_lat_dec": "34.0522342",
    "prim_long_dec": "-118.2436849",
    "elev_in_m": "89",
    "elev_in_ft": "292",
    "lat": 34.0522342,
    "long": -118.2436849
  },
  {
    "globaleventid": 257600823,
    "sqldate": 20130627,
    "monthyear": 201306,
    "year": 2013,
    "fractiondate": "2013.4849",
    "eventcode": 172,
    "quadclass": 4,
    "nummentions": 10,
    "numsources": 1,
    "numarticles": 10,
    "avgtone": "0.961538461538462",
    "sourceurl": "http://www.boston.com/news/world/europe/2013/06/26/ubs-france-fined-over-control-failures/yDQ4RZ6dCXB2R0ufa8UEEJ/story.html",
    "feature_id": "617565",
    "feature_name": "Boston",
    "state_alpha": "MA",
    "county_name": "Suffolk",
    "county_numeric": "025",
    "prim_lat_dec": "42.3584308",
    "prim_long_dec": "-71.0597732",
    "elev_in_m": "14",
    "elev_in_ft": "46",
    "lat": 42.3584308,
    "long": -71.0597732
  },
  {
    "globaleventid": 257599625,
    "sqldate": 20130627,
    "monthyear": 201306,
    "year": 2013,
    "fractiondate": "2013.4849",
    "eventcode": 193,
    "quadclass": 4,
    "nummentions": 8,
    "numsources": 1,
    "numarticles": 8,
    "avgtone": "0.584795321637427",
    "sourceurl": "http://www.13abc.com/story/22702281/autopsy-underway-on-2-ohio-boys-fatally-shot",
    "feature_id": "1080996",
    "feature_name": "Columbus",
    "state_alpha": "OH",
    "county_name": "Franklin",
    "county_numeric": "049",
    "prim_lat_dec": "39.9611755",
    "prim_long_dec": "-82.9987942",
    "elev_in_m": "238",
    "elev_in_ft": "781",
    "lat": 39.9611755,
    "long": -82.9987942
  },
  {
    "globaleventid": 257599621,
    "sqldate": 20130627,
    "monthyear": 201306,
    "year": 2013,
    "fractiondate": "2013.4849",
    "eventcode": 173,
    "quadclass": 4,
    "nummentions": 2,
    "numsources": 1,
    "numarticles": 2,
    "avgtone": "2.49480249480249",
    "sourceurl": "http://www.southbendtribune.com/news/crime/article_54a00bde-df5d-11e2-835d-0019bb30f31a.html",
    "feature_id": "452796",
    "feature_name": "South Bend",
    "state_alpha": "IN",
    "county_name": "St. Joseph",
    "county_numeric": "141",
    "prim_lat_dec": "41.6833813",
    "prim_long_dec": "-86.2500066",
    "elev_in_m": "211",
    "elev_in_ft": "692",
    "lat": 41.6833813,
    "long": -86.2500066
  },
  {
    "globaleventid": 257599261,
    "sqldate": 20130627,
    "monthyear": 201306,
    "year": 2013,
    "fractiondate": "2013.4849",
    "eventcode": 100,
    "quadclass": 3,
    "nummentions": 2,
    "numsources": 1,
    "numarticles": 2,
    "avgtone": "2.14285714285714",
    "sourceurl": "http://www.nbcnews.com/id/52336344&c=aPkbKMfhOEsALeQ7Pw_oHG-tlrBfQVW8-rQthXbPy6c&mkt=en-us",
    "feature_id": "619512",
    "feature_name": "Beacon Hill",
    "state_alpha": "MA",
    "county_name": "Suffolk",
    "county_numeric": "025",
    "prim_lat_dec": "42.3587085",
    "prim_long_dec": "-71.067829",
    "elev_in_m": "28",
    "elev_in_ft": "92",
    "lat": 42.3587085,
    "long": -71.067829
  },
  {
    "globaleventid": 257599260,
    "sqldate": 20130627,
    "monthyear": 201306,
    "year": 2013,
    "fractiondate": "2013.4849",
    "eventcode": 100,
    "quadclass": 3,
    "nummentions": 6,
    "numsources": 1,
    "numarticles": 6,
    "avgtone": "2.14285714285714",
    "sourceurl": "http://www.nbcnews.com/id/52336344&c=aPkbKMfhOEsALeQ7Pw_oHG-tlrBfQVW8-rQthXbPy6c&mkt=en-us",
    "feature_id": "619512",
    "feature_name": "Beacon Hill",
    "state_alpha": "MA",
    "county_name": "Suffolk",
    "county_numeric": "025",
    "prim_lat_dec": "42.3587085",
    "prim_long_dec": "-71.067829",
    "elev_in_m": "28",
    "elev_in_ft": "92",
    "lat": 42.3587085,
    "long": -71.067829
  },
  {
    "globaleventid": 257599258,
    "sqldate": 20130627,
    "monthyear": 201306,
    "year": 2013,
    "fractiondate": "2013.4849",
    "eventcode": 100,
    "quadclass": 3,
    "nummentions": 2,
    "numsources": 1,
    "numarticles": 2,
    "avgtone": "2.18978102189781",
    "sourceurl": "http://www.businessweek.com/ap/2013-06-27/environmentalists-urge-mass-dot-ban-on-fracking",
    "feature_id": "617565",
    "feature_name": "Boston",
    "state_alpha": "MA",
    "county_name": "Suffolk",
    "county_numeric": "025",
    "prim_lat_dec": "42.3584308",
    "prim_long_dec": "-71.0597732",
    "elev_in_m": "14",
    "elev_in_ft": "46",
    "lat": 42.3584308,
    "long": -71.0597732
  },
  {
    "globaleventid": 257599253,
    "sqldate": 20130627,
    "monthyear": 201306,
    "year": 2013,
    "fractiondate": "2013.4849",
    "eventcode": 172,
    "quadclass": 4,
    "nummentions": 4,
    "numsources": 2,
    "numarticles": 4,
    "avgtone": "2.13525835866262",
    "sourceurl": "http://www.nbcnews.com/id/52336344&c=aPkbKMfhOEsALeQ7Pw_oHG-tlrBfQVW8-rQthXbPy6c&mkt=en-us",
    "feature_id": "619512",
    "feature_name": "Beacon Hill",
    "state_alpha": "MA",
    "county_name": "Suffolk",
    "county_numeric": "025",
    "prim_lat_dec": "42.3587085",
    "prim_long_dec": "-71.067829",
    "elev_in_m": "28",
    "elev_in_ft": "92",
    "lat": 42.3587085,
    "long": -71.067829
  },
  {
    "globaleventid": 257599249,
    "sqldate": 20130627,
    "monthyear": 201306,
    "year": 2013,
    "fractiondate": "2013.4849",
    "eventcode": 172,
    "quadclass": 4,
    "nummentions": 2,
    "numsources": 1,
    "numarticles": 2,
    "avgtone": "1.8018018018018",
    "sourceurl": "http://www.berkshireeagle.com/ci_23547829/environmentalists-urge-mass-ban-fracking",
    "feature_id": "607312",
    "feature_name": "Berkshire",
    "state_alpha": "MA",
    "county_name": "Berkshire",
    "county_numeric": "003",
    "prim_lat_dec": "42.512584",
    "prim_long_dec": "-73.1928809",
    "elev_in_m": "308",
    "elev_in_ft": "1010",
    "lat": 42.512584,
    "long": -73.1928809
  },
  {
    "globaleventid": 257599236,
    "sqldate": 20130627,
    "monthyear": 201306,
    "year": 2013,
    "fractiondate": "2013.4849",
    "eventcode": 100,
    "quadclass": 3,
    "nummentions": 2,
    "numsources": 1,
    "numarticles": 2,
    "avgtone": "2.14285714285714",
    "sourceurl": "http://www.nbcnews.com/id/52336344&c=aPkbKMfhOEsALeQ7Pw_oHG-tlrBfQVW8-rQthXbPy6c&mkt=en-us",
    "feature_id": "619512",
    "feature_name": "Beacon Hill",
    "state_alpha": "MA",
    "county_name": "Suffolk",
    "county_numeric": "025",
    "prim_lat_dec": "42.3587085",
    "prim_long_dec": "-71.067829",
    "elev_in_m": "28",
    "elev_in_ft": "92",
    "lat": 42.3587085,
    "long": -71.067829
  },
  {
    "globaleventid": 257599235,
    "sqldate": 20130627,
    "monthyear": 201306,
    "year": 2013,
    "fractiondate": "2013.4849",
    "eventcode": 100,
    "quadclass": 3,
    "nummentions": 12,
    "numsources": 6,
    "numarticles": 12,
    "avgtone": "2.13432495150243",
    "sourceurl": "http://www.wwlp.com/dpp/news/massachusetts/environmentalists-urge-mass-ban-on-fracking",
    "feature_id": "619512",
    "feature_name": "Beacon Hill",
    "state_alpha": "MA",
    "county_name": "Suffolk",
    "county_numeric": "025",
    "prim_lat_dec": "42.3587085",
    "prim_long_dec": "-71.067829",
    "elev_in_m": "28",
    "elev_in_ft": "92",
    "lat": 42.3587085,
    "long": -71.067829
  },
  {
    "globaleventid": 257599203,
    "sqldate": 20130627,
    "monthyear": 201306,
    "year": 2013,
    "fractiondate": "2013.4849",
    "eventcode": 190,
    "quadclass": 4,
    "nummentions": 3,
    "numsources": 1,
    "numarticles": 3,
    "avgtone": "1.99556541019956",
    "sourceurl": "http://polhudson.lohudblogs.com/2013/06/27/gibson-leading-effort-to-restrict-funding-for-syrian-rebels/",
    "feature_id": "531871",
    "feature_name": "Washington",
    "state_alpha": "DC",
    "county_name": "District of Columbia",
    "county_numeric": "001",
    "prim_lat_dec": "38.8951118",
    "prim_long_dec": "-77.0363658",
    "elev_in_m": "7",
    "elev_in_ft": "23",
    "lat": 38.8951118,
    "long": -77.0363658
  },
  {
    "globaleventid": 257599187,
    "sqldate": 20130627,
    "monthyear": 201306,
    "year": 2013,
    "fractiondate": "2013.4849",
    "eventcode": 186,
    "quadclass": 4,
    "nummentions": 1,
    "numsources": 1,
    "numarticles": 1,
    "avgtone": "2.39583333333333",
    "sourceurl": "http://www.laramieboomerang.com/articles/2013/06/27/ap/us/us_texas_500th_execution.txt",
    "feature_id": "1380944",
    "feature_name": "Dallas",
    "state_alpha": "TX",
    "county_name": "Dallas",
    "county_numeric": "113",
    "prim_lat_dec": "32.7830556",
    "prim_long_dec": "-96.8066667",
    "elev_in_m": "128",
    "elev_in_ft": "420",
    "lat": 32.7830556,
    "long": -96.8066667
  },
  {
    "globaleventid": 257599184,
    "sqldate": 20130627,
    "monthyear": 201306,
    "year": 2013,
    "fractiondate": "2013.4849",
    "eventcode": 186,
    "quadclass": 4,
    "nummentions": 10,
    "numsources": 8,
    "numarticles": 10,
    "avgtone": "2.25480163832978",
    "sourceurl": "http://the-japan-news.com/news/article/0000340501",
    "feature_id": "1380944",
    "feature_name": "Dallas",
    "state_alpha": "TX",
    "county_name": "Dallas",
    "county_numeric": "113",
    "prim_lat_dec": "32.7830556",
    "prim_long_dec": "-96.8066667",
    "elev_in_m": "128",
    "elev_in_ft": "420",
    "lat": 32.7830556,
    "long": -96.8066667
  },
  {
    "globaleventid": 257599154,
    "sqldate": 20130627,
    "monthyear": 201306,
    "year": 2013,
    "fractiondate": "2013.4849",
    "eventcode": 173,
    "quadclass": 4,
    "nummentions": 4,
    "numsources": 1,
    "numarticles": 4,
    "avgtone": "4.28015564202335",
    "sourceurl": "http://www.kimt.com/2013/06/27/actor-james-gandolfinis-funeral-on-thursday/",
    "feature_id": "423587",
    "feature_name": "Chicago",
    "state_alpha": "IL",
    "county_name": "Cook",
    "county_numeric": "031",
    "prim_lat_dec": "41.850033",
    "prim_long_dec": "-87.6500523",
    "elev_in_m": "179",
    "elev_in_ft": "587",
    "lat": 41.850033,
    "long": -87.6500523
  },
  {
    "globaleventid": 257599070,
    "sqldate": 20130627,
    "monthyear": 201306,
    "year": 2013,
    "fractiondate": "2013.4849",
    "eventcode": 112,
    "quadclass": 3,
    "nummentions": 1,
    "numsources": 1,
    "numarticles": 1,
    "avgtone": "3.40909090909091",
    "sourceurl": "http://www.utsandiego.com/news/2013/jun/27/tp-abducted-slain-florida-girls-father-lives-in/",
    "feature_id": "1661377",
    "feature_name": "San Diego",
    "state_alpha": "CA",
    "county_name": "San Diego",
    "county_numeric": "073",
    "prim_lat_dec": "32.7153292",
    "prim_long_dec": "-117.1572551",
    "elev_in_m": "19",
    "elev_in_ft": "62",
    "lat": 32.7153292,
    "long": -117.1572551
  },
  {
    "globaleventid": 257599036,
    "sqldate": 20130627,
    "monthyear": 201306,
    "year": 2013,
    "fractiondate": "2013.4849",
    "eventcode": 110,
    "quadclass": 3,
    "nummentions": 3,
    "numsources": 1,
    "numarticles": 3,
    "avgtone": "5.23076923076923",
    "sourceurl": "http://www.natlawreview.com/article/new-york-law-requires-chaperones-and-certificates-catwalk-new-era-modeling",
    "feature_id": "952133",
    "feature_name": "Hampton",
    "state_alpha": "NY",
    "county_name": "Washington",
    "county_numeric": "115",
    "prim_lat_dec": "43.5247907",
    "prim_long_dec": "-73.2517758",
    "elev_in_m": "130",
    "elev_in_ft": "427",
    "lat": 43.5247907,
    "long": -73.2517758
  },
  {
    "globaleventid": 257599022,
    "sqldate": 20130627,
    "monthyear": 201306,
    "year": 2013,
    "fractiondate": "2013.4849",
    "eventcode": 112,
    "quadclass": 3,
    "nummentions": 5,
    "numsources": 1,
    "numarticles": 5,
    "avgtone": "5.91259640102828",
    "sourceurl": "http://www.hispanicbusiness.com/2013/6/27/the_heat_review_action_comedy_buddy.htm",
    "feature_id": "617565",
    "feature_name": "Boston",
    "state_alpha": "MA",
    "county_name": "Suffolk",
    "county_numeric": "025",
    "prim_lat_dec": "42.3584308",
    "prim_long_dec": "-71.0597732",
    "elev_in_m": "14",
    "elev_in_ft": "46",
    "lat": 42.3584308,
    "long": -71.0597732
  },
  {
    "globaleventid": 257598946,
    "sqldate": 20130627,
    "monthyear": 201306,
    "year": 2013,
    "fractiondate": "2013.4849",
    "eventcode": 172,
    "quadclass": 4,
    "nummentions": 6,
    "numsources": 1,
    "numarticles": 6,
    "avgtone": "2.6369168356998",
    "sourceurl": "http://www.investigativeproject.org/4055/exclusive-banned-cleric-outspoken-deputy-visits",
    "feature_id": "531871",
    "feature_name": "Washington",
    "state_alpha": "DC",
    "county_name": "District of Columbia",
    "county_numeric": "001",
    "prim_lat_dec": "38.8951118",
    "prim_long_dec": "-77.0363658",
    "elev_in_m": "7",
    "elev_in_ft": "23",
    "lat": 38.8951118,
    "long": -77.0363658
  },
  {
    "globaleventid": 257598770,
    "sqldate": 20130627,
    "monthyear": 201306,
    "year": 2013,
    "fractiondate": "2013.4849",
    "eventcode": 172,
    "quadclass": 4,
    "nummentions": 2,
    "numsources": 1,
    "numarticles": 2,
    "avgtone": "2.6369168356998",
    "sourceurl": "http://www.investigativeproject.org/4055/exclusive-banned-cleric-outspoken-deputy-visits",
    "feature_id": "531871",
    "feature_name": "Washington",
    "state_alpha": "DC",
    "county_name": "District of Columbia",
    "county_numeric": "001",
    "prim_lat_dec": "38.8951118",
    "prim_long_dec": "-77.0363658",
    "elev_in_m": "7",
    "elev_in_ft": "23",
    "lat": 38.8951118,
    "long": -77.0363658
  },
  {
    "globaleventid": 257598766,
    "sqldate": 20130627,
    "monthyear": 201306,
    "year": 2013,
    "fractiondate": "2013.4849",
    "eventcode": 111,
    "quadclass": 3,
    "nummentions": 2,
    "numsources": 1,
    "numarticles": 2,
    "avgtone": "3.58467243510507",
    "sourceurl": "http://www.miamiherald.com/2013/06/27/3474214/watch-for-protests-against-morsi.html",
    "feature_id": "531871",
    "feature_name": "Washington",
    "state_alpha": "DC",
    "county_name": "District of Columbia",
    "county_numeric": "001",
    "prim_lat_dec": "38.8951118",
    "prim_long_dec": "-77.0363658",
    "elev_in_m": "7",
    "elev_in_ft": "23",
    "lat": 38.8951118,
    "long": -77.0363658
  },
  {
    "globaleventid": 257598228,
    "sqldate": 20130627,
    "monthyear": 201306,
    "year": 2013,
    "fractiondate": "2013.4849",
    "eventcode": 1822,
    "quadclass": 4,
    "nummentions": 1,
    "numsources": 1,
    "numarticles": 1,
    "avgtone": "2.62257696693273",
    "sourceurl": "http://www.latimes.com/news/opinion/commentary/la-oe-rohac-egypt-morsi-20130628,0,4359920.story",
    "feature_id": "531871",
    "feature_name": "Washington",
    "state_alpha": "DC",
    "county_name": "District of Columbia",
    "county_numeric": "001",
    "prim_lat_dec": "38.8951118",
    "prim_long_dec": "-77.0363658",
    "elev_in_m": "7",
    "elev_in_ft": "23",
    "lat": 38.8951118,
    "long": -77.0363658
  },
  {
    "globaleventid": 257597837,
    "sqldate": 20130627,
    "monthyear": 201306,
    "year": 2013,
    "fractiondate": "2013.4849",
    "eventcode": 112,
    "quadclass": 3,
    "nummentions": 4,
    "numsources": 1,
    "numarticles": 4,
    "avgtone": "1.43884892086331",
    "sourceurl": "http://www.foxnews.com/us/2013/06/27/virginia-kindergarten-teacher-admits-murder-for-hire-plot-targeting-ex-husband/?utm_source=feedburner&utm_medium=feed&utm_campaign=Feed%3A+foxnews%2Fnational+%28Internal+-+US+Latest+-+Text%29",
    "feature_id": "1499983",
    "feature_name": "Rocky Mount",
    "state_alpha": "VA",
    "county_name": "Franklin",
    "county_numeric": "067",
    "prim_lat_dec": "36.9976403",
    "prim_long_dec": "-79.8919774",
    "elev_in_m": "345",
    "elev_in_ft": "1132",
    "lat": 36.9976403,
    "long": -79.8919774
  },
  {
    "globaleventid": 257597803,
    "sqldate": 20130627,
    "monthyear": 201306,
    "year": 2013,
    "fractiondate": "2013.4849",
    "eventcode": 190,
    "quadclass": 4,
    "nummentions": 2,
    "numsources": 1,
    "numarticles": 1,
    "avgtone": "1.01214574898785",
    "sourceurl": "http://www.metrowestdailynews.com/news/police_and_fire/x946746225/Judge-targets-2014-for-Marriott-murder-trial",
    "feature_id": "611409",
    "feature_name": "Westborough",
    "state_alpha": "MA",
    "county_name": "Worcester",
    "county_numeric": "027",
    "prim_lat_dec": "42.2695387",
    "prim_long_dec": "-71.6161777",
    "elev_in_m": "93",
    "elev_in_ft": "305",
    "lat": 42.2695387,
    "long": -71.6161777
  },
  {
    "globaleventid": 257597802,
    "sqldate": 20130627,
    "monthyear": 201306,
    "year": 2013,
    "fractiondate": "2013.4849",
    "eventcode": 190,
    "quadclass": 4,
    "nummentions": 4,
    "numsources": 1,
    "numarticles": 2,
    "avgtone": "1.01214574898785",
    "sourceurl": "http://www.metrowestdailynews.com/news/police_and_fire/x946746225/Judge-targets-2014-for-Marriott-murder-trial",
    "feature_id": "611409",
    "feature_name": "Westborough",
    "state_alpha": "MA",
    "county_name": "Worcester",
    "county_numeric": "027",
    "prim_lat_dec": "42.2695387",
    "prim_long_dec": "-71.6161777",
    "elev_in_m": "93",
    "elev_in_ft": "305",
    "lat": 42.2695387,
    "long": -71.6161777
  },
  {
    "globaleventid": 257597785,
    "sqldate": 20130627,
    "monthyear": 201306,
    "year": 2013,
    "fractiondate": "2013.4849",
    "eventcode": 112,
    "quadclass": 3,
    "nummentions": 2,
    "numsources": 1,
    "numarticles": 2,
    "avgtone": "1.01214574898785",
    "sourceurl": "http://www.metrowestdailynews.com/news/police_and_fire/x946746225/Judge-targets-2014-for-Marriott-murder-trial",
    "feature_id": "611409",
    "feature_name": "Westborough",
    "state_alpha": "MA",
    "county_name": "Worcester",
    "county_numeric": "027",
    "prim_lat_dec": "42.2695387",
    "prim_long_dec": "-71.6161777",
    "elev_in_m": "93",
    "elev_in_ft": "305",
    "lat": 42.2695387,
    "long": -71.6161777
  },
  {
    "globaleventid": 257597784,
    "sqldate": 20130627,
    "monthyear": 201306,
    "year": 2013,
    "fractiondate": "2013.4849",
    "eventcode": 112,
    "quadclass": 3,
    "nummentions": 3,
    "numsources": 1,
    "numarticles": 3,
    "avgtone": "1.01214574898785",
    "sourceurl": "http://www.metrowestdailynews.com/news/police_and_fire/x946746225/Judge-targets-2014-for-Marriott-murder-trial",
    "feature_id": "611409",
    "feature_name": "Westborough",
    "state_alpha": "MA",
    "county_name": "Worcester",
    "county_numeric": "027",
    "prim_lat_dec": "42.2695387",
    "prim_long_dec": "-71.6161777",
    "elev_in_m": "93",
    "elev_in_ft": "305",
    "lat": 42.2695387,
    "long": -71.6161777
  },
  {
    "globaleventid": 257597772,
    "sqldate": 20130627,
    "monthyear": 201306,
    "year": 2013,
    "fractiondate": "2013.4849",
    "eventcode": 138,
    "quadclass": 3,
    "nummentions": 10,
    "numsources": 1,
    "numarticles": 10,
    "avgtone": "2.04081632653061",
    "sourceurl": "http://www.miamiherald.com/2013/06/27/3472789/cabin-in-the-woods-finds-its-way.html",
    "feature_id": "288240",
    "feature_name": "Orlando",
    "state_alpha": "FL",
    "county_name": "Orange",
    "county_numeric": "095",
    "prim_lat_dec": "28.5383355",
    "prim_long_dec": "-81.3792365",
    "elev_in_m": "31",
    "elev_in_ft": "102",
    "lat": 28.5383355,
    "long": -81.3792365
  },
  {
    "globaleventid": 257597771,
    "sqldate": 20130627,
    "monthyear": 201306,
    "year": 2013,
    "fractiondate": "2013.4849",
    "eventcode": 120,
    "quadclass": 3,
    "nummentions": 2,
    "numsources": 1,
    "numarticles": 2,
    "avgtone": "4.418762746431",
    "sourceurl": "http://www.masslive.com/politics/index.ssf/2013/06/western_massachusetts_lgbt_res.html",
    "feature_id": "267609",
    "feature_name": "Springfield",
    "state_alpha": "CA",
    "county_name": "Tuolumne",
    "county_numeric": "109",
    "prim_lat_dec": "38.0207567",
    "prim_long_dec": "-120.4124173",
    "elev_in_m": "626",
    "elev_in_ft": "2054",
    "lat": 38.0207567,
    "long": -120.4124173
  },
  {
    "globaleventid": 257597681,
    "sqldate": 20130627,
    "monthyear": 201306,
    "year": 2013,
    "fractiondate": "2013.4849",
    "eventcode": 115,
    "quadclass": 3,
    "nummentions": 10,
    "numsources": 1,
    "numarticles": 10,
    "avgtone": "0.0",
    "sourceurl": "http://www.bizjournals.com/sanfrancisco/morning_call/2013/06/university-of-california-sues-bank-of.html",
    "feature_id": "277593",
    "feature_name": "San Francisco",
    "state_alpha": "CA",
    "county_name": "San Francisco",
    "county_numeric": "075",
    "prim_lat_dec": "37.775",
    "prim_long_dec": "-122.4194444",
    "elev_in_m": "16",
    "elev_in_ft": "52",
    "lat": 37.775,
    "long": -122.4194444
  },
  {
    "globaleventid": 257597657,
    "sqldate": 20130627,
    "monthyear": 201306,
    "year": 2013,
    "fractiondate": "2013.4849",
    "eventcode": 110,
    "quadclass": 3,
    "nummentions": 1,
    "numsources": 1,
    "numarticles": 1,
    "avgtone": "3.85674931129477",
    "sourceurl": "http://www.huffingtonpost.com/2013/06/27/heritage-foundation-head-start_n_3506475.html?utm_hp_ref=politics",
    "feature_id": "531871",
    "feature_name": "Washington",
    "state_alpha": "DC",
    "county_name": "District of Columbia",
    "county_numeric": "001",
    "prim_lat_dec": "38.8951118",
    "prim_long_dec": "-77.0363658",
    "elev_in_m": "7",
    "elev_in_ft": "23",
    "lat": 38.8951118,
    "long": -77.0363658
  },
  {
    "globaleventid": 257597614,
    "sqldate": 20130627,
    "monthyear": 201306,
    "year": 2013,
    "fractiondate": "2013.4849",
    "eventcode": 160,
    "quadclass": 4,
    "nummentions": 6,
    "numsources": 1,
    "numarticles": 6,
    "avgtone": "1.0958904109589",
    "sourceurl": "http://www.bizjournals.com/washington/breaking_ground/2013/06/howard-university-reportedly-cancels.html",
    "feature_id": "1512072",
    "feature_name": "Castle Rock",
    "state_alpha": "WA",
    "county_name": "Cowlitz",
    "county_numeric": "015",
    "prim_lat_dec": "46.2751111",
    "prim_long_dec": "-122.9076141",
    "elev_in_m": "17",
    "elev_in_ft": "56",
    "lat": 46.2751111,
    "long": -122.9076141
  },
  {
    "globaleventid": 257688924,
    "sqldate": 20130627,
    "monthyear": 201306,
    "year": 2013,
    "fractiondate": "2013.4849",
    "eventcode": 110,
    "quadclass": 3,
    "nummentions": 10,
    "numsources": 1,
    "numarticles": 10,
    "avgtone": "1.70731707317073",
    "sourceurl": "http://www.nypost.com/p/news/national/obama_calls_in_err_farce_kiIu5wJ79ohxu9bSV4rjBJ",
    "feature_id": "531871",
    "feature_name": "Washington",
    "state_alpha": "DC",
    "county_name": "District of Columbia",
    "county_numeric": "001",
    "prim_lat_dec": "38.8951118",
    "prim_long_dec": "-77.0363658",
    "elev_in_m": "7",
    "elev_in_ft": "23",
    "lat": 38.8951118,
    "long": -77.0363658
  },
  {
    "globaleventid": 257688548,
    "sqldate": 20130627,
    "monthyear": 201306,
    "year": 2013,
    "fractiondate": "2013.4849",
    "eventcode": 180,
    "quadclass": 4,
    "nummentions": 2,
    "numsources": 1,
    "numarticles": 2,
    "avgtone": "2.51396648044693",
    "sourceurl": "http://www.metnews.com/articles/2013/lint062813.htm",
    "feature_id": "253387",
    "feature_name": "Riverside",
    "state_alpha": "CA",
    "county_name": "Sacramento",
    "county_numeric": "067",
    "prim_lat_dec": "38.5190734",
    "prim_long_dec": "-121.5205112",
    "elev_in_m": "3",
    "elev_in_ft": "10",
    "lat": 38.5190734,
    "long": -121.5205112
  },
  {
    "globaleventid": 257688547,
    "sqldate": 20130627,
    "monthyear": 201306,
    "year": 2013,
    "fractiondate": "2013.4849",
    "eventcode": 180,
    "quadclass": 4,
    "nummentions": 8,
    "numsources": 1,
    "numarticles": 8,
    "avgtone": "2.51396648044693",
    "sourceurl": "http://www.metnews.com/articles/2013/lint062813.htm",
    "feature_id": "253387",
    "feature_name": "Riverside",
    "state_alpha": "CA",
    "county_name": "Sacramento",
    "county_numeric": "067",
    "prim_lat_dec": "38.5190734",
    "prim_long_dec": "-121.5205112",
    "elev_in_m": "3",
    "elev_in_ft": "10",
    "lat": 38.5190734,
    "long": -121.5205112
  },
  {
    "globaleventid": 257688164,
    "sqldate": 20130627,
    "monthyear": 201306,
    "year": 2013,
    "fractiondate": "2013.4849",
    "eventcode": 192,
    "quadclass": 4,
    "nummentions": 8,
    "numsources": 1,
    "numarticles": 8,
    "avgtone": "1.42045454545455",
    "sourceurl": "http://www.bloomberg.com/news/2013-06-28/nevada-regulator-says-macau-vip-rooms-make-compliance-harder.html",
    "feature_id": "1662328",
    "feature_name": "Los Angeles",
    "state_alpha": "CA",
    "county_name": "Los Angeles",
    "county_numeric": "037",
    "prim_lat_dec": "34.0522342",
    "prim_long_dec": "-118.2436849",
    "elev_in_m": "89",
    "elev_in_ft": "292",
    "lat": 34.0522342,
    "long": -118.2436849
  },
  {
    "globaleventid": 257684341,
    "sqldate": 20130627,
    "monthyear": 201306,
    "year": 2013,
    "fractiondate": "2013.4849",
    "eventcode": 120,
    "quadclass": 3,
    "nummentions": 6,
    "numsources": 1,
    "numarticles": 6,
    "avgtone": "1.17994100294985",
    "sourceurl": "http://www.menafn.com/1093674145/Azeri-group-rejects-Nabucco-line?src=RSS",
    "feature_id": "531871",
    "feature_name": "Washington",
    "state_alpha": "DC",
    "county_name": "District of Columbia",
    "county_numeric": "001",
    "prim_lat_dec": "38.8951118",
    "prim_long_dec": "-77.0363658",
    "elev_in_m": "7",
    "elev_in_ft": "23",
    "lat": 38.8951118,
    "long": -77.0363658
  },
  {
    "globaleventid": 257684291,
    "sqldate": 20130627,
    "monthyear": 201306,
    "year": 2013,
    "fractiondate": "2013.4849",
    "eventcode": 193,
    "quadclass": 4,
    "nummentions": 2,
    "numsources": 1,
    "numarticles": 2,
    "avgtone": "2.63157894736842",
    "sourceurl": "http://www.foxreno.com/news/ap/crime/news-from-around-wisconsin-at-558-pm-cdt/nYX89/",
    "feature_id": "1577901",
    "feature_name": "Milwaukee",
    "state_alpha": "WI",
    "county_name": "Milwaukee",
    "county_numeric": "079",
    "prim_lat_dec": "43.0389025",
    "prim_long_dec": "-87.9064736",
    "elev_in_m": "187",
    "elev_in_ft": "614",
    "lat": 43.0389025,
    "long": -87.9064736
  },
  {
    "globaleventid": 257684076,
    "sqldate": 20130627,
    "monthyear": 201306,
    "year": 2013,
    "fractiondate": "2013.4849",
    "eventcode": 115,
    "quadclass": 3,
    "nummentions": 6,
    "numsources": 1,
    "numarticles": 6,
    "avgtone": "1.76991150442478",
    "sourceurl": "http://nativetimes.com/news/federal/8870-court-ruling-assault-on-tribes-abourezk-says",
    "feature_id": "1261129",
    "feature_name": "Oglala",
    "state_alpha": "SD",
    "county_name": "Oglala Lakota",
    "county_numeric": "102",
    "prim_lat_dec": "43.1885942",
    "prim_long_dec": "-102.7396211",
    "elev_in_m": "915",
    "elev_in_ft": "3002",
    "lat": 43.1885942,
    "long": -102.7396211
  },
  {
    "globaleventid": 257683921,
    "sqldate": 20130627,
    "monthyear": 201306,
    "year": 2013,
    "fractiondate": "2013.4849",
    "eventcode": 190,
    "quadclass": 4,
    "nummentions": 2,
    "numsources": 1,
    "numarticles": 2,
    "avgtone": "2.48366013071895",
    "sourceurl": "http://www.news24.com/Columnists/Simon-Williamson/Ding-Dong-DOMA-is-dead-20130627",
    "feature_id": "748198",
    "feature_name": "Kansas City",
    "state_alpha": "MO",
    "county_name": "Jackson",
    "county_numeric": "095",
    "prim_lat_dec": "39.0997266",
    "prim_long_dec": "-94.5785667",
    "elev_in_m": "274",
    "elev_in_ft": "899",
    "lat": 39.0997266,
    "long": -94.5785667
  },
  {
    "globaleventid": 257683868,
    "sqldate": 20130627,
    "monthyear": 201306,
    "year": 2013,
    "fractiondate": "2013.4849",
    "eventcode": 100,
    "quadclass": 3,
    "nummentions": 3,
    "numsources": 3,
    "numarticles": 3,
    "avgtone": "2.64683437782204",
    "sourceurl": "http://news.yahoo.com/jeep-recall-deal-leaves-owners-older-grand-cherokees-215805633.html",
    "feature_id": "1354343",
    "feature_name": "Cherokee",
    "state_alpha": "TX",
    "county_name": "San Saba",
    "county_numeric": "411",
    "prim_lat_dec": "30.9823928",
    "prim_long_dec": "-98.7075397",
    "elev_in_m": "456",
    "elev_in_ft": "1496",
    "lat": 30.9823928,
    "long": -98.7075397
  },
  {
    "globaleventid": 257683867,
    "sqldate": 20130627,
    "monthyear": 201306,
    "year": 2013,
    "fractiondate": "2013.4849",
    "eventcode": 100,
    "quadclass": 3,
    "nummentions": 1,
    "numsources": 1,
    "numarticles": 1,
    "avgtone": "2.96296296296296",
    "sourceurl": "http://www.exponent-telegram.com/web_exclusive/business/jeep-owners-worry-about-safety-after-recall-deal/article_4ceba5c2-b910-5534-ba63-29898ffd7898.html",
    "feature_id": "1354343",
    "feature_name": "Cherokee",
    "state_alpha": "TX",
    "county_name": "San Saba",
    "county_numeric": "411",
    "prim_lat_dec": "30.9823928",
    "prim_long_dec": "-98.7075397",
    "elev_in_m": "456",
    "elev_in_ft": "1496",
    "lat": 30.9823928,
    "long": -98.7075397
  },
  {
    "globaleventid": 257683866,
    "sqldate": 20130627,
    "monthyear": 201306,
    "year": 2013,
    "fractiondate": "2013.4849",
    "eventcode": 100,
    "quadclass": 3,
    "nummentions": 12,
    "numsources": 5,
    "numarticles": 12,
    "avgtone": "2.73018414507314",
    "sourceurl": "http://news.yahoo.com/jeep-recall-deal-leaves-owners-older-grand-cherokees-215805633.html",
    "feature_id": "1354343",
    "feature_name": "Cherokee",
    "state_alpha": "TX",
    "county_name": "San Saba",
    "county_numeric": "411",
    "prim_lat_dec": "30.9823928",
    "prim_long_dec": "-98.7075397",
    "elev_in_m": "456",
    "elev_in_ft": "1496",
    "lat": 30.9823928,
    "long": -98.7075397
  },
  {
    "globaleventid": 257683865,
    "sqldate": 20130627,
    "monthyear": 201306,
    "year": 2013,
    "fractiondate": "2013.4849",
    "eventcode": 100,
    "quadclass": 3,
    "nummentions": 7,
    "numsources": 6,
    "numarticles": 7,
    "avgtone": "2.78478526914864",
    "sourceurl": "http://news.yahoo.com/jeep-recall-deal-leaves-owners-older-grand-cherokees-215805633.html",
    "feature_id": "1354343",
    "feature_name": "Cherokee",
    "state_alpha": "TX",
    "county_name": "San Saba",
    "county_numeric": "411",
    "prim_lat_dec": "30.9823928",
    "prim_long_dec": "-98.7075397",
    "elev_in_m": "456",
    "elev_in_ft": "1496",
    "lat": 30.9823928,
    "long": -98.7075397
  },
  {
    "globaleventid": 257683864,
    "sqldate": 20130627,
    "monthyear": 201306,
    "year": 2013,
    "fractiondate": "2013.4849",
    "eventcode": 100,
    "quadclass": 3,
    "nummentions": 7,
    "numsources": 6,
    "numarticles": 7,
    "avgtone": "2.78478526914864",
    "sourceurl": "http://news.yahoo.com/jeep-recall-deal-leaves-owners-older-grand-cherokees-215805633.html",
    "feature_id": "1354343",
    "feature_name": "Cherokee",
    "state_alpha": "TX",
    "county_name": "San Saba",
    "county_numeric": "411",
    "prim_lat_dec": "30.9823928",
    "prim_long_dec": "-98.7075397",
    "elev_in_m": "456",
    "elev_in_ft": "1496",
    "lat": 30.9823928,
    "long": -98.7075397
  },
  {
    "globaleventid": 257683767,
    "sqldate": 20130627,
    "monthyear": 201306,
    "year": 2013,
    "fractiondate": "2013.4849",
    "eventcode": 110,
    "quadclass": 3,
    "nummentions": 2,
    "numsources": 1,
    "numarticles": 2,
    "avgtone": "2.13333333333333",
    "sourceurl": "http://www.dispatch.com/content/stories/national_world/2013/06/27/obamas-africa-trip-underway.html",
    "feature_id": "531871",
    "feature_name": "Washington",
    "state_alpha": "DC",
    "county_name": "District of Columbia",
    "county_numeric": "001",
    "prim_lat_dec": "38.8951118",
    "prim_long_dec": "-77.0363658",
    "elev_in_m": "7",
    "elev_in_ft": "23",
    "lat": 38.8951118,
    "long": -77.0363658
  },
  {
    "globaleventid": 257683756,
    "sqldate": 20130627,
    "monthyear": 201306,
    "year": 2013,
    "fractiondate": "2013.4849",
    "eventcode": 110,
    "quadclass": 3,
    "nummentions": 2,
    "numsources": 1,
    "numarticles": 2,
    "avgtone": "2.13333333333333",
    "sourceurl": "http://www.dispatch.com/content/stories/national_world/2013/06/27/obamas-africa-trip-underway.html",
    "feature_id": "531871",
    "feature_name": "Washington",
    "state_alpha": "DC",
    "county_name": "District of Columbia",
    "county_numeric": "001",
    "prim_lat_dec": "38.8951118",
    "prim_long_dec": "-77.0363658",
    "elev_in_m": "7",
    "elev_in_ft": "23",
    "lat": 38.8951118,
    "long": -77.0363658
  },
  {
    "globaleventid": 257683208,
    "sqldate": 20130627,
    "monthyear": 201306,
    "year": 2013,
    "fractiondate": "2013.4849",
    "eventcode": 161,
    "quadclass": 4,
    "nummentions": 10,
    "numsources": 1,
    "numarticles": 10,
    "avgtone": "4.08163265306122",
    "sourceurl": "http://www.itv.com/news/update/2013-06-27/mandelas-condition-has-worsened-over-past-48-hours/",
    "feature_id": "1380654",
    "feature_name": "Thelma",
    "state_alpha": "TX",
    "county_name": "Bexar",
    "county_numeric": "029",
    "prim_lat_dec": "29.2141293",
    "prim_long_dec": "-98.5016829",
    "elev_in_m": "175",
    "elev_in_ft": "574",
    "lat": 29.2141293,
    "long": -98.5016829
  },
  {
    "globaleventid": 257682915,
    "sqldate": 20130627,
    "monthyear": 201306,
    "year": 2013,
    "fractiondate": "2013.4849",
    "eventcode": 190,
    "quadclass": 4,
    "nummentions": 8,
    "numsources": 1,
    "numarticles": 8,
    "avgtone": "1.49253731343284",
    "sourceurl": "http://www.ptinews.com/news/3754957_Texas-executes-500th-convict",
    "feature_id": "1380944",
    "feature_name": "Dallas",
    "state_alpha": "TX",
    "county_name": "Dallas",
    "county_numeric": "113",
    "prim_lat_dec": "32.7830556",
    "prim_long_dec": "-96.8066667",
    "elev_in_m": "128",
    "elev_in_ft": "420",
    "lat": 32.7830556,
    "long": -96.8066667
  },
  {
    "globaleventid": 257682914,
    "sqldate": 20130627,
    "monthyear": 201306,
    "year": 2013,
    "fractiondate": "2013.4849",
    "eventcode": 173,
    "quadclass": 4,
    "nummentions": 8,
    "numsources": 1,
    "numarticles": 8,
    "avgtone": "1.49253731343284",
    "sourceurl": "http://www.ptinews.com/news/3754957_Texas-executes-500th-convict",
    "feature_id": "1380944",
    "feature_name": "Dallas",
    "state_alpha": "TX",
    "county_name": "Dallas",
    "county_numeric": "113",
    "prim_lat_dec": "32.7830556",
    "prim_long_dec": "-96.8066667",
    "elev_in_m": "128",
    "elev_in_ft": "420",
    "lat": 32.7830556,
    "long": -96.8066667
  },
  {
    "globaleventid": 257682498,
    "sqldate": 20130627,
    "monthyear": 201306,
    "year": 2013,
    "fractiondate": "2013.4849",
    "eventcode": 190,
    "quadclass": 4,
    "nummentions": 4,
    "numsources": 1,
    "numarticles": 4,
    "avgtone": "0.0",
    "sourceurl": "http://whtc.com/news/articles/2013/jun/28/michigan-soldier-killed-in-vietnam-identified/",
    "feature_id": "639135",
    "feature_name": "Suttons Bay",
    "state_alpha": "MI",
    "county_name": "Leelanau",
    "county_numeric": "089",
    "prim_lat_dec": "44.9766663",
    "prim_long_dec": "-85.6506387",
    "elev_in_m": "182",
    "elev_in_ft": "597",
    "lat": 44.9766663,
    "long": -85.6506387
  },
  {
    "globaleventid": 257682221,
    "sqldate": 20130627,
    "monthyear": 201306,
    "year": 2013,
    "fractiondate": "2013.4849",
    "eventcode": 112,
    "quadclass": 3,
    "nummentions": 1,
    "numsources": 1,
    "numarticles": 1,
    "avgtone": "1.46750524109015",
    "sourceurl": "http://articles.chicagotribune.com/2013-06-26/news/sns-rt-us-venezuela-recordingbre95q03j-20130626_1_opposition-coalition-ramon-guillermo-aveledo-henrique-capriles",
    "feature_id": "423587",
    "feature_name": "Chicago",
    "state_alpha": "IL",
    "county_name": "Cook",
    "county_numeric": "031",
    "prim_lat_dec": "41.850033",
    "prim_long_dec": "-87.6500523",
    "elev_in_m": "179",
    "elev_in_ft": "587",
    "lat": 41.850033,
    "long": -87.6500523
  },
  {
    "globaleventid": 257681790,
    "sqldate": 20130627,
    "monthyear": 201306,
    "year": 2013,
    "fractiondate": "2013.4849",
    "eventcode": 190,
    "quadclass": 4,
    "nummentions": 2,
    "numsources": 1,
    "numarticles": 2,
    "avgtone": "1.63220892274211",
    "sourceurl": "http://www.wtsp.com/news/article/322569/34/Questions-surface-about-hurricane-pay-outs-in-Hardee-County",
    "feature_id": "292949",
    "feature_name": "Wauchula",
    "state_alpha": "FL",
    "county_name": "Hardee",
    "county_numeric": "049",
    "prim_lat_dec": "27.5472589",
    "prim_long_dec": "-81.8114715",
    "elev_in_m": "35",
    "elev_in_ft": "115",
    "lat": 27.5472589,
    "long": -81.8114715
  },
  {
    "globaleventid": 257681733,
    "sqldate": 20130627,
    "monthyear": 201306,
    "year": 2013,
    "fractiondate": "2013.4849",
    "eventcode": 160,
    "quadclass": 4,
    "nummentions": 8,
    "numsources": 1,
    "numarticles": 8,
    "avgtone": "1.26782884310618",
    "sourceurl": "http://www.reflector.com/opinion/other-voices/bob-etheridge-betraying-commitment-education-2092301",
    "feature_id": "1024242",
    "feature_name": "Raleigh",
    "state_alpha": "NC",
    "county_name": "Wake",
    "county_numeric": "183",
    "prim_lat_dec": "35.772096",
    "prim_long_dec": "-78.6386145",
    "elev_in_m": "96",
    "elev_in_ft": "315",
    "lat": 35.772096,
    "long": -78.6386145
  },
  {
    "globaleventid": 257681649,
    "sqldate": 20130627,
    "monthyear": 201306,
    "year": 2013,
    "fractiondate": "2013.4849",
    "eventcode": 190,
    "quadclass": 4,
    "nummentions": 4,
    "numsources": 1,
    "numarticles": 4,
    "avgtone": "3.08483290488432",
    "sourceurl": "http://www.mcall.com/news/local/gettysburg/mc-153rd-pennsylvania-infantry-gettysburg-150th-06-20130627,0,1830615.story",
    "feature_id": "1203022",
    "feature_name": "Barlow Knoll",
    "state_alpha": "PA",
    "county_name": "Adams",
    "county_numeric": "001",
    "prim_lat_dec": "39.8453736",
    "prim_long_dec": "-77.2260953",
    "elev_in_m": "161",
    "elev_in_ft": "528",
    "lat": 39.8453736,
    "long": -77.2260953
  },
  {
    "globaleventid": 257681646,
    "sqldate": 20130627,
    "monthyear": 201306,
    "year": 2013,
    "fractiondate": "2013.4849",
    "eventcode": 173,
    "quadclass": 4,
    "nummentions": 54,
    "numsources": 4,
    "numarticles": 54,
    "avgtone": "1.83568613434396",
    "sourceurl": "http://in.reuters.com/article/2013/06/27/usa-marine-conviction-idINDEE95Q04L20130627?feedType=RSS&feedName=worldNews",
    "feature_id": "1661377",
    "feature_name": "San Diego",
    "state_alpha": "CA",
    "county_name": "San Diego",
    "county_numeric": "073",
    "prim_lat_dec": "32.7153292",
    "prim_long_dec": "-117.1572551",
    "elev_in_m": "19",
    "elev_in_ft": "62",
    "lat": 32.7153292,
    "long": -117.1572551
  },
  {
    "globaleventid": 257681637,
    "sqldate": 20130627,
    "monthyear": 201306,
    "year": 2013,
    "fractiondate": "2013.4849",
    "eventcode": 112,
    "quadclass": 3,
    "nummentions": 3,
    "numsources": 1,
    "numarticles": 2,
    "avgtone": "0.0",
    "sourceurl": "http://www.ctpost.com/news/crime/article/ND-murder-suspect-was-court-martialed-by-Army-4625240.php",
    "feature_id": "1035849",
    "feature_name": "Bismarck",
    "state_alpha": "ND",
    "county_name": "Burleigh",
    "county_numeric": "015",
    "prim_lat_dec": "46.8083268",
    "prim_long_dec": "-100.7837392",
    "elev_in_m": "517",
    "elev_in_ft": "1696",
    "lat": 46.8083268,
    "long": -100.7837392
  },
  {
    "globaleventid": 257681635,
    "sqldate": 20130627,
    "monthyear": 201306,
    "year": 2013,
    "fractiondate": "2013.4849",
    "eventcode": 112,
    "quadclass": 3,
    "nummentions": 1,
    "numsources": 1,
    "numarticles": 1,
    "avgtone": "0.574712643678161",
    "sourceurl": "http://www.newstimes.com/news/crime/article/ND-murder-suspect-was-court-martialed-by-Army-4625240.php&c=MmaUqWJjL7rHW05_hlonItJwTCi4JFbgkQN86-hrMmc&mkt=en-us",
    "feature_id": "1370102",
    "feature_name": "Trenton",
    "state_alpha": "TX",
    "county_name": "Fannin",
    "county_numeric": "147",
    "prim_lat_dec": "33.4306652",
    "prim_long_dec": "-96.3385926",
    "elev_in_m": "232",
    "elev_in_ft": "761",
    "lat": 33.4306652,
    "long": -96.3385926
  },
  {
    "globaleventid": 257681631,
    "sqldate": 20130627,
    "monthyear": 201306,
    "year": 2013,
    "fractiondate": "2013.4849",
    "eventcode": 111,
    "quadclass": 3,
    "nummentions": 1,
    "numsources": 1,
    "numarticles": 1,
    "avgtone": "2.46913580246914",
    "sourceurl": "http://fox8.com/2013/06/27/captain-america-wraps-up-filming-in-cleveland/",
    "feature_id": "1065193",
    "feature_name": "Ohio City",
    "state_alpha": "OH",
    "county_name": "Van Wert",
    "county_numeric": "161",
    "prim_lat_dec": "40.7714368",
    "prim_long_dec": "-84.6155134",
    "elev_in_m": "250",
    "elev_in_ft": "820",
    "lat": 40.7714368,
    "long": -84.6155134
  },
  {
    "globaleventid": 257681630,
    "sqldate": 20130627,
    "monthyear": 201306,
    "year": 2013,
    "fractiondate": "2013.4849",
    "eventcode": 111,
    "quadclass": 3,
    "nummentions": 1,
    "numsources": 1,
    "numarticles": 1,
    "avgtone": "2.46913580246914",
    "sourceurl": "http://fox8.com/2013/06/27/captain-america-wraps-up-filming-in-cleveland/",
    "feature_id": "1065193",
    "feature_name": "Ohio City",
    "state_alpha": "OH",
    "county_name": "Van Wert",
    "county_numeric": "161",
    "prim_lat_dec": "40.7714368",
    "prim_long_dec": "-84.6155134",
    "elev_in_m": "250",
    "elev_in_ft": "820",
    "lat": 40.7714368,
    "long": -84.6155134
  },
  {
    "globaleventid": 257681553,
    "sqldate": 20130627,
    "monthyear": 201306,
    "year": 2013,
    "fractiondate": "2013.4849",
    "eventcode": 190,
    "quadclass": 4,
    "nummentions": 2,
    "numsources": 1,
    "numarticles": 2,
    "avgtone": "3.08483290488432",
    "sourceurl": "http://www.mcall.com/news/local/gettysburg/mc-153rd-pennsylvania-infantry-gettysburg-150th-06-20130627,0,1830615.story",
    "feature_id": "1203022",
    "feature_name": "Barlow Knoll",
    "state_alpha": "PA",
    "county_name": "Adams",
    "county_numeric": "001",
    "prim_lat_dec": "39.8453736",
    "prim_long_dec": "-77.2260953",
    "elev_in_m": "161",
    "elev_in_ft": "528",
    "lat": 39.8453736,
    "long": -77.2260953
  },
  {
    "globaleventid": 257681550,
    "sqldate": 20130627,
    "monthyear": 201306,
    "year": 2013,
    "fractiondate": "2013.4849",
    "eventcode": 190,
    "quadclass": 4,
    "nummentions": 86,
    "numsources": 8,
    "numarticles": 86,
    "avgtone": "1.78907338609877",
    "sourceurl": "http://usnews.nbcnews.com/_news/2013/06/27/19166824-marines-conviction-overturned-in-killing-of-iraqi-father-of-11?lite",
    "feature_id": "1661377",
    "feature_name": "San Diego",
    "state_alpha": "CA",
    "county_name": "San Diego",
    "county_numeric": "073",
    "prim_lat_dec": "32.7153292",
    "prim_long_dec": "-117.1572551",
    "elev_in_m": "19",
    "elev_in_ft": "62",
    "lat": 32.7153292,
    "long": -117.1572551
  },
  {
    "globaleventid": 257681549,
    "sqldate": 20130627,
    "monthyear": 201306,
    "year": 2013,
    "fractiondate": "2013.4849",
    "eventcode": 190,
    "quadclass": 4,
    "nummentions": 6,
    "numsources": 1,
    "numarticles": 6,
    "avgtone": "3.16622691292876",
    "sourceurl": "http://articles.mcall.com/2013-06-25/news/mc-153rd-pennsylvania-infantry-gettysburg-150th-06-20130625_1_allentown-democrat-pennsylvania-infantry-vicksburg",
    "feature_id": "666221",
    "feature_name": "Allentown",
    "state_alpha": "MS",
    "county_name": "Alcorn",
    "county_numeric": "003",
    "prim_lat_dec": "34.8573127",
    "prim_long_dec": "-88.6050514",
    "elev_in_m": "153",
    "elev_in_ft": "502",
    "lat": 34.8573127,
    "long": -88.6050514
  },
  {
    "globaleventid": 257681548,
    "sqldate": 20130627,
    "monthyear": 201306,
    "year": 2013,
    "fractiondate": "2013.4849",
    "eventcode": 180,
    "quadclass": 4,
    "nummentions": 6,
    "numsources": 1,
    "numarticles": 6,
    "avgtone": "2.19178082191781",
    "sourceurl": "http://www.defensenews.com/article/20130627/DEFREG02/306270016/Levin-Hopeful-Dempsey-Confirmed-Easily-You-Just-Never-Know-&c=d74WxtoKPsnBPddKK7kCIyxIY1Lp2wv54RyM4VHtiGc&mkt=en-us",
    "feature_id": "529313",
    "feature_name": "Capitol Hill",
    "state_alpha": "DC",
    "county_name": "District of Columbia",
    "county_numeric": "001",
    "prim_lat_dec": "38.8890009",
    "prim_long_dec": "-77.0002537",
    "elev_in_m": "28",
    "elev_in_ft": "92",
    "lat": 38.8890009,
    "long": -77.0002537
  },
  {
    "globaleventid": 257681544,
    "sqldate": 20130627,
    "monthyear": 201306,
    "year": 2013,
    "fractiondate": "2013.4849",
    "eventcode": 173,
    "quadclass": 4,
    "nummentions": 2,
    "numsources": 1,
    "numarticles": 2,
    "avgtone": "1.41010575793185",
    "sourceurl": "http://www.chron.com/news/us/article/AP-NewsBreak-Marine-murder-conviction-overturned-4624460.php",
    "feature_id": "1380948",
    "feature_name": "Houston",
    "state_alpha": "TX",
    "county_name": "Harris",
    "county_numeric": "201",
    "prim_lat_dec": "29.7632836",
    "prim_long_dec": "-95.3632715",
    "elev_in_m": "11",
    "elev_in_ft": "36",
    "lat": 29.7632836,
    "long": -95.3632715
  },
  {
    "globaleventid": 257681541,
    "sqldate": 20130627,
    "monthyear": 201306,
    "year": 2013,
    "fractiondate": "2013.4849",
    "eventcode": 173,
    "quadclass": 4,
    "nummentions": 2,
    "numsources": 1,
    "numarticles": 2,
    "avgtone": "1.60599571734475",
    "sourceurl": "http://boston.cbslocal.com/2013/06/27/murder-conviction-against-us-marine-from-plymouth-overturned/",
    "feature_id": "617565",
    "feature_name": "Boston",
    "state_alpha": "MA",
    "county_name": "Suffolk",
    "county_numeric": "025",
    "prim_lat_dec": "42.3584308",
    "prim_long_dec": "-71.0597732",
    "elev_in_m": "14",
    "elev_in_ft": "46",
    "lat": 42.3584308,
    "long": -71.0597732
  },
  {
    "globaleventid": 257681538,
    "sqldate": 20130627,
    "monthyear": 201306,
    "year": 2013,
    "fractiondate": "2013.4849",
    "eventcode": 173,
    "quadclass": 4,
    "nummentions": 2,
    "numsources": 1,
    "numarticles": 2,
    "avgtone": "1.41010575793185",
    "sourceurl": "http://www.chron.com/news/us/article/AP-NewsBreak-Marine-murder-conviction-overturned-4624460.php",
    "feature_id": "1380948",
    "feature_name": "Houston",
    "state_alpha": "TX",
    "county_name": "Harris",
    "county_numeric": "201",
    "prim_lat_dec": "29.7632836",
    "prim_long_dec": "-95.3632715",
    "elev_in_m": "11",
    "elev_in_ft": "36",
    "lat": 29.7632836,
    "long": -95.3632715
  },
  {
    "globaleventid": 257681514,
    "sqldate": 20130627,
    "monthyear": 201306,
    "year": 2013,
    "fractiondate": "2013.4849",
    "eventcode": 190,
    "quadclass": 4,
    "nummentions": 6,
    "numsources": 1,
    "numarticles": 6,
    "avgtone": "2.19178082191781",
    "sourceurl": "http://www.defensenews.com/article/20130627/DEFREG02/306270016/Levin-Hopeful-Dempsey-Confirmed-Easily-You-Just-Never-Know-&c=d74WxtoKPsnBPddKK7kCIyxIY1Lp2wv54RyM4VHtiGc&mkt=en-us",
    "feature_id": "529313",
    "feature_name": "Capitol Hill",
    "state_alpha": "DC",
    "county_name": "District of Columbia",
    "county_numeric": "001",
    "prim_lat_dec": "38.8890009",
    "prim_long_dec": "-77.0002537",
    "elev_in_m": "28",
    "elev_in_ft": "92",
    "lat": 38.8890009,
    "long": -77.0002537
  },
  {
    "globaleventid": 257681508,
    "sqldate": 20130627,
    "monthyear": 201306,
    "year": 2013,
    "fractiondate": "2013.4849",
    "eventcode": 1222,
    "quadclass": 3,
    "nummentions": 16,
    "numsources": 7,
    "numarticles": 16,
    "avgtone": "1.77307942767791",
    "sourceurl": "http://www.news-sentinel.com/apps/pbcs.dll/article?AID=/20130627/NEWS/306279957/1006",
    "feature_id": "531871",
    "feature_name": "Washington",
    "state_alpha": "DC",
    "county_name": "District of Columbia",
    "county_numeric": "001",
    "prim_lat_dec": "38.8951118",
    "prim_long_dec": "-77.0363658",
    "elev_in_m": "7",
    "elev_in_ft": "23",
    "lat": 38.8951118,
    "long": -77.0363658
  },
  {
    "globaleventid": 257681506,
    "sqldate": 20130627,
    "monthyear": 201306,
    "year": 2013,
    "fractiondate": "2013.4849",
    "eventcode": 1222,
    "quadclass": 3,
    "nummentions": 2,
    "numsources": 1,
    "numarticles": 2,
    "avgtone": "1.54440154440154",
    "sourceurl": "http://www.mysanantonio.com/news/politics/article/US-looks-to-send-training-teams-to-Lebanon-Iraq-4624196.php",
    "feature_id": "1380951",
    "feature_name": "San Antonio",
    "state_alpha": "TX",
    "county_name": "Bexar",
    "county_numeric": "029",
    "prim_lat_dec": "29.4241219",
    "prim_long_dec": "-98.4936282",
    "elev_in_m": "198",
    "elev_in_ft": "650",
    "lat": 29.4241219,
    "long": -98.4936282
  },
  {
    "globaleventid": 257681450,
    "sqldate": 20130627,
    "monthyear": 201306,
    "year": 2013,
    "fractiondate": "2013.4849",
    "eventcode": 190,
    "quadclass": 4,
    "nummentions": 2,
    "numsources": 1,
    "numarticles": 2,
    "avgtone": "3.08641975308642",
    "sourceurl": "http://www.truth-out.org/speakout/item/17173-national-security-journalism-on-trial",
    "feature_id": "531871",
    "feature_name": "Washington",
    "state_alpha": "DC",
    "county_name": "District of Columbia",
    "county_numeric": "001",
    "prim_lat_dec": "38.8951118",
    "prim_long_dec": "-77.0363658",
    "elev_in_m": "7",
    "elev_in_ft": "23",
    "lat": 38.8951118,
    "long": -77.0363658
  },
  {
    "globaleventid": 257681443,
    "sqldate": 20130627,
    "monthyear": 201306,
    "year": 2013,
    "fractiondate": "2013.4849",
    "eventcode": 173,
    "quadclass": 4,
    "nummentions": 10,
    "numsources": 1,
    "numarticles": 10,
    "avgtone": "2.29007633587786",
    "sourceurl": "http://www.catholicfreepress.org/commentary/2013/06/27/guantanamo-bay-prison-poses-moral-dilemma-for-white-house/",
    "feature_id": "531871",
    "feature_name": "Washington",
    "state_alpha": "DC",
    "county_name": "District of Columbia",
    "county_numeric": "001",
    "prim_lat_dec": "38.8951118",
    "prim_long_dec": "-77.0363658",
    "elev_in_m": "7",
    "elev_in_ft": "23",
    "lat": 38.8951118,
    "long": -77.0363658
  },
  {
    "globaleventid": 257681389,
    "sqldate": 20130627,
    "monthyear": 201306,
    "year": 2013,
    "fractiondate": "2013.4849",
    "eventcode": 112,
    "quadclass": 3,
    "nummentions": 4,
    "numsources": 1,
    "numarticles": 4,
    "avgtone": "1.54440154440154",
    "sourceurl": "http://www.reuters.com/article/2013/06/27/us-obama-africa-snowden-idUSBRE95Q0KS20130627?feedType=RSS&feedName=wtMostRead",
    "feature_id": "531871",
    "feature_name": "Washington",
    "state_alpha": "DC",
    "county_name": "District of Columbia",
    "county_numeric": "001",
    "prim_lat_dec": "38.8951118",
    "prim_long_dec": "-77.0363658",
    "elev_in_m": "7",
    "elev_in_ft": "23",
    "lat": 38.8951118,
    "long": -77.0363658
  },
  {
    "globaleventid": 257681367,
    "sqldate": 20130627,
    "monthyear": 201306,
    "year": 2013,
    "fractiondate": "2013.4849",
    "eventcode": 1712,
    "quadclass": 4,
    "nummentions": 6,
    "numsources": 1,
    "numarticles": 6,
    "avgtone": "1.44628099173554",
    "sourceurl": "http://www.reuters.com/article/2013/06/28/us-usa-graffiti-chalk-idUSBRE95R04P20130628?feedType=RSS&feedName=oddlyEnoughNews",
    "feature_id": "1661377",
    "feature_name": "San Diego",
    "state_alpha": "CA",
    "county_name": "San Diego",
    "county_numeric": "073",
    "prim_lat_dec": "32.7153292",
    "prim_long_dec": "-117.1572551",
    "elev_in_m": "19",
    "elev_in_ft": "62",
    "lat": 32.7153292,
    "long": -117.1572551
  },
  {
    "globaleventid": 257681366,
    "sqldate": 20130627,
    "monthyear": 201306,
    "year": 2013,
    "fractiondate": "2013.4849",
    "eventcode": 112,
    "quadclass": 3,
    "nummentions": 6,
    "numsources": 1,
    "numarticles": 6,
    "avgtone": "1.44628099173554",
    "sourceurl": "http://www.reuters.com/article/2013/06/28/us-usa-graffiti-chalk-idUSBRE95R04P20130628?feedType=RSS&feedName=oddlyEnoughNews",
    "feature_id": "1661377",
    "feature_name": "San Diego",
    "state_alpha": "CA",
    "county_name": "San Diego",
    "county_numeric": "073",
    "prim_lat_dec": "32.7153292",
    "prim_long_dec": "-117.1572551",
    "elev_in_m": "19",
    "elev_in_ft": "62",
    "lat": 32.7153292,
    "long": -117.1572551
  },
  {
    "globaleventid": 257681339,
    "sqldate": 20130627,
    "monthyear": 201306,
    "year": 2013,
    "fractiondate": "2013.4849",
    "eventcode": 190,
    "quadclass": 4,
    "nummentions": 10,
    "numsources": 1,
    "numarticles": 10,
    "avgtone": "1.67731629392971",
    "sourceurl": "http://www.washingtontimes.com/news/2013/jun/27/benghazi-attack-suspect-walks-libyans-release-key-/?page=all",
    "feature_id": "531871",
    "feature_name": "Washington",
    "state_alpha": "DC",
    "county_name": "District of Columbia",
    "county_numeric": "001",
    "prim_lat_dec": "38.8951118",
    "prim_long_dec": "-77.0363658",
    "elev_in_m": "7",
    "elev_in_ft": "23",
    "lat": 38.8951118,
    "long": -77.0363658
  },
  {
    "globaleventid": 257681337,
    "sqldate": 20130627,
    "monthyear": 201306,
    "year": 2013,
    "fractiondate": "2013.4849",
    "eventcode": 180,
    "quadclass": 4,
    "nummentions": 2,
    "numsources": 1,
    "numarticles": 2,
    "avgtone": "2.13089802130898",
    "sourceurl": "http://www.tahoedailytribune.com/southshore/7097940-113/press-government-news-shaye",
    "feature_id": "531871",
    "feature_name": "Washington",
    "state_alpha": "DC",
    "county_name": "District of Columbia",
    "county_numeric": "001",
    "prim_lat_dec": "38.8951118",
    "prim_long_dec": "-77.0363658",
    "elev_in_m": "7",
    "elev_in_ft": "23",
    "lat": 38.8951118,
    "long": -77.0363658
  },
  {
    "globaleventid": 257681336,
    "sqldate": 20130627,
    "monthyear": 201306,
    "year": 2013,
    "fractiondate": "2013.4849",
    "eventcode": 173,
    "quadclass": 4,
    "nummentions": 4,
    "numsources": 1,
    "numarticles": 4,
    "avgtone": "1.19760479041916",
    "sourceurl": "http://www.khq.com/story/22696564/buquet-pleads-not-guilty-to-new-charges",
    "feature_id": "531871",
    "feature_name": "Washington",
    "state_alpha": "DC",
    "county_name": "District of Columbia",
    "county_numeric": "001",
    "prim_lat_dec": "38.8951118",
    "prim_long_dec": "-77.0363658",
    "elev_in_m": "7",
    "elev_in_ft": "23",
    "lat": 38.8951118,
    "long": -77.0363658
  },
  {
    "globaleventid": 257681316,
    "sqldate": 20130627,
    "monthyear": 201306,
    "year": 2013,
    "fractiondate": "2013.4849",
    "eventcode": 193,
    "quadclass": 4,
    "nummentions": 4,
    "numsources": 1,
    "numarticles": 4,
    "avgtone": "0.584795321637427",
    "sourceurl": "http://www.fox19.com/story/22705364/divers-search-pond-in-murder-investigation",
    "feature_id": "486333",
    "feature_name": "Bardstown",
    "state_alpha": "KY",
    "county_name": "Nelson",
    "county_numeric": "179",
    "prim_lat_dec": "37.8092279",
    "prim_long_dec": "-85.4669025",
    "elev_in_m": "197",
    "elev_in_ft": "646",
    "lat": 37.8092279,
    "long": -85.4669025
  },
  {
    "globaleventid": 257681308,
    "sqldate": 20130627,
    "monthyear": 201306,
    "year": 2013,
    "fractiondate": "2013.4849",
    "eventcode": 193,
    "quadclass": 4,
    "nummentions": 14,
    "numsources": 2,
    "numarticles": 14,
    "avgtone": "1.25576828669612",
    "sourceurl": "http://www.wvva.com/story/22708654/holmes-to-wear-hidden-harness-anchored-to-floor",
    "feature_id": "201738",
    "feature_name": "Denver",
    "state_alpha": "CO",
    "county_name": "Denver",
    "county_numeric": "031",
    "prim_lat_dec": "39.7391536",
    "prim_long_dec": "-104.9847034",
    "elev_in_m": "1609",
    "elev_in_ft": "5279",
    "lat": 39.7391536,
    "long": -104.9847034
  },
  {
    "globaleventid": 257681307,
    "sqldate": 20130627,
    "monthyear": 201306,
    "year": 2013,
    "fractiondate": "2013.4849",
    "eventcode": 193,
    "quadclass": 4,
    "nummentions": 2,
    "numsources": 1,
    "numarticles": 2,
    "avgtone": "0.584795321637427",
    "sourceurl": "http://www.13abc.com/story/22702281/autopsy-underway-on-2-ohio-boys-fatally-shot",
    "feature_id": "1080996",
    "feature_name": "Columbus",
    "state_alpha": "OH",
    "county_name": "Franklin",
    "county_numeric": "049",
    "prim_lat_dec": "39.9611755",
    "prim_long_dec": "-82.9987942",
    "elev_in_m": "238",
    "elev_in_ft": "781",
    "lat": 39.9611755,
    "long": -82.9987942
  },
  {
    "globaleventid": 257681303,
    "sqldate": 20130627,
    "monthyear": 201306,
    "year": 2013,
    "fractiondate": "2013.4849",
    "eventcode": 190,
    "quadclass": 4,
    "nummentions": 2,
    "numsources": 1,
    "numarticles": 2,
    "avgtone": "1.44927536231884",
    "sourceurl": "http://www.newstimes.com/news/article/Ex-Ga-radio-personality-found-dead-4629741.php",
    "feature_id": "331443",
    "feature_name": "Columbus",
    "state_alpha": "GA",
    "county_name": "Muscogee",
    "county_numeric": "215",
    "prim_lat_dec": "32.4609764",
    "prim_long_dec": "-84.9877094",
    "elev_in_m": "74",
    "elev_in_ft": "243",
    "lat": 32.4609764,
    "long": -84.9877094
  },
  {
    "globaleventid": 257681301,
    "sqldate": 20130627,
    "monthyear": 201306,
    "year": 2013,
    "fractiondate": "2013.4849",
    "eventcode": 1821,
    "quadclass": 4,
    "nummentions": 2,
    "numsources": 1,
    "numarticles": 2,
    "avgtone": "2.0",
    "sourceurl": "http://www.courierpress.com/news/2013/jun/27/us-supreme-court-takes-western-kentucky-death-pena/",
    "feature_id": "740885",
    "feature_name": "Greenville",
    "state_alpha": "MO",
    "county_name": "Clay",
    "county_numeric": "047",
    "prim_lat_dec": "39.3850039",
    "prim_long_dec": "-94.2627226",
    "elev_in_m": "276",
    "elev_in_ft": "906",
    "lat": 39.3850039,
    "long": -94.2627226
  },
  {
    "globaleventid": 257681300,
    "sqldate": 20130627,
    "monthyear": 201306,
    "year": 2013,
    "fractiondate": "2013.4849",
    "eventcode": 1821,
    "quadclass": 4,
    "nummentions": 1,
    "numsources": 1,
    "numarticles": 1,
    "avgtone": "2.0",
    "sourceurl": "http://www.courierpress.com/news/2013/jun/27/us-supreme-court-takes-western-kentucky-death-pena/",
    "feature_id": "1066650",
    "feature_name": "Cincinnati",
    "state_alpha": "OH",
    "county_name": "Hamilton",
    "county_numeric": "061",
    "prim_lat_dec": "39.1620036",
    "prim_long_dec": "-84.4568863",
    "elev_in_m": "191",
    "elev_in_ft": "627",
    "lat": 39.1620036,
    "long": -84.4568863
  },
  {
    "globaleventid": 257681299,
    "sqldate": 20130627,
    "monthyear": 201306,
    "year": 2013,
    "fractiondate": "2013.4849",
    "eventcode": 1821,
    "quadclass": 4,
    "nummentions": 1,
    "numsources": 1,
    "numarticles": 1,
    "avgtone": "2.0",
    "sourceurl": "http://www.courierpress.com/news/2013/jun/27/us-supreme-court-takes-western-kentucky-death-pena/",
    "feature_id": "1066650",
    "feature_name": "Cincinnati",
    "state_alpha": "OH",
    "county_name": "Hamilton",
    "county_numeric": "061",
    "prim_lat_dec": "39.1620036",
    "prim_long_dec": "-84.4568863",
    "elev_in_m": "191",
    "elev_in_ft": "627",
    "lat": 39.1620036,
    "long": -84.4568863
  },
  {
    "globaleventid": 257681298,
    "sqldate": 20130627,
    "monthyear": 201306,
    "year": 2013,
    "fractiondate": "2013.4849",
    "eventcode": 1821,
    "quadclass": 4,
    "nummentions": 6,
    "numsources": 1,
    "numarticles": 6,
    "avgtone": "2.0",
    "sourceurl": "http://www.courierpress.com/news/2013/jun/27/us-supreme-court-takes-western-kentucky-death-pena/",
    "feature_id": "1066650",
    "feature_name": "Cincinnati",
    "state_alpha": "OH",
    "county_name": "Hamilton",
    "county_numeric": "061",
    "prim_lat_dec": "39.1620036",
    "prim_long_dec": "-84.4568863",
    "elev_in_m": "191",
    "elev_in_ft": "627",
    "lat": 39.1620036,
    "long": -84.4568863
  },
  {
    "globaleventid": 257681297,
    "sqldate": 20130627,
    "monthyear": 201306,
    "year": 2013,
    "fractiondate": "2013.4849",
    "eventcode": 180,
    "quadclass": 4,
    "nummentions": 4,
    "numsources": 2,
    "numarticles": 4,
    "avgtone": "0.0",
    "sourceurl": "http://www.ctpost.com/news/crime/article/Woman-charged-in-attack-on-Metro-bus-driver-4625204.php",
    "feature_id": "531871",
    "feature_name": "Washington",
    "state_alpha": "DC",
    "county_name": "District of Columbia",
    "county_numeric": "001",
    "prim_lat_dec": "38.8951118",
    "prim_long_dec": "-77.0363658",
    "elev_in_m": "7",
    "elev_in_ft": "23",
    "lat": 38.8951118,
    "long": -77.0363658
  },
  {
    "globaleventid": 257681295,
    "sqldate": 20130627,
    "monthyear": 201306,
    "year": 2013,
    "fractiondate": "2013.4849",
    "eventcode": 173,
    "quadclass": 4,
    "nummentions": 8,
    "numsources": 1,
    "numarticles": 8,
    "avgtone": "2.19298245614035",
    "sourceurl": "http://www.latinospost.com/articles/22381/20130627/texas-500th-execution-first-woman-put-death-u-s-3.htm",
    "feature_id": "1380944",
    "feature_name": "Dallas",
    "state_alpha": "TX",
    "county_name": "Dallas",
    "county_numeric": "113",
    "prim_lat_dec": "32.7830556",
    "prim_long_dec": "-96.8066667",
    "elev_in_m": "128",
    "elev_in_ft": "420",
    "lat": 32.7830556,
    "long": -96.8066667
  },
  {
    "globaleventid": 257681291,
    "sqldate": 20130627,
    "monthyear": 201306,
    "year": 2013,
    "fractiondate": "2013.4849",
    "eventcode": 141,
    "quadclass": 3,
    "nummentions": 3,
    "numsources": 1,
    "numarticles": 3,
    "avgtone": "3.18181818181818",
    "sourceurl": "http://www.bostonglobe.com/business/2013/06/26/mounts-offensive-spill-settlement-dispute/4wDZONCv2YtoMA1PbxbuCM/story.html",
    "feature_id": "531871",
    "feature_name": "Washington",
    "state_alpha": "DC",
    "county_name": "District of Columbia",
    "county_numeric": "001",
    "prim_lat_dec": "38.8951118",
    "prim_long_dec": "-77.0363658",
    "elev_in_m": "7",
    "elev_in_ft": "23",
    "lat": 38.8951118,
    "long": -77.0363658
  },
  {
    "globaleventid": 257681286,
    "sqldate": 20130627,
    "monthyear": 201306,
    "year": 2013,
    "fractiondate": "2013.4849",
    "eventcode": 1241,
    "quadclass": 3,
    "nummentions": 4,
    "numsources": 1,
    "numarticles": 4,
    "avgtone": "8.29493087557604",
    "sourceurl": "http://www.lasvegassun.com/news/2013/jun/27/supreme-court-rejects-gay-rights-cases-nevada-ariz/",
    "feature_id": "531871",
    "feature_name": "Washington",
    "state_alpha": "DC",
    "county_name": "District of Columbia",
    "county_numeric": "001",
    "prim_lat_dec": "38.8951118",
    "prim_long_dec": "-77.0363658",
    "elev_in_m": "7",
    "elev_in_ft": "23",
    "lat": 38.8951118,
    "long": -77.0363658
  },
  {
    "globaleventid": 257681282,
    "sqldate": 20130627,
    "monthyear": 201306,
    "year": 2013,
    "fractiondate": "2013.4849",
    "eventcode": 120,
    "quadclass": 3,
    "nummentions": 2,
    "numsources": 1,
    "numarticles": 2,
    "avgtone": "8.29493087557604",
    "sourceurl": "http://www.lasvegassun.com/news/2013/jun/27/supreme-court-rejects-gay-rights-cases-nevada-ariz/",
    "feature_id": "531871",
    "feature_name": "Washington",
    "state_alpha": "DC",
    "county_name": "District of Columbia",
    "county_numeric": "001",
    "prim_lat_dec": "38.8951118",
    "prim_long_dec": "-77.0363658",
    "elev_in_m": "7",
    "elev_in_ft": "23",
    "lat": 38.8951118,
    "long": -77.0363658
  },
  {
    "globaleventid": 257681281,
    "sqldate": 20130627,
    "monthyear": 201306,
    "year": 2013,
    "fractiondate": "2013.4849",
    "eventcode": 120,
    "quadclass": 3,
    "nummentions": 6,
    "numsources": 3,
    "numarticles": 6,
    "avgtone": "2.12107904275066",
    "sourceurl": "http://www.kccu.org/post/us-wants-snowden-why-wont-world-cooperate",
    "feature_id": "531871",
    "feature_name": "Washington",
    "state_alpha": "DC",
    "county_name": "District of Columbia",
    "county_numeric": "001",
    "prim_lat_dec": "38.8951118",
    "prim_long_dec": "-77.0363658",
    "elev_in_m": "7",
    "elev_in_ft": "23",
    "lat": 38.8951118,
    "long": -77.0363658
  },
  {
    "globaleventid": 257681274,
    "sqldate": 20130627,
    "monthyear": 201306,
    "year": 2013,
    "fractiondate": "2013.4849",
    "eventcode": 112,
    "quadclass": 3,
    "nummentions": 10,
    "numsources": 1,
    "numarticles": 10,
    "avgtone": "0.584795321637427",
    "sourceurl": "http://www.whig.com/story/22701792/ftc-issues-75-m-fine-for-do-not-call-violations",
    "feature_id": "531871",
    "feature_name": "Washington",
    "state_alpha": "DC",
    "county_name": "District of Columbia",
    "county_numeric": "001",
    "prim_lat_dec": "38.8951118",
    "prim_long_dec": "-77.0363658",
    "elev_in_m": "7",
    "elev_in_ft": "23",
    "lat": 38.8951118,
    "long": -77.0363658
  },
  {
    "globaleventid": 257681106,
    "sqldate": 20130627,
    "monthyear": 201306,
    "year": 2013,
    "fractiondate": "2013.4849",
    "eventcode": 120,
    "quadclass": 3,
    "nummentions": 8,
    "numsources": 2,
    "numarticles": 8,
    "avgtone": "2.14593490494802",
    "sourceurl": "http://www.csmonitor.com/World/terrorism-security/2013/0627/Long-layover-Ecuador-says-it-could-take-two-months-to-decide-on-Snowden-s-asylum",
    "feature_id": "531871",
    "feature_name": "Washington",
    "state_alpha": "DC",
    "county_name": "District of Columbia",
    "county_numeric": "001",
    "prim_lat_dec": "38.8951118",
    "prim_long_dec": "-77.0363658",
    "elev_in_m": "7",
    "elev_in_ft": "23",
    "lat": 38.8951118,
    "long": -77.0363658
  },
  {
    "globaleventid": 257681077,
    "sqldate": 20130627,
    "monthyear": 201306,
    "year": 2013,
    "fractiondate": "2013.4849",
    "eventcode": 172,
    "quadclass": 4,
    "nummentions": 10,
    "numsources": 1,
    "numarticles": 10,
    "avgtone": "0.584795321637427",
    "sourceurl": "http://www.whig.com/story/22701792/ftc-issues-75-m-fine-for-do-not-call-violations",
    "feature_id": "531871",
    "feature_name": "Washington",
    "state_alpha": "DC",
    "county_name": "District of Columbia",
    "county_numeric": "001",
    "prim_lat_dec": "38.8951118",
    "prim_long_dec": "-77.0363658",
    "elev_in_m": "7",
    "elev_in_ft": "23",
    "lat": 38.8951118,
    "long": -77.0363658
  },
  {
    "globaleventid": 257681063,
    "sqldate": 20130627,
    "monthyear": 201306,
    "year": 2013,
    "fractiondate": "2013.4849",
    "eventcode": 110,
    "quadclass": 3,
    "nummentions": 2,
    "numsources": 1,
    "numarticles": 2,
    "avgtone": "1.85414091470952",
    "sourceurl": "http://kunm.org/post/thursday-morning-roundup",
    "feature_id": "936823",
    "feature_name": "Santa Fe",
    "state_alpha": "NM",
    "county_name": "Santa Fe",
    "county_numeric": "049",
    "prim_lat_dec": "35.6869752",
    "prim_long_dec": "-105.937799",
    "elev_in_m": "2132",
    "elev_in_ft": "6995",
    "lat": 35.6869752,
    "long": -105.937799
  },
  {
    "globaleventid": 257681062,
    "sqldate": 20130627,
    "monthyear": 201306,
    "year": 2013,
    "fractiondate": "2013.4849",
    "eventcode": 100,
    "quadclass": 3,
    "nummentions": 2,
    "numsources": 1,
    "numarticles": 2,
    "avgtone": "1.85414091470952",
    "sourceurl": "http://kunm.org/post/thursday-morning-roundup",
    "feature_id": "936823",
    "feature_name": "Santa Fe",
    "state_alpha": "NM",
    "county_name": "Santa Fe",
    "county_numeric": "049",
    "prim_lat_dec": "35.6869752",
    "prim_long_dec": "-105.937799",
    "elev_in_m": "2132",
    "elev_in_ft": "6995",
    "lat": 35.6869752,
    "long": -105.937799
  },
  {
    "globaleventid": 257681015,
    "sqldate": 20130627,
    "monthyear": 201306,
    "year": 2013,
    "fractiondate": "2013.4849",
    "eventcode": 193,
    "quadclass": 4,
    "nummentions": 6,
    "numsources": 2,
    "numarticles": 6,
    "avgtone": "1.25576828669612",
    "sourceurl": "http://www.wvva.com/story/22708654/holmes-to-wear-hidden-harness-anchored-to-floor",
    "feature_id": "201738",
    "feature_name": "Denver",
    "state_alpha": "CO",
    "county_name": "Denver",
    "county_numeric": "031",
    "prim_lat_dec": "39.7391536",
    "prim_long_dec": "-104.9847034",
    "elev_in_m": "1609",
    "elev_in_ft": "5279",
    "lat": 39.7391536,
    "long": -104.9847034
  },
  {
    "globaleventid": 257681013,
    "sqldate": 20130627,
    "monthyear": 201306,
    "year": 2013,
    "fractiondate": "2013.4849",
    "eventcode": 190,
    "quadclass": 4,
    "nummentions": 2,
    "numsources": 1,
    "numarticles": 2,
    "avgtone": "6.0",
    "sourceurl": "http://www.dcourier.com/main.asp?SectionID=1&SubSectionID=1086&ArticleID=120593&c=Gf4zn8LTc2NzX2wfIH2H6BLrDW35QJFMh6NKHlYdh1M&mkt=en-us",
    "feature_id": "531871",
    "feature_name": "Washington",
    "state_alpha": "DC",
    "county_name": "District of Columbia",
    "county_numeric": "001",
    "prim_lat_dec": "38.8951118",
    "prim_long_dec": "-77.0363658",
    "elev_in_m": "7",
    "elev_in_ft": "23",
    "lat": 38.8951118,
    "long": -77.0363658
  },
  {
    "globaleventid": 257681012,
    "sqldate": 20130627,
    "monthyear": 201306,
    "year": 2013,
    "fractiondate": "2013.4849",
    "eventcode": 190,
    "quadclass": 4,
    "nummentions": 6,
    "numsources": 1,
    "numarticles": 6,
    "avgtone": "6.0",
    "sourceurl": "http://www.dcourier.com/main.asp?SectionID=1&SubSectionID=1086&ArticleID=120593&c=Gf4zn8LTc2NzX2wfIH2H6BLrDW35QJFMh6NKHlYdh1M&mkt=en-us",
    "feature_id": "531871",
    "feature_name": "Washington",
    "state_alpha": "DC",
    "county_name": "District of Columbia",
    "county_numeric": "001",
    "prim_lat_dec": "38.8951118",
    "prim_long_dec": "-77.0363658",
    "elev_in_m": "7",
    "elev_in_ft": "23",
    "lat": 38.8951118,
    "long": -77.0363658
  },
  {
    "globaleventid": 257681011,
    "sqldate": 20130627,
    "monthyear": 201306,
    "year": 2013,
    "fractiondate": "2013.4849",
    "eventcode": 190,
    "quadclass": 4,
    "nummentions": 20,
    "numsources": 1,
    "numarticles": 20,
    "avgtone": "6.86528497409326",
    "sourceurl": "http://www.reuters.com/article/2013/06/26/us-usa-gayrights-campaigns-idUSBRE95P1I820130626?feedType=RSS&feedName=wtMostRead",
    "feature_id": "277593",
    "feature_name": "San Francisco",
    "state_alpha": "CA",
    "county_name": "San Francisco",
    "county_numeric": "075",
    "prim_lat_dec": "37.775",
    "prim_long_dec": "-122.4194444",
    "elev_in_m": "16",
    "elev_in_ft": "52",
    "lat": 37.775,
    "long": -122.4194444
  },
  {
    "globaleventid": 257681010,
    "sqldate": 20130627,
    "monthyear": 201306,
    "year": 2013,
    "fractiondate": "2013.4849",
    "eventcode": 190,
    "quadclass": 4,
    "nummentions": 2,
    "numsources": 1,
    "numarticles": 2,
    "avgtone": "6.0",
    "sourceurl": "http://www.dcourier.com/main.asp?SectionID=1&SubSectionID=1086&ArticleID=120593&c=Gf4zn8LTc2NzX2wfIH2H6BLrDW35QJFMh6NKHlYdh1M&mkt=en-us",
    "feature_id": "531871",
    "feature_name": "Washington",
    "state_alpha": "DC",
    "county_name": "District of Columbia",
    "county_numeric": "001",
    "prim_lat_dec": "38.8951118",
    "prim_long_dec": "-77.0363658",
    "elev_in_m": "7",
    "elev_in_ft": "23",
    "lat": 38.8951118,
    "long": -77.0363658
  },
  {
    "globaleventid": 257681009,
    "sqldate": 20130627,
    "monthyear": 201306,
    "year": 2013,
    "fractiondate": "2013.4849",
    "eventcode": 112,
    "quadclass": 3,
    "nummentions": 2,
    "numsources": 1,
    "numarticles": 2,
    "avgtone": "2.02247191011236",
    "sourceurl": "http://www.southbendtribune.com/news/nation/article_bc051992-de16-11e2-a5db-0019bb30f31a.html",
    "feature_id": "531871",
    "feature_name": "Washington",
    "state_alpha": "DC",
    "county_name": "District of Columbia",
    "county_numeric": "001",
    "prim_lat_dec": "38.8951118",
    "prim_long_dec": "-77.0363658",
    "elev_in_m": "7",
    "elev_in_ft": "23",
    "lat": 38.8951118,
    "long": -77.0363658
  },
  {
    "globaleventid": 257680946,
    "sqldate": 20130627,
    "monthyear": 201306,
    "year": 2013,
    "fractiondate": "2013.4849",
    "eventcode": 173,
    "quadclass": 4,
    "nummentions": 1,
    "numsources": 1,
    "numarticles": 1,
    "avgtone": "2.81899109792285",
    "sourceurl": "http://www.lasvegassun.com/news/2013/jun/27/us-concealed-carry-illinois/",
    "feature_id": "423587",
    "feature_name": "Chicago",
    "state_alpha": "IL",
    "county_name": "Cook",
    "county_numeric": "031",
    "prim_lat_dec": "41.850033",
    "prim_long_dec": "-87.6500523",
    "elev_in_m": "179",
    "elev_in_ft": "587",
    "lat": 41.850033,
    "long": -87.6500523
  },
  {
    "globaleventid": 257680945,
    "sqldate": 20130627,
    "monthyear": 201306,
    "year": 2013,
    "fractiondate": "2013.4849",
    "eventcode": 173,
    "quadclass": 4,
    "nummentions": 4,
    "numsources": 1,
    "numarticles": 4,
    "avgtone": "2.81899109792285",
    "sourceurl": "http://www.lasvegassun.com/news/2013/jun/27/us-concealed-carry-illinois/",
    "feature_id": "423587",
    "feature_name": "Chicago",
    "state_alpha": "IL",
    "county_name": "Cook",
    "county_numeric": "031",
    "prim_lat_dec": "41.850033",
    "prim_long_dec": "-87.6500523",
    "elev_in_m": "179",
    "elev_in_ft": "587",
    "lat": 41.850033,
    "long": -87.6500523
  },
  {
    "globaleventid": 257680899,
    "sqldate": 20130627,
    "monthyear": 201306,
    "year": 2013,
    "fractiondate": "2013.4849",
    "eventcode": 120,
    "quadclass": 3,
    "nummentions": 24,
    "numsources": 2,
    "numarticles": 24,
    "avgtone": "2.14593490494802",
    "sourceurl": "http://www.csmonitor.com/World/terrorism-security/2013/0627/Long-layover-Ecuador-says-it-could-take-two-months-to-decide-on-Snowden-s-asylum",
    "feature_id": "531871",
    "feature_name": "Washington",
    "state_alpha": "DC",
    "county_name": "District of Columbia",
    "county_numeric": "001",
    "prim_lat_dec": "38.8951118",
    "prim_long_dec": "-77.0363658",
    "elev_in_m": "7",
    "elev_in_ft": "23",
    "lat": 38.8951118,
    "long": -77.0363658
  },
  {
    "globaleventid": 257680895,
    "sqldate": 20130627,
    "monthyear": 201306,
    "year": 2013,
    "fractiondate": "2013.4849",
    "eventcode": 100,
    "quadclass": 3,
    "nummentions": 2,
    "numsources": 1,
    "numarticles": 2,
    "avgtone": "2.33545647558386",
    "sourceurl": "http://www.al.com/business/index.ssf/2013/06/free_help_available_for_huntsv.html",
    "feature_id": "531871",
    "feature_name": "Washington",
    "state_alpha": "DC",
    "county_name": "District of Columbia",
    "county_numeric": "001",
    "prim_lat_dec": "38.8951118",
    "prim_long_dec": "-77.0363658",
    "elev_in_m": "7",
    "elev_in_ft": "23",
    "lat": 38.8951118,
    "long": -77.0363658
  },
  {
    "globaleventid": 257680894,
    "sqldate": 20130627,
    "monthyear": 201306,
    "year": 2013,
    "fractiondate": "2013.4849",
    "eventcode": 100,
    "quadclass": 3,
    "nummentions": 8,
    "numsources": 1,
    "numarticles": 8,
    "avgtone": "2.33545647558386",
    "sourceurl": "http://www.al.com/business/index.ssf/2013/06/free_help_available_for_huntsv.html",
    "feature_id": "531871",
    "feature_name": "Washington",
    "state_alpha": "DC",
    "county_name": "District of Columbia",
    "county_numeric": "001",
    "prim_lat_dec": "38.8951118",
    "prim_long_dec": "-77.0363658",
    "elev_in_m": "7",
    "elev_in_ft": "23",
    "lat": 38.8951118,
    "long": -77.0363658
  },
  {
    "globaleventid": 257680889,
    "sqldate": 20130627,
    "monthyear": 201306,
    "year": 2013,
    "fractiondate": "2013.4849",
    "eventcode": 193,
    "quadclass": 4,
    "nummentions": 2,
    "numsources": 1,
    "numarticles": 2,
    "avgtone": "0.584795321637427",
    "sourceurl": "http://www.fox19.com/story/22705364/divers-search-pond-in-murder-investigation",
    "feature_id": "486333",
    "feature_name": "Bardstown",
    "state_alpha": "KY",
    "county_name": "Nelson",
    "county_numeric": "179",
    "prim_lat_dec": "37.8092279",
    "prim_long_dec": "-85.4669025",
    "elev_in_m": "197",
    "elev_in_ft": "646",
    "lat": 37.8092279,
    "long": -85.4669025
  },
  {
    "globaleventid": 257680888,
    "sqldate": 20130627,
    "monthyear": 201306,
    "year": 2013,
    "fractiondate": "2013.4849",
    "eventcode": 190,
    "quadclass": 4,
    "nummentions": 18,
    "numsources": 3,
    "numarticles": 18,
    "avgtone": "0.0",
    "sourceurl": "http://whtc.com/news/articles/2013/jun/27/iowa-mass-murderer-commits-suicide-in-prison/",
    "feature_id": "461653",
    "feature_name": "Sioux City",
    "state_alpha": "IA",
    "county_name": "Woodbury",
    "county_numeric": "193",
    "prim_lat_dec": "42.4999942",
    "prim_long_dec": "-96.4003069",
    "elev_in_m": "366",
    "elev_in_ft": "1201",
    "lat": 42.4999942,
    "long": -96.4003069
  },
  {
    "globaleventid": 257680611,
    "sqldate": 20130627,
    "monthyear": 201306,
    "year": 2013,
    "fractiondate": "2013.4849",
    "eventcode": 111,
    "quadclass": 3,
    "nummentions": 4,
    "numsources": 2,
    "numarticles": 4,
    "avgtone": "0.880508717273635",
    "sourceurl": "http://www.columbiamissourian.com/a/163256/judge-spares-gov-nixons-staff-from-testifying-about-drivers-licenses/",
    "feature_id": "729812",
    "feature_name": "Sedalia",
    "state_alpha": "MO",
    "county_name": "Pettis",
    "county_numeric": "159",
    "prim_lat_dec": "38.7044609",
    "prim_long_dec": "-93.2282613",
    "elev_in_m": "277",
    "elev_in_ft": "909",
    "lat": 38.7044609,
    "long": -93.2282613
  },
  {
    "globaleventid": 257680610,
    "sqldate": 20130627,
    "monthyear": 201306,
    "year": 2013,
    "fractiondate": "2013.4849",
    "eventcode": 111,
    "quadclass": 3,
    "nummentions": 8,
    "numsources": 1,
    "numarticles": 8,
    "avgtone": "1.54761904761905",
    "sourceurl": "http://bangordailynews.com/2013/06/27/politics/state-house/winterport-lawmaker-says-he-will-introduce-legislation-to-censure-lepage/",
    "feature_id": "573692",
    "feature_name": "Portland",
    "state_alpha": "ME",
    "county_name": "Cumberland",
    "county_numeric": "005",
    "prim_lat_dec": "43.661471",
    "prim_long_dec": "-70.2553259",
    "elev_in_m": "19",
    "elev_in_ft": "62",
    "lat": 43.661471,
    "long": -70.2553259
  },
  {
    "globaleventid": 257680606,
    "sqldate": 20130627,
    "monthyear": 201306,
    "year": 2013,
    "fractiondate": "2013.4849",
    "eventcode": 110,
    "quadclass": 3,
    "nummentions": 1,
    "numsources": 1,
    "numarticles": 1,
    "avgtone": "2.77777777777778",
    "sourceurl": "http://blogs.mprnews.org/capitol-view/2013/06/gop-foes-of-warehouse-tax-want-special-session-repeal/?refid=0&utm_source=feedburner&utm_medium=feed&utm_campaign=Feed%3A+MPR_NewsFeatures+%28News+%26+Features+from+Minnesota+Public+Radio%29",
    "feature_id": "655030",
    "feature_name": "Minneapolis",
    "state_alpha": "MN",
    "county_name": "Hennepin",
    "county_numeric": "053",
    "prim_lat_dec": "44.9799654",
    "prim_long_dec": "-93.2638361",
    "elev_in_m": "253",
    "elev_in_ft": "830",
    "lat": 44.9799654,
    "long": -93.2638361
  },
  {
    "globaleventid": 257680605,
    "sqldate": 20130627,
    "monthyear": 201306,
    "year": 2013,
    "fractiondate": "2013.4849",
    "eventcode": 110,
    "quadclass": 3,
    "nummentions": 6,
    "numsources": 1,
    "numarticles": 6,
    "avgtone": "2.77777777777778",
    "sourceurl": "http://www.ctpost.com/news/article/Colorado-senator-challenging-recall-decision-4625042.php",
    "feature_id": "204797",
    "feature_name": "Colorado Springs",
    "state_alpha": "CO",
    "county_name": "El Paso",
    "county_numeric": "041",
    "prim_lat_dec": "38.8338816",
    "prim_long_dec": "-104.8213634",
    "elev_in_m": "1832",
    "elev_in_ft": "6010",
    "lat": 38.8338816,
    "long": -104.8213634
  },
  {
    "globaleventid": 257680604,
    "sqldate": 20130627,
    "monthyear": 201306,
    "year": 2013,
    "fractiondate": "2013.4849",
    "eventcode": 1014,
    "quadclass": 3,
    "nummentions": 1,
    "numsources": 1,
    "numarticles": 1,
    "avgtone": "2.04678362573099",
    "sourceurl": "http://www.hngn.com/articles/6378/20130627/aid-ecuador-questioned-u-s-amid-snowdens-asylum-bid-request.htm",
    "feature_id": "531871",
    "feature_name": "Washington",
    "state_alpha": "DC",
    "county_name": "District of Columbia",
    "county_numeric": "001",
    "prim_lat_dec": "38.8951118",
    "prim_long_dec": "-77.0363658",
    "elev_in_m": "7",
    "elev_in_ft": "23",
    "lat": 38.8951118,
    "long": -77.0363658
  },
  {
    "globaleventid": 257680602,
    "sqldate": 20130627,
    "monthyear": 201306,
    "year": 2013,
    "fractiondate": "2013.4849",
    "eventcode": 100,
    "quadclass": 3,
    "nummentions": 4,
    "numsources": 2,
    "numarticles": 4,
    "avgtone": "8.25220307134063",
    "sourceurl": "http://www.daily-chronicle.com/2013/06/26/illinois-activists-celebrate-gay-marriage-decision/auji0b9/",
    "feature_id": "423587",
    "feature_name": "Chicago",
    "state_alpha": "IL",
    "county_name": "Cook",
    "county_numeric": "031",
    "prim_lat_dec": "41.850033",
    "prim_long_dec": "-87.6500523",
    "elev_in_m": "179",
    "elev_in_ft": "587",
    "lat": 41.850033,
    "long": -87.6500523
  },
  {
    "globaleventid": 257680475,
    "sqldate": 20130627,
    "monthyear": 201306,
    "year": 2013,
    "fractiondate": "2013.4849",
    "eventcode": 152,
    "quadclass": 4,
    "nummentions": 10,
    "numsources": 1,
    "numarticles": 10,
    "avgtone": "2.67558528428094",
    "sourceurl": "http://www.businessweek.com/articles/2013-06-27/immigration-reform-is-a-good-look-for-this-apparel-giant",
    "feature_id": "1662328",
    "feature_name": "Los Angeles",
    "state_alpha": "CA",
    "county_name": "Los Angeles",
    "county_numeric": "037",
    "prim_lat_dec": "34.0522342",
    "prim_long_dec": "-118.2436849",
    "elev_in_m": "89",
    "elev_in_ft": "292",
    "lat": 34.0522342,
    "long": -118.2436849
  },
  {
    "globaleventid": 257680446,
    "sqldate": 20130627,
    "monthyear": 201306,
    "year": 2013,
    "fractiondate": "2013.4849",
    "eventcode": 190,
    "quadclass": 4,
    "nummentions": 6,
    "numsources": 1,
    "numarticles": 6,
    "avgtone": "3.59477124183007",
    "sourceurl": "http://www.huffingtonpost.com/2013/06/27/john-boehner-doma_n_3511124.html?utm_hp_ref=politics",
    "feature_id": "531871",
    "feature_name": "Washington",
    "state_alpha": "DC",
    "county_name": "District of Columbia",
    "county_numeric": "001",
    "prim_lat_dec": "38.8951118",
    "prim_long_dec": "-77.0363658",
    "elev_in_m": "7",
    "elev_in_ft": "23",
    "lat": 38.8951118,
    "long": -77.0363658
  },
  {
    "globaleventid": 257680415,
    "sqldate": 20130627,
    "monthyear": 201306,
    "year": 2013,
    "fractiondate": "2013.4849",
    "eventcode": 162,
    "quadclass": 4,
    "nummentions": 8,
    "numsources": 2,
    "numarticles": 8,
    "avgtone": "2.14593490494802",
    "sourceurl": "http://www.csmonitor.com/World/terrorism-security/2013/0627/Long-layover-Ecuador-says-it-could-take-two-months-to-decide-on-Snowden-s-asylum",
    "feature_id": "531871",
    "feature_name": "Washington",
    "state_alpha": "DC",
    "county_name": "District of Columbia",
    "county_numeric": "001",
    "prim_lat_dec": "38.8951118",
    "prim_long_dec": "-77.0363658",
    "elev_in_m": "7",
    "elev_in_ft": "23",
    "lat": 38.8951118,
    "long": -77.0363658
  },
  {
    "globaleventid": 257680245,
    "sqldate": 20130627,
    "monthyear": 201306,
    "year": 2013,
    "fractiondate": "2013.4849",
    "eventcode": 190,
    "quadclass": 4,
    "nummentions": 1,
    "numsources": 1,
    "numarticles": 1,
    "avgtone": "2.48366013071895",
    "sourceurl": "http://www.news24.com/Columnists/Simon-Williamson/Ding-Dong-DOMA-is-dead-20130627",
    "feature_id": "748198",
    "feature_name": "Kansas City",
    "state_alpha": "MO",
    "county_name": "Jackson",
    "county_numeric": "095",
    "prim_lat_dec": "39.0997266",
    "prim_long_dec": "-94.5785667",
    "elev_in_m": "274",
    "elev_in_ft": "899",
    "lat": 39.0997266,
    "long": -94.5785667
  },
  {
    "globaleventid": 257680239,
    "sqldate": 20130627,
    "monthyear": 201306,
    "year": 2013,
    "fractiondate": "2013.4849",
    "eventcode": 173,
    "quadclass": 4,
    "nummentions": 6,
    "numsources": 1,
    "numarticles": 6,
    "avgtone": "1.54738878143133",
    "sourceurl": "http://www.star-telegram.com/2013/06/27/4969113/couple-indicted-in-slaying-of.html",
    "feature_id": "1380944",
    "feature_name": "Dallas",
    "state_alpha": "TX",
    "county_name": "Dallas",
    "county_numeric": "113",
    "prim_lat_dec": "32.7830556",
    "prim_long_dec": "-96.8066667",
    "elev_in_m": "128",
    "elev_in_ft": "420",
    "lat": 32.7830556,
    "long": -96.8066667
  },
  {
    "globaleventid": 257680232,
    "sqldate": 20130627,
    "monthyear": 201306,
    "year": 2013,
    "fractiondate": "2013.4849",
    "eventcode": 173,
    "quadclass": 4,
    "nummentions": 2,
    "numsources": 1,
    "numarticles": 2,
    "avgtone": "4.24481737413623",
    "sourceurl": "http://www.idahostatejournal.com/news/local/article_3ac8a1cc-ded0-11e2-9bc9-001a4bcf887a.html",
    "feature_id": "531871",
    "feature_name": "Washington",
    "state_alpha": "DC",
    "county_name": "District of Columbia",
    "county_numeric": "001",
    "prim_lat_dec": "38.8951118",
    "prim_long_dec": "-77.0363658",
    "elev_in_m": "7",
    "elev_in_ft": "23",
    "lat": 38.8951118,
    "long": -77.0363658
  },
  {
    "globaleventid": 257680231,
    "sqldate": 20130627,
    "monthyear": 201306,
    "year": 2013,
    "fractiondate": "2013.4849",
    "eventcode": 173,
    "quadclass": 4,
    "nummentions": 2,
    "numsources": 1,
    "numarticles": 2,
    "avgtone": "4.31654676258993",
    "sourceurl": "http://www.ctpost.com/news/crime/article/Ex-Pontiac-councilman-sentenced-in-bribery-case-4625169.php",
    "feature_id": "209445",
    "feature_name": "Oakland",
    "state_alpha": "CT",
    "county_name": "Hartford",
    "county_numeric": "003",
    "prim_lat_dec": "41.8062098",
    "prim_long_dec": "-72.5178642",
    "elev_in_m": "63",
    "elev_in_ft": "207",
    "lat": 41.8062098,
    "long": -72.5178642
  },
  {
    "globaleventid": 257680230,
    "sqldate": 20130627,
    "monthyear": 201306,
    "year": 2013,
    "fractiondate": "2013.4849",
    "eventcode": 173,
    "quadclass": 4,
    "nummentions": 4,
    "numsources": 1,
    "numarticles": 4,
    "avgtone": "4.31654676258993",
    "sourceurl": "http://www.ctpost.com/news/crime/article/Ex-Pontiac-councilman-sentenced-in-bribery-case-4625169.php",
    "feature_id": "209445",
    "feature_name": "Oakland",
    "state_alpha": "CT",
    "county_name": "Hartford",
    "county_numeric": "003",
    "prim_lat_dec": "41.8062098",
    "prim_long_dec": "-72.5178642",
    "elev_in_m": "63",
    "elev_in_ft": "207",
    "lat": 41.8062098,
    "long": -72.5178642
  },
  {
    "globaleventid": 257680227,
    "sqldate": 20130627,
    "monthyear": 201306,
    "year": 2013,
    "fractiondate": "2013.4849",
    "eventcode": 130,
    "quadclass": 3,
    "nummentions": 4,
    "numsources": 1,
    "numarticles": 4,
    "avgtone": "1.35658914728682",
    "sourceurl": "http://www.usatoday.com/story/news/nation/2013/06/27/atf-stash-houses-sting-usa-today-investigation/2457109/?utm_source=feedburner&utm_medium=feed&utm_campaign=Feed%3A+UsatodaycomNation-TopStories+%28News+-+Nation+-+Top+Stories%29",
    "feature_id": "531871",
    "feature_name": "Washington",
    "state_alpha": "DC",
    "county_name": "District of Columbia",
    "county_numeric": "001",
    "prim_lat_dec": "38.8951118",
    "prim_long_dec": "-77.0363658",
    "elev_in_m": "7",
    "elev_in_ft": "23",
    "lat": 38.8951118,
    "long": -77.0363658
  },
  {
    "globaleventid": 257680215,
    "sqldate": 20130627,
    "monthyear": 201306,
    "year": 2013,
    "fractiondate": "2013.4849",
    "eventcode": 115,
    "quadclass": 3,
    "nummentions": 2,
    "numsources": 1,
    "numarticles": 2,
    "avgtone": "3.00429184549356",
    "sourceurl": "http://www.kansas.com/2013/06/27/2865774/lawsuit-challenges-kan-photo-id.html",
    "feature_id": "473862",
    "feature_name": "Wichita",
    "state_alpha": "KS",
    "county_name": "Sedgwick",
    "county_numeric": "173",
    "prim_lat_dec": "37.6922361",
    "prim_long_dec": "-97.3375448",
    "elev_in_m": "397",
    "elev_in_ft": "1302",
    "lat": 37.6922361,
    "long": -97.3375448
  },
  {
    "globaleventid": 257680214,
    "sqldate": 20130627,
    "monthyear": 201306,
    "year": 2013,
    "fractiondate": "2013.4849",
    "eventcode": 115,
    "quadclass": 3,
    "nummentions": 4,
    "numsources": 1,
    "numarticles": 4,
    "avgtone": "3.00429184549356",
    "sourceurl": "http://www.kansas.com/2013/06/27/2865774/lawsuit-challenges-kan-photo-id.html",
    "feature_id": "479465",
    "feature_name": "Overbrook",
    "state_alpha": "KS",
    "county_name": "Osage",
    "county_numeric": "139",
    "prim_lat_dec": "38.7805607",
    "prim_long_dec": "-95.5572026",
    "elev_in_m": "367",
    "elev_in_ft": "1204",
    "lat": 38.7805607,
    "long": -95.5572026
  },
  {
    "globaleventid": 257680213,
    "sqldate": 20130627,
    "monthyear": 201306,
    "year": 2013,
    "fractiondate": "2013.4849",
    "eventcode": 115,
    "quadclass": 3,
    "nummentions": 2,
    "numsources": 1,
    "numarticles": 2,
    "avgtone": "3.00429184549356",
    "sourceurl": "http://www.kansas.com/2013/06/27/2865774/lawsuit-challenges-kan-photo-id.html",
    "feature_id": "473862",
    "feature_name": "Wichita",
    "state_alpha": "KS",
    "county_name": "Sedgwick",
    "county_numeric": "173",
    "prim_lat_dec": "37.6922361",
    "prim_long_dec": "-97.3375448",
    "elev_in_m": "397",
    "elev_in_ft": "1302",
    "lat": 37.6922361,
    "long": -97.3375448
  },
  {
    "globaleventid": 257680209,
    "sqldate": 20130627,
    "monthyear": 201306,
    "year": 2013,
    "fractiondate": "2013.4849",
    "eventcode": 1821,
    "quadclass": 4,
    "nummentions": 6,
    "numsources": 1,
    "numarticles": 6,
    "avgtone": "2.4390243902439",
    "sourceurl": "http://www.dailyjournal.net/view/story/deba776a56684d8f8ccaa61fbc5158ff/RI--Police-Officer-Rape/",
    "feature_id": "1218334",
    "feature_name": "West Warwick",
    "state_alpha": "RI",
    "county_name": "Kent",
    "county_numeric": "003",
    "prim_lat_dec": "41.7062115",
    "prim_long_dec": "-71.5231165",
    "elev_in_m": "50",
    "elev_in_ft": "164",
    "lat": 41.7062115,
    "long": -71.5231165
  },
  {
    "globaleventid": 257680207,
    "sqldate": 20130627,
    "monthyear": 201306,
    "year": 2013,
    "fractiondate": "2013.4849",
    "eventcode": 1241,
    "quadclass": 3,
    "nummentions": 6,
    "numsources": 1,
    "numarticles": 6,
    "avgtone": "7.46268656716418",
    "sourceurl": "http://theworldlink.com/news/state-and-regional/appeal-in-ore-prison-chief-slaying-rejected/article_8c657e61-0b76-51cb-8706-ed67c060c45c.html",
    "feature_id": "1167861",
    "feature_name": "Salem",
    "state_alpha": "OR",
    "county_name": "Marion",
    "county_numeric": "047",
    "prim_lat_dec": "44.9428975",
    "prim_long_dec": "-123.0350963",
    "elev_in_m": "48",
    "elev_in_ft": "157",
    "lat": 44.9428975,
    "long": -123.0350963
  },
  {
    "globaleventid": 257680202,
    "sqldate": 20130627,
    "monthyear": 201306,
    "year": 2013,
    "fractiondate": "2013.4849",
    "eventcode": 193,
    "quadclass": 4,
    "nummentions": 1,
    "numsources": 1,
    "numarticles": 1,
    "avgtone": "2.65486725663717",
    "sourceurl": "http://www.dailyjournal.net/view/story/bb6943de053442e3888ad025fa182637/OR--Cold-Case-Charge/",
    "feature_id": "1167861",
    "feature_name": "Salem",
    "state_alpha": "OR",
    "county_name": "Marion",
    "county_numeric": "047",
    "prim_lat_dec": "44.9428975",
    "prim_long_dec": "-123.0350963",
    "elev_in_m": "48",
    "elev_in_ft": "157",
    "lat": 44.9428975,
    "long": -123.0350963
  },