[
  {
    "globaleventid": 267362494,
    "sqldate": 20130912,
    "monthyear": 201309,
    "year": 2013,
    "fractiondate": "2013.6904",
    "eventcode": 190,
    "quadclass": 4,
    "nummentions": 2,
    "numsources": 1,
    "numarticles": 2,
    "avgtone": "0.578034682080925",
    "sourceurl": "http://blog.al.com/spotnews/2013/09/center_point_firefighters_inve.html",
    "feature_id": "115851",
    "feature_name": "Center Point",
    "state_alpha": "AL",
    "county_name": "Clarke",
    "county_numeric": "025",
    "prim_lat_dec": "31.7884902",
    "prim_long_dec": "-88.0300078",
    "elev_in_m": "81",
    "elev_in_ft": "266",
    "lat": 31.7884902,
    "long": -88.0300078
  },
  {
    "globaleventid": 267362493,
    "sqldate": 20130912,
    "monthyear": 201309,
    "year": 2013,
    "fractiondate": "2013.6904",
    "eventcode": 190,
    "quadclass": 4,
    "nummentions": 10,
    "numsources": 1,
    "numarticles": 10,
    "avgtone": "1.20320855614973",
    "sourceurl": "http://www.tulsaworld.com/article.aspx/Study_cites_wind_energy_turbines_in_deaths_of_67_eagles/20130912_11_A13_CUTLIN264770?rss_lnk=11",
    "feature_id": "1096476",
    "feature_name": "Pawhuska",
    "state_alpha": "OK",
    "county_name": "Osage",
    "county_numeric": "113",
    "prim_lat_dec": "36.6678426",
    "prim_long_dec": "-96.3372309",
    "elev_in_m": "250",
    "elev_in_ft": "820",
    "lat": 36.6678426,
    "long": -96.3372309
  },
  {
    "globaleventid": 267362487,
    "sqldate": 20130912,
    "monthyear": 201309,
    "year": 2013,
    "fractiondate": "2013.6904",
    "eventcode": 186,
    "quadclass": 4,
    "nummentions": 12,
    "numsources": 6,
    "numarticles": 12,
    "avgtone": "2.41408277270085",
    "sourceurl": "http://www.truth-out.org/news/item/18789-giving-new-meaning-to-the-day-after-9-11-why-saying-no-to-syria-matters&c=z-KQdCSR5g6nFen28q9shyokL1gzHvhIdPn8oTkfyFE&mkt=en-us",
    "feature_id": "531871",
    "feature_name": "Washington",
    "state_alpha": "DC",
    "county_name": "District of Columbia",
    "county_numeric": "001",
    "prim_lat_dec": "38.8951118",
    "prim_long_dec": "-77.0363658",
    "elev_in_m": "7",
    "elev_in_ft": "23",
    "lat": 38.8951118,
    "long": -77.0363658
  },
  {
    "globaleventid": 267362486,
    "sqldate": 20130912,
    "monthyear": 201309,
    "year": 2013,
    "fractiondate": "2013.6904",
    "eventcode": 186,
    "quadclass": 4,
    "nummentions": 10,
    "numsources": 1,
    "numarticles": 10,
    "avgtone": "3.6144578313253",
    "sourceurl": "http://www.mysanantonio.com/news/article/Today-in-History-June-5-3608121.php",
    "feature_id": "1380951",
    "feature_name": "San Antonio",
    "state_alpha": "TX",
    "county_name": "Bexar",
    "county_numeric": "029",
    "prim_lat_dec": "29.4241219",
    "prim_long_dec": "-98.4936282",
    "elev_in_m": "198",
    "elev_in_ft": "650",
    "lat": 29.4241219,
    "long": -98.4936282
  },
  {
    "globaleventid": 267362480,
    "sqldate": 20130912,
    "monthyear": 201309,
    "year": 2013,
    "fractiondate": "2013.6904",
    "eventcode": 180,
    "quadclass": 4,
    "nummentions": 6,
    "numsources": 1,
    "numarticles": 6,
    "avgtone": "0.549450549450549",
    "sourceurl": "http://www.theroot.com/buzz/iowa-interracial-couples-home-set-ablaze-racist-attack",
    "feature_id": "455672",
    "feature_name": "Council Bluffs",
    "state_alpha": "IA",
    "county_name": "Pottawattamie",
    "county_numeric": "155",
    "prim_lat_dec": "41.2619444",
    "prim_long_dec": "-95.8608333",
    "elev_in_m": "301",
    "elev_in_ft": "988",
    "lat": 41.2619444,
    "long": -95.8608333
  },
  {
    "globaleventid": 267362465,
    "sqldate": 20130912,
    "monthyear": 201309,
    "year": 2013,
    "fractiondate": "2013.6904",
    "eventcode": 173,
    "quadclass": 4,
    "nummentions": 18,
    "numsources": 3,
    "numarticles": 18,
    "avgtone": "0.17921146953405",
    "sourceurl": "http://www.tribtown.com/view/story/cb9161623bf54018b492ef607e7d9fe4/PA--Rape-Case-Arrest",
    "feature_id": "944840",
    "feature_name": "Brooklyn",
    "state_alpha": "NY",
    "county_name": "Delaware",
    "county_numeric": "025",
    "prim_lat_dec": "42.3442482",
    "prim_long_dec": "-75.1704468",
    "elev_in_m": "366",
    "elev_in_ft": "1201",
    "lat": 42.3442482,
    "long": -75.1704468
  },
  {
    "globaleventid": 267362464,
    "sqldate": 20130912,
    "monthyear": 201309,
    "year": 2013,
    "fractiondate": "2013.6904",
    "eventcode": 173,
    "quadclass": 4,
    "nummentions": 90,
    "numsources": 7,
    "numarticles": 70,
    "avgtone": "0.835108546453766",
    "sourceurl": "http://www.kmbc.com/news/kansas-city/kc-man-pleads-guilty-in-child-porn-case/-/11664182/21904760/-/15ruisi/-/index.html?absolute=true",
    "feature_id": "748198",
    "feature_name": "Kansas City",
    "state_alpha": "MO",
    "county_name": "Jackson",
    "county_numeric": "095",
    "prim_lat_dec": "39.0997266",
    "prim_long_dec": "-94.5785667",
    "elev_in_m": "274",
    "elev_in_ft": "899",
    "lat": 39.0997266,
    "long": -94.5785667
  },
  {
    "globaleventid": 267362463,
    "sqldate": 20130912,
    "monthyear": 201309,
    "year": 2013,
    "fractiondate": "2013.6904",
    "eventcode": 173,
    "quadclass": 4,
    "nummentions": 8,
    "numsources": 1,
    "numarticles": 8,
    "avgtone": "1.16626997619857",
    "sourceurl": "http://oaklandtownship.patch.com/groups/around-town/p/woman-swindled-out-of-nearly-10000-by-internet-date_57f37d45",
    "feature_id": "638798",
    "feature_name": "Sterling Heights",
    "state_alpha": "MI",
    "county_name": "Macomb",
    "county_numeric": "099",
    "prim_lat_dec": "42.5803122",
    "prim_long_dec": "-83.0302033",
    "elev_in_m": "187",
    "elev_in_ft": "614",
    "lat": 42.5803122,
    "long": -83.0302033
  },
  {
    "globaleventid": 267362462,
    "sqldate": 20130912,
    "monthyear": 201309,
    "year": 2013,
    "fractiondate": "2013.6904",
    "eventcode": 173,
    "quadclass": 4,
    "nummentions": 8,
    "numsources": 1,
    "numarticles": 8,
    "avgtone": "1.16626997619857",
    "sourceurl": "http://oaklandtownship.patch.com/groups/around-town/p/woman-swindled-out-of-nearly-10000-by-internet-date_57f37d45",
    "feature_id": "638798",
    "feature_name": "Sterling Heights",
    "state_alpha": "MI",
    "county_name": "Macomb",
    "county_numeric": "099",
    "prim_lat_dec": "42.5803122",
    "prim_long_dec": "-83.0302033",
    "elev_in_m": "187",
    "elev_in_ft": "614",
    "lat": 42.5803122,
    "long": -83.0302033
  },
  {
    "globaleventid": 267362461,
    "sqldate": 20130912,
    "monthyear": 201309,
    "year": 2013,
    "fractiondate": "2013.6904",
    "eventcode": 173,
    "quadclass": 4,
    "nummentions": 2,
    "numsources": 1,
    "numarticles": 2,
    "avgtone": "1.15473441108545",
    "sourceurl": "http://www.allvoices.com/contributed-news/15519073-bostonarea-man-who-plotted-to-kidnap-torture-eat-children-set-for-sentencing",
    "feature_id": "617565",
    "feature_name": "Boston",
    "state_alpha": "MA",
    "county_name": "Suffolk",
    "county_numeric": "025",
    "prim_lat_dec": "42.3584308",
    "prim_long_dec": "-71.0597732",
    "elev_in_m": "14",
    "elev_in_ft": "46",
    "lat": 42.3584308,
    "long": -71.0597732
  },
  {
    "globaleventid": 267362460,
    "sqldate": 20130912,
    "monthyear": 201309,
    "year": 2013,
    "fractiondate": "2013.6904",
    "eventcode": 173,
    "quadclass": 4,
    "nummentions": 2,
    "numsources": 1,
    "numarticles": 2,
    "avgtone": "1.13636363636364",
    "sourceurl": "http://www.boston.com/news/education/2013/09/12/ore-judge-rejects-new-sentence-for-school-shooter/mOEZyR0Q2kT2CTwg50zonN/story.html",
    "feature_id": "614337",
    "feature_name": "Salem",
    "state_alpha": "MA",
    "county_name": "Essex",
    "county_numeric": "009",
    "prim_lat_dec": "42.51954",
    "prim_long_dec": "-70.8967155",
    "elev_in_m": "4",
    "elev_in_ft": "13",
    "lat": 42.51954,
    "long": -70.8967155
  },
  {
    "globaleventid": 267362459,
    "sqldate": 20130912,
    "monthyear": 201309,
    "year": 2013,
    "fractiondate": "2013.6904",
    "eventcode": 173,
    "quadclass": 4,
    "nummentions": 4,
    "numsources": 2,
    "numarticles": 4,
    "avgtone": "2.91854132133554",
    "sourceurl": "http://www.abc6.com/story/23414248/missing-mass-teen-found-safe-in-ri",
    "feature_id": "611950",
    "feature_name": "Medfield",
    "state_alpha": "MA",
    "county_name": "Norfolk",
    "county_numeric": "021",
    "prim_lat_dec": "42.1875979",
    "prim_long_dec": "-71.3064454",
    "elev_in_m": "57",
    "elev_in_ft": "187",
    "lat": 42.1875979,
    "long": -71.3064454
  },
  {
    "globaleventid": 267362458,
    "sqldate": 20130912,
    "monthyear": 201309,
    "year": 2013,
    "fractiondate": "2013.6904",
    "eventcode": 173,
    "quadclass": 4,
    "nummentions": 2,
    "numsources": 1,
    "numarticles": 2,
    "avgtone": "0.533333333333333",
    "sourceurl": "http://www.boston.com/news/local/massachusetts/2013/09/12/head-fbi-boston-office-facing-ethics-charge/MN8ghd1WoL8rUuZ2vFII2H/story.html",
    "feature_id": "611347",
    "feature_name": "Hopkinton",
    "state_alpha": "MA",
    "county_name": "Middlesex",
    "county_numeric": "017",
    "prim_lat_dec": "42.2287065",
    "prim_long_dec": "-71.5225638",
    "elev_in_m": "133",
    "elev_in_ft": "436",
    "lat": 42.2287065,
    "long": -71.5225638
  },
  {
    "globaleventid": 267362457,
    "sqldate": 20130912,
    "monthyear": 201309,
    "year": 2013,
    "fractiondate": "2013.6904",
    "eventcode": 173,
    "quadclass": 4,
    "nummentions": 2,
    "numsources": 1,
    "numarticles": 2,
    "avgtone": "0.899550224887556",
    "sourceurl": "http://www.opednews.com/articles/Don-t-Forget-the-Prisoners-by-Ann-Wright-Activists_Guantanamo-Prison_Prisoners_Solidarity-130912-236.html&c=KIIurB1vqGtqa2pxsmkkBZnzmeLf2eo6VGgIDsXCeWE&mkt=en-us",
    "feature_id": "531871",
    "feature_name": "Washington",
    "state_alpha": "DC",
    "county_name": "District of Columbia",
    "county_numeric": "001",
    "prim_lat_dec": "38.8951118",
    "prim_long_dec": "-77.0363658",
    "elev_in_m": "7",
    "elev_in_ft": "23",
    "lat": 38.8951118,
    "long": -77.0363658
  },
  {
    "globaleventid": 267362452,
    "sqldate": 20130912,
    "monthyear": 201309,
    "year": 2013,
    "fractiondate": "2013.6904",
    "eventcode": 173,
    "quadclass": 4,
    "nummentions": 2,
    "numsources": 1,
    "numarticles": 2,
    "avgtone": "0.72202166064982",
    "sourceurl": "http://www.latimes.com/local/lanow/la-me-ln-3-arrested-burning-body-20130911,0,3594183.story",
    "feature_id": "1662328",
    "feature_name": "Los Angeles",
    "state_alpha": "CA",
    "county_name": "Los Angeles",
    "county_numeric": "037",
    "prim_lat_dec": "34.0522342",
    "prim_long_dec": "-118.2436849",
    "elev_in_m": "89",
    "elev_in_ft": "292",
    "lat": 34.0522342,
    "long": -118.2436849
  },
  {
    "globaleventid": 267362450,
    "sqldate": 20130912,
    "monthyear": 201309,
    "year": 2013,
    "fractiondate": "2013.6904",
    "eventcode": 173,
    "quadclass": 4,
    "nummentions": 6,
    "numsources": 1,
    "numarticles": 6,
    "avgtone": "1.28205128205128",
    "sourceurl": "http://www.mysanantonio.com/news/article/Today-in-history-Dec-17-4119592.php",
    "feature_id": "1659564",
    "feature_name": "Sacramento",
    "state_alpha": "CA",
    "county_name": "Sacramento",
    "county_numeric": "067",
    "prim_lat_dec": "38.5815719",
    "prim_long_dec": "-121.4943996",
    "elev_in_m": "8",
    "elev_in_ft": "26",
    "lat": 38.5815719,
    "long": -121.4943996
  },
  {
    "globaleventid": 267362449,
    "sqldate": 20130912,
    "monthyear": 201309,
    "year": 2013,
    "fractiondate": "2013.6904",
    "eventcode": 173,
    "quadclass": 4,
    "nummentions": 2,
    "numsources": 1,
    "numarticles": 2,
    "avgtone": "1.48662041625372",
    "sourceurl": "http://www.mcclatchydc.com/2013/09/12/201884/jfk-50-years-later-theres-still.html",
    "feature_id": "1380944",
    "feature_name": "Dallas",
    "state_alpha": "TX",
    "county_name": "Dallas",
    "county_numeric": "113",
    "prim_lat_dec": "32.7830556",
    "prim_long_dec": "-96.8066667",
    "elev_in_m": "128",
    "elev_in_ft": "420",
    "lat": 32.7830556,
    "long": -96.8066667
  },
  {
    "globaleventid": 267362448,
    "sqldate": 20130912,
    "monthyear": 201309,
    "year": 2013,
    "fractiondate": "2013.6904",
    "eventcode": 173,
    "quadclass": 4,
    "nummentions": 2,
    "numsources": 1,
    "numarticles": 2,
    "avgtone": "1.48662041625372",
    "sourceurl": "http://www.mcclatchydc.com/2013/09/12/201884/jfk-50-years-later-theres-still.html",
    "feature_id": "1380944",
    "feature_name": "Dallas",
    "state_alpha": "TX",
    "county_name": "Dallas",
    "county_numeric": "113",
    "prim_lat_dec": "32.7830556",
    "prim_long_dec": "-96.8066667",
    "elev_in_m": "128",
    "elev_in_ft": "420",
    "lat": 32.7830556,
    "long": -96.8066667
  },
  {
    "globaleventid": 267362447,
    "sqldate": 20130912,
    "monthyear": 201309,
    "year": 2013,
    "fractiondate": "2013.6904",
    "eventcode": 173,
    "quadclass": 4,
    "nummentions": 4,
    "numsources": 1,
    "numarticles": 4,
    "avgtone": "1.11607142857143",
    "sourceurl": "http://www.wral.com/two-more-suspects-arrested-in-fayetteville-convenience-store-killing/12879654/",
    "feature_id": "1357269",
    "feature_name": "Fayetteville",
    "state_alpha": "TX",
    "county_name": "Fayette",
    "county_numeric": "149",
    "prim_lat_dec": "29.9057817",
    "prim_long_dec": "-96.6727528",
    "elev_in_m": "121",
    "elev_in_ft": "397",
    "lat": 29.9057817,
    "long": -96.6727528
  },
  {
    "globaleventid": 267362446,
    "sqldate": 20130912,
    "monthyear": 201309,
    "year": 2013,
    "fractiondate": "2013.6904",
    "eventcode": 173,
    "quadclass": 4,
    "nummentions": 4,
    "numsources": 1,
    "numarticles": 4,
    "avgtone": "0.411522633744856",
    "sourceurl": "http://www.wbir.com/story/news/local/fentress-cumberland/2013/09/12/deputies-shoot-teen-after-she-steals-patrol-car/2803367/",
    "feature_id": "1314853",
    "feature_name": "Claysville",
    "state_alpha": "TN",
    "county_name": "Cumberland",
    "county_numeric": "035",
    "prim_lat_dec": "35.9692333",
    "prim_long_dec": "-85.1494079",
    "elev_in_m": "529",
    "elev_in_ft": "1736",
    "lat": 35.9692333,
    "long": -85.1494079
  },
  {
    "globaleventid": 267362445,
    "sqldate": 20130912,
    "monthyear": 201309,
    "year": 2013,
    "fractiondate": "2013.6904",
    "eventcode": 173,
    "quadclass": 4,
    "nummentions": 16,
    "numsources": 8,
    "numarticles": 16,
    "avgtone": "1.22874759149674",
    "sourceurl": "http://abcnews.go.com/US/wireStory/ore-judge-rejects-sentence-school-shooter-20244057",
    "feature_id": "1167861",
    "feature_name": "Salem",
    "state_alpha": "OR",
    "county_name": "Marion",
    "county_numeric": "047",
    "prim_lat_dec": "44.9428975",
    "prim_long_dec": "-123.0350963",
    "elev_in_m": "48",
    "elev_in_ft": "157",
    "lat": 44.9428975,
    "long": -123.0350963
  },
  {
    "globaleventid": 267362444,
    "sqldate": 20130912,
    "monthyear": 201309,
    "year": 2013,
    "fractiondate": "2013.6904",
    "eventcode": 173,
    "quadclass": 4,
    "nummentions": 4,
    "numsources": 1,
    "numarticles": 4,
    "avgtone": "1.01010101010101",
    "sourceurl": "http://www.centraljersey.com/articles/2013/09/12/the_lawrence_ledger/news/doc52153345e6bff993309662.txt",
    "feature_id": "1061703",
    "feature_name": "Trenton",
    "state_alpha": "OH",
    "county_name": "Butler",
    "county_numeric": "017",
    "prim_lat_dec": "39.4808905",
    "prim_long_dec": "-84.4577222",
    "elev_in_m": "198",
    "elev_in_ft": "650",
    "lat": 39.4808905,
    "long": -84.4577222
  },
  {
    "globaleventid": 267362443,
    "sqldate": 20130912,
    "monthyear": 201309,
    "year": 2013,
    "fractiondate": "2013.6904",
    "eventcode": 173,
    "quadclass": 4,
    "nummentions": 10,
    "numsources": 2,
    "numarticles": 10,
    "avgtone": "1.62952646239554",
    "sourceurl": "http://www.charlotteobserver.com/2013/09/12/4307223/2-arrested-after-york-county-meth.html",
    "feature_id": "1019610",
    "feature_name": "Charlotte",
    "state_alpha": "NC",
    "county_name": "Mecklenburg",
    "county_numeric": "119",
    "prim_lat_dec": "35.2270869",
    "prim_long_dec": "-80.8431268",
    "elev_in_m": "232",
    "elev_in_ft": "761",
    "lat": 35.2270869,
    "long": -80.8431268
  },
  {
    "globaleventid": 267362439,
    "sqldate": 20130912,
    "monthyear": 201309,
    "year": 2013,
    "fractiondate": "2013.6904",
    "eventcode": 1724,
    "quadclass": 4,
    "nummentions": 2,
    "numsources": 1,
    "numarticles": 2,
    "avgtone": "1.07084019769358",
    "sourceurl": "http://www.denverpost.com/breakingnews/ci_24072748/longmont-evacuates-residents-along-st-vrain-river",
    "feature_id": "202560",
    "feature_name": "Longmont",
    "state_alpha": "CO",
    "county_name": "Boulder",
    "county_numeric": "013",
    "prim_lat_dec": "40.1672069",
    "prim_long_dec": "-105.1019275",
    "elev_in_m": "1519",
    "elev_in_ft": "4984",
    "lat": 40.1672069,
    "long": -105.1019275
  },
  {
    "globaleventid": 267362437,
    "sqldate": 20130912,
    "monthyear": 201309,
    "year": 2013,
    "fractiondate": "2013.6904",
    "eventcode": 172,
    "quadclass": 4,
    "nummentions": 1,
    "numsources": 1,
    "numarticles": 1,
    "avgtone": "2.94117647058824",
    "sourceurl": "http://overlawyered.com/2013/09/speaking-nanny-state-food-policy/",
    "feature_id": "277593",
    "feature_name": "San Francisco",
    "state_alpha": "CA",
    "county_name": "San Francisco",
    "county_numeric": "075",
    "prim_lat_dec": "37.775",
    "prim_long_dec": "-122.4194444",
    "elev_in_m": "16",
    "elev_in_ft": "52",
    "lat": 37.775,
    "long": -122.4194444
  },
  {
    "globaleventid": 267362434,
    "sqldate": 20130912,
    "monthyear": 201309,
    "year": 2013,
    "fractiondate": "2013.6904",
    "eventcode": 172,
    "quadclass": 4,
    "nummentions": 4,
    "numsources": 1,
    "numarticles": 4,
    "avgtone": "0.600600600600601",
    "sourceurl": "http://abclocal.go.com/kgo/story?section=news/local/san_francisco&id=9246411",
    "feature_id": "277593",
    "feature_name": "San Francisco",
    "state_alpha": "CA",
    "county_name": "San Francisco",
    "county_numeric": "075",
    "prim_lat_dec": "37.775",
    "prim_long_dec": "-122.4194444",
    "elev_in_m": "16",
    "elev_in_ft": "52",
    "lat": 37.775,
    "long": -122.4194444
  },
  {
    "globaleventid": 267362429,
    "sqldate": 20130912,
    "monthyear": 201309,
    "year": 2013,
    "fractiondate": "2013.6904",
    "eventcode": 1712,
    "quadclass": 4,
    "nummentions": 20,
    "numsources": 1,
    "numarticles": 20,
    "avgtone": "1.48148148148148",
    "sourceurl": "http://www.freep.com/article/20130912/NEWS06/309120078/Vandalism-reported-Michigan-memorial-shooting-victims",
    "feature_id": "629079",
    "feature_name": "Iron Mountain",
    "state_alpha": "MI",
    "county_name": "Dickinson",
    "county_numeric": "043",
    "prim_lat_dec": "45.8202334",
    "prim_long_dec": "-88.0659603",
    "elev_in_m": "346",
    "elev_in_ft": "1135",
    "lat": 45.8202334,
    "long": -88.0659603
  },
  {
    "globaleventid": 267362426,
    "sqldate": 20130912,
    "monthyear": 201309,
    "year": 2013,
    "fractiondate": "2013.6904",
    "eventcode": 1711,
    "quadclass": 4,
    "nummentions": 4,
    "numsources": 1,
    "numarticles": 4,
    "avgtone": "1.85185185185185",
    "sourceurl": "http://wcsi.whiterivernews.com/templates/localnews_temp.asp?id=7885&storyno=1",
    "feature_id": "432826",
    "feature_name": "Columbus",
    "state_alpha": "IN",
    "county_name": "Bartholomew",
    "county_numeric": "005",
    "prim_lat_dec": "39.2014405",
    "prim_long_dec": "-85.9213796",
    "elev_in_m": "192",
    "elev_in_ft": "630",
    "lat": 39.2014405,
    "long": -85.9213796
  },
  {
    "globaleventid": 267362415,
    "sqldate": 20130912,
    "monthyear": 201309,
    "year": 2013,
    "fractiondate": "2013.6904",
    "eventcode": 138,
    "quadclass": 3,
    "nummentions": 5,
    "numsources": 1,
    "numarticles": 5,
    "avgtone": "2.66272189349112",
    "sourceurl": "http://www.masslive.com/news/index.ssf/2013/09/three_easthampton_mayoral_cand.html",
    "feature_id": "617565",
    "feature_name": "Boston",
    "state_alpha": "MA",
    "county_name": "Suffolk",
    "county_numeric": "025",
    "prim_lat_dec": "42.3584308",
    "prim_long_dec": "-71.0597732",
    "elev_in_m": "14",
    "elev_in_ft": "46",
    "lat": 42.3584308,
    "long": -71.0597732
  },
  {
    "globaleventid": 267362406,
    "sqldate": 20130912,
    "monthyear": 201309,
    "year": 2013,
    "fractiondate": "2013.6904",
    "eventcode": 130,
    "quadclass": 3,
    "nummentions": 16,
    "numsources": 4,
    "numarticles": 16,
    "avgtone": "2.97428614184452",
    "sourceurl": "http://www.cnn.com/2013/09/12/politics/israel-syria-outreach/index.html?utm_source=feedburner&utm_medium=feed&utm_campaign=Feed%3A+rss%2Fcnn_allpolitics+%28RSS%3A+Politics%29",
    "feature_id": "531871",
    "feature_name": "Washington",
    "state_alpha": "DC",
    "county_name": "District of Columbia",
    "county_numeric": "001",
    "prim_lat_dec": "38.8951118",
    "prim_long_dec": "-77.0363658",
    "elev_in_m": "7",
    "elev_in_ft": "23",
    "lat": 38.8951118,
    "long": -77.0363658
  },
  {
    "globaleventid": 267362405,
    "sqldate": 20130912,
    "monthyear": 201309,
    "year": 2013,
    "fractiondate": "2013.6904",
    "eventcode": 130,
    "quadclass": 3,
    "nummentions": 1,
    "numsources": 1,
    "numarticles": 1,
    "avgtone": "1.44628099173554",
    "sourceurl": "http://www.yourdefencenews.com/lockheed+martin+announces+german+variant+meads+launcher+arrives+for+integration+into+flight+test+configuration_94032.html",
    "feature_id": "288240",
    "feature_name": "Orlando",
    "state_alpha": "FL",
    "county_name": "Orange",
    "county_numeric": "095",
    "prim_lat_dec": "28.5383355",
    "prim_long_dec": "-81.3792365",
    "elev_in_m": "31",
    "elev_in_ft": "102",
    "lat": 28.5383355,
    "long": -81.3792365
  },
  {
    "globaleventid": 267362404,
    "sqldate": 20130912,
    "monthyear": 201309,
    "year": 2013,
    "fractiondate": "2013.6904",
    "eventcode": 130,
    "quadclass": 3,
    "nummentions": 5,
    "numsources": 1,
    "numarticles": 5,
    "avgtone": "2.02020202020202",
    "sourceurl": "http://www.washingtontimes.com/news/2013/sep/12/coal-returns-as-a-virginia-campaign-issue/",
    "feature_id": "277593",
    "feature_name": "San Francisco",
    "state_alpha": "CA",
    "county_name": "San Francisco",
    "county_numeric": "075",
    "prim_lat_dec": "37.775",
    "prim_long_dec": "-122.4194444",
    "elev_in_m": "16",
    "elev_in_ft": "52",
    "lat": 37.775,
    "long": -122.4194444
  },
  {
    "globaleventid": 267362403,
    "sqldate": 20130912,
    "monthyear": 201309,
    "year": 2013,
    "fractiondate": "2013.6904",
    "eventcode": 130,
    "quadclass": 3,
    "nummentions": 2,
    "numsources": 1,
    "numarticles": 2,
    "avgtone": "0.50251256281407",
    "sourceurl": "http://www.coloradostar.com/index.php/sid/217009024/scat/c5561a463525350d",
    "feature_id": "201738",
    "feature_name": "Denver",
    "state_alpha": "CO",
    "county_name": "Denver",
    "county_numeric": "031",
    "prim_lat_dec": "39.7391536",
    "prim_long_dec": "-104.9847034",
    "elev_in_m": "1609",
    "elev_in_ft": "5279",
    "lat": 39.7391536,
    "long": -104.9847034
  },
  {
    "globaleventid": 267362402,
    "sqldate": 20130912,
    "monthyear": 201309,
    "year": 2013,
    "fractiondate": "2013.6904",
    "eventcode": 130,
    "quadclass": 3,
    "nummentions": 8,
    "numsources": 2,
    "numarticles": 8,
    "avgtone": "0.789585267186945",
    "sourceurl": "http://cnsnews.com/news/article/feds-ex-tsa-screener-acted-alone-threats-case",
    "feature_id": "1061611",
    "feature_name": "Riverside",
    "state_alpha": "OH",
    "county_name": "Hamilton",
    "county_numeric": "061",
    "prim_lat_dec": "39.0775598",
    "prim_long_dec": "-84.6030001",
    "elev_in_m": "153",
    "elev_in_ft": "502",
    "lat": 39.0775598,
    "long": -84.6030001
  },
  {
    "globaleventid": 267362389,
    "sqldate": 20130912,
    "monthyear": 201309,
    "year": 2013,
    "fractiondate": "2013.6904",
    "eventcode": 129,
    "quadclass": 3,
    "nummentions": 1,
    "numsources": 1,
    "numarticles": 1,
    "avgtone": "2.62206148282098",
    "sourceurl": "http://www.lsjournal.com/2013/09/12/105211/failed-veto-override-applauded.html",
    "feature_id": "758233",
    "feature_name": "Jefferson City",
    "state_alpha": "MO",
    "county_name": "Cole",
    "county_numeric": "051",
    "prim_lat_dec": "38.5767017",
    "prim_long_dec": "-92.1735164",
    "elev_in_m": "192",
    "elev_in_ft": "630",
    "lat": 38.5767017,
    "long": -92.1735164
  },
  {
    "globaleventid": 267362386,
    "sqldate": 20130912,
    "monthyear": 201309,
    "year": 2013,
    "fractiondate": "2013.6904",
    "eventcode": 129,
    "quadclass": 3,
    "nummentions": 11,
    "numsources": 1,
    "numarticles": 6,
    "avgtone": "2.62206148282098",
    "sourceurl": "http://www.lsjournal.com/2013/09/12/105211/failed-veto-override-applauded.html",
    "feature_id": "758233",
    "feature_name": "Jefferson City",
    "state_alpha": "MO",
    "county_name": "Cole",
    "county_numeric": "051",
    "prim_lat_dec": "38.5767017",
    "prim_long_dec": "-92.1735164",
    "elev_in_m": "192",
    "elev_in_ft": "630",
    "lat": 38.5767017,
    "long": -92.1735164
  },
  {
    "globaleventid": 267362385,
    "sqldate": 20130912,
    "monthyear": 201309,
    "year": 2013,
    "fractiondate": "2013.6904",
    "eventcode": 129,
    "quadclass": 3,
    "nummentions": 16,
    "numsources": 3,
    "numarticles": 16,
    "avgtone": "2.44797313096311",
    "sourceurl": "http://www.washingtonpost.com/local/dc-politics/mayor-gray-vetoes-living-wage-bill-aimed-at-wal-mart-setting-up-decisive-council-vote/2013/09/12/664d7310-077d-11e3-a07f-49ddc7417125_story.html?wprss=rss_dc-news",
    "feature_id": "531871",
    "feature_name": "Washington",
    "state_alpha": "DC",
    "county_name": "District of Columbia",
    "county_numeric": "001",
    "prim_lat_dec": "38.8951118",
    "prim_long_dec": "-77.0363658",
    "elev_in_m": "7",
    "elev_in_ft": "23",
    "lat": 38.8951118,
    "long": -77.0363658
  },
  {
    "globaleventid": 267362384,
    "sqldate": 20130912,
    "monthyear": 201309,
    "year": 2013,
    "fractiondate": "2013.6904",
    "eventcode": 129,
    "quadclass": 3,
    "nummentions": 2,
    "numsources": 1,
    "numarticles": 2,
    "avgtone": "2.17917675544794",
    "sourceurl": "http://www.upi.com/blog/2013/09/12/DC-mayor-vetoes-living-wage-bill/1581379006301/",
    "feature_id": "423587",
    "feature_name": "Chicago",
    "state_alpha": "IL",
    "county_name": "Cook",
    "county_numeric": "031",
    "prim_lat_dec": "41.850033",
    "prim_long_dec": "-87.6500523",
    "elev_in_m": "179",
    "elev_in_ft": "587",
    "lat": 41.850033,
    "long": -87.6500523
  },
  {
    "globaleventid": 267362374,
    "sqldate": 20130912,
    "monthyear": 201309,
    "year": 2013,
    "fractiondate": "2013.6904",
    "eventcode": 124,
    "quadclass": 3,
    "nummentions": 6,
    "numsources": 3,
    "numarticles": 6,
    "avgtone": "2.23579698822684",
    "sourceurl": "http://www.tribtown.com/view/story/30b0039bfed0439bbc76881135b5b339/US--Czech-US-Murder-Suspect",
    "feature_id": "1659544",
    "feature_name": "Roseville",
    "state_alpha": "CA",
    "county_name": "Placer",
    "county_numeric": "061",
    "prim_lat_dec": "38.7521235",
    "prim_long_dec": "-121.2880059",
    "elev_in_m": "50",
    "elev_in_ft": "164",
    "lat": 38.7521235,
    "long": -121.2880059
  },
  {
    "globaleventid": 267362373,
    "sqldate": 20130912,
    "monthyear": 201309,
    "year": 2013,
    "fractiondate": "2013.6904",
    "eventcode": 122,
    "quadclass": 3,
    "nummentions": 24,
    "numsources": 2,
    "numarticles": 24,
    "avgtone": "0.791701583162408",
    "sourceurl": "http://www.irishsun.com/index.php/sid/217038628/scat/2411cd3571b4f088",
    "feature_id": "204797",
    "feature_name": "Colorado Springs",
    "state_alpha": "CO",
    "county_name": "El Paso",
    "county_numeric": "041",
    "prim_lat_dec": "38.8338816",
    "prim_long_dec": "-104.8213634",
    "elev_in_m": "1832",
    "elev_in_ft": "6010",
    "lat": 38.8338816,
    "long": -104.8213634
  },
  {
    "globaleventid": 267362372,
    "sqldate": 20130912,
    "monthyear": 201309,
    "year": 2013,
    "fractiondate": "2013.6904",
    "eventcode": 122,
    "quadclass": 3,
    "nummentions": 4,
    "numsources": 2,
    "numarticles": 4,
    "avgtone": "1.73474440933239",
    "sourceurl": "http://wgntv.com/2013/09/12/atleast-3-dead-in-colorado-flooding/",
    "feature_id": "178680",
    "feature_name": "Boulder",
    "state_alpha": "CO",
    "county_name": "Boulder",
    "county_numeric": "013",
    "prim_lat_dec": "40.0149856",
    "prim_long_dec": "-105.2705456",
    "elev_in_m": "1624",
    "elev_in_ft": "5328",
    "lat": 40.0149856,
    "long": -105.2705456
  },
  {
    "globaleventid": 267362371,
    "sqldate": 20130912,
    "monthyear": 201309,
    "year": 2013,
    "fractiondate": "2013.6904",
    "eventcode": 122,
    "quadclass": 3,
    "nummentions": 8,
    "numsources": 2,
    "numarticles": 8,
    "avgtone": "1.73474440933239",
    "sourceurl": "http://wgntv.com/2013/09/12/atleast-3-dead-in-colorado-flooding/",
    "feature_id": "178680",
    "feature_name": "Boulder",
    "state_alpha": "CO",
    "county_name": "Boulder",
    "county_numeric": "013",
    "prim_lat_dec": "40.0149856",
    "prim_long_dec": "-105.2705456",
    "elev_in_m": "1624",
    "elev_in_ft": "5328",
    "lat": 40.0149856,
    "long": -105.2705456
  },
  {
    "globaleventid": 267362361,
    "sqldate": 20130912,
    "monthyear": 201309,
    "year": 2013,
    "fractiondate": "2013.6904",
    "eventcode": 120,
    "quadclass": 3,
    "nummentions": 3,
    "numsources": 1,
    "numarticles": 3,
    "avgtone": "3.2051282051282",
    "sourceurl": "http://www.capecodtoday.com/article/2013/09/12/21606-se-mass-rep-calls-legislators-block-tribes-compact-just-approved-committee",
    "feature_id": "615624",
    "feature_name": "Mashpee",
    "state_alpha": "MA",
    "county_name": "Barnstable",
    "county_numeric": "001",
    "prim_lat_dec": "41.6484421",
    "prim_long_dec": "-70.4811383",
    "elev_in_m": "21",
    "elev_in_ft": "69",
    "lat": 41.6484421,
    "long": -70.4811383
  },
  {
    "globaleventid": 267362360,
    "sqldate": 20130912,
    "monthyear": 201309,
    "year": 2013,
    "fractiondate": "2013.6904",
    "eventcode": 120,
    "quadclass": 3,
    "nummentions": 362,
    "numsources": 6,
    "numarticles": 362,
    "avgtone": "0.887369968847141",
    "sourceurl": "http://au.news.yahoo.com/sa/latest/a/-/article/18907276/brazils-rousseff-targets-internet-companies-after-nsa-spying/",
    "feature_id": "531871",
    "feature_name": "Washington",
    "state_alpha": "DC",
    "county_name": "District of Columbia",
    "county_numeric": "001",
    "prim_lat_dec": "38.8951118",
    "prim_long_dec": "-77.0363658",
    "elev_in_m": "7",
    "elev_in_ft": "23",
    "lat": 38.8951118,
    "long": -77.0363658
  },
  {
    "globaleventid": 267362359,
    "sqldate": 20130912,
    "monthyear": 201309,
    "year": 2013,
    "fractiondate": "2013.6904",
    "eventcode": 120,
    "quadclass": 3,
    "nummentions": 2,
    "numsources": 1,
    "numarticles": 2,
    "avgtone": "2.33333333333333",
    "sourceurl": "http://www.nwherald.com/2013/09/11/our-view-time-to-show-them-the-door/a8hw5v3/",
    "feature_id": "426595",
    "feature_name": "Springfield",
    "state_alpha": "IL",
    "county_name": "Sangamon",
    "county_numeric": "167",
    "prim_lat_dec": "39.8017171",
    "prim_long_dec": "-89.6437107",
    "elev_in_m": "183",
    "elev_in_ft": "600",
    "lat": 39.8017171,
    "long": -89.6437107
  },
  {
    "globaleventid": 267362352,
    "sqldate": 20130912,
    "monthyear": 201309,
    "year": 2013,
    "fractiondate": "2013.6904",
    "eventcode": 114,
    "quadclass": 3,
    "nummentions": 12,
    "numsources": 2,
    "numarticles": 12,
    "avgtone": "1.89941895411741",
    "sourceurl": "http://www.wdef.com/news/state/story/King-Center-move-legacy-dispute-to-federal-court/uCky7UjCYU2Ue6w0-X4qOQ.cspx",
    "feature_id": "351615",
    "feature_name": "Atlanta",
    "state_alpha": "GA",
    "county_name": "Fulton",
    "county_numeric": "121",
    "prim_lat_dec": "33.7489954",
    "prim_long_dec": "-84.3879824",
    "elev_in_m": "320",
    "elev_in_ft": "1050",
    "lat": 33.7489954,
    "long": -84.3879824
  },
  {
    "globaleventid": 267362349,
    "sqldate": 20130912,
    "monthyear": 201309,
    "year": 2013,
    "fractiondate": "2013.6904",
    "eventcode": 1124,
    "quadclass": 3,
    "nummentions": 6,
    "numsources": 3,
    "numarticles": 6,
    "avgtone": "2.23579698822684",
    "sourceurl": "http://www.tribtown.com/view/story/30b0039bfed0439bbc76881135b5b339/US--Czech-US-Murder-Suspect",
    "feature_id": "1659544",
    "feature_name": "Roseville",
    "state_alpha": "CA",
    "county_name": "Placer",
    "county_numeric": "061",
    "prim_lat_dec": "38.7521235",
    "prim_long_dec": "-121.2880059",
    "elev_in_m": "50",
    "elev_in_ft": "164",
    "lat": 38.7521235,
    "long": -121.2880059
  },
  {
    "globaleventid": 267362340,
    "sqldate": 20130912,
    "monthyear": 201309,
    "year": 2013,
    "fractiondate": "2013.6904",
    "eventcode": 112,
    "quadclass": 3,
    "nummentions": 4,
    "numsources": 2,
    "numarticles": 4,
    "avgtone": "0.340136054421768",
    "sourceurl": "http://www.massachusettssun.com/index.php/sid/217028449/scat/7ec3e5693f22907e",
    "feature_id": "611347",
    "feature_name": "Hopkinton",
    "state_alpha": "MA",
    "county_name": "Middlesex",
    "county_numeric": "017",
    "prim_lat_dec": "42.2287065",
    "prim_long_dec": "-71.5225638",
    "elev_in_m": "133",
    "elev_in_ft": "436",
    "lat": 42.2287065,
    "long": -71.5225638
  },
  {
    "globaleventid": 267362339,
    "sqldate": 20130912,
    "monthyear": 201309,
    "year": 2013,
    "fractiondate": "2013.6904",
    "eventcode": 112,
    "quadclass": 3,
    "nummentions": 18,
    "numsources": 3,
    "numarticles": 18,
    "avgtone": "3.22485097927685",
    "sourceurl": "http://www.washingtonpost.com/blogs/the-switch/wp/2013/09/12/cloudflare-ceo-says-insane-nsa-gag-order-is-costing-u-s-tech-firms-customers/",
    "feature_id": "531871",
    "feature_name": "Washington",
    "state_alpha": "DC",
    "county_name": "District of Columbia",
    "county_numeric": "001",
    "prim_lat_dec": "38.8951118",
    "prim_long_dec": "-77.0363658",
    "elev_in_m": "7",
    "elev_in_ft": "23",
    "lat": 38.8951118,
    "long": -77.0363658
  },
  {
    "globaleventid": 267362338,
    "sqldate": 20130912,
    "monthyear": 201309,
    "year": 2013,
    "fractiondate": "2013.6904",
    "eventcode": 112,
    "quadclass": 3,
    "nummentions": 2,
    "numsources": 1,
    "numarticles": 2,
    "avgtone": "1.3986013986014",
    "sourceurl": "http://www.11alive.com/news/article/306076/3/Chief-suspended-after-visit-with-Ariz-sheriff",
    "feature_id": "356079",
    "feature_name": "Grantville",
    "state_alpha": "GA",
    "county_name": "Coweta",
    "county_numeric": "077",
    "prim_lat_dec": "33.2348419",
    "prim_long_dec": "-84.8357679",
    "elev_in_m": "265",
    "elev_in_ft": "869",
    "lat": 33.2348419,
    "long": -84.8357679
  },
  {
    "globaleventid": 267362337,
    "sqldate": 20130912,
    "monthyear": 201309,
    "year": 2013,
    "fractiondate": "2013.6904",
    "eventcode": 112,
    "quadclass": 3,
    "nummentions": 2,
    "numsources": 1,
    "numarticles": 2,
    "avgtone": "1.28654970760234",
    "sourceurl": "http://www.lakewyliepilot.com/2013/05/02/1900367/york-county-reports-increase-in.html",
    "feature_id": "1231566",
    "feature_name": "Mount Holly",
    "state_alpha": "SC",
    "county_name": "Berkeley",
    "county_numeric": "015",
    "prim_lat_dec": "33.0343383",
    "prim_long_dec": "-80.0345301",
    "elev_in_m": "13",
    "elev_in_ft": "43",
    "lat": 33.0343383,
    "long": -80.0345301
  },
  {
    "globaleventid": 267362336,
    "sqldate": 20130912,
    "monthyear": 201309,
    "year": 2013,
    "fractiondate": "2013.6904",
    "eventcode": 112,
    "quadclass": 3,
    "nummentions": 6,
    "numsources": 2,
    "numarticles": 6,
    "avgtone": "0.782125408991081",
    "sourceurl": "http://www.13wham.com/template/inews_wire/wires.national/3ff774f8-www.13wham.com.shtml",
    "feature_id": "1065416",
    "feature_name": "Utica",
    "state_alpha": "OH",
    "county_name": "Warren",
    "county_numeric": "165",
    "prim_lat_dec": "39.4975599",
    "prim_long_dec": "-84.1602136",
    "elev_in_m": "292",
    "elev_in_ft": "958",
    "lat": 39.4975599,
    "long": -84.1602136
  },
  {
    "globaleventid": 267362335,
    "sqldate": 20130912,
    "monthyear": 201309,
    "year": 2013,
    "fractiondate": "2013.6904",
    "eventcode": 112,
    "quadclass": 3,
    "nummentions": 14,
    "numsources": 2,
    "numarticles": 14,
    "avgtone": "0.858160932787799",
    "sourceurl": "http://www.kfoxtv.com/template/inews_wire/wires.national/3ff774f8-www.kfoxtv.com.shtml",
    "feature_id": "1065144",
    "feature_name": "Newark",
    "state_alpha": "OH",
    "county_name": "Licking",
    "county_numeric": "089",
    "prim_lat_dec": "40.0581205",
    "prim_long_dec": "-82.4012643",
    "elev_in_m": "254",
    "elev_in_ft": "833",
    "lat": 40.0581205,
    "long": -82.4012643
  },
  {
    "globaleventid": 267362329,
    "sqldate": 20130912,
    "monthyear": 201309,
    "year": 2013,
    "fractiondate": "2013.6904",
    "eventcode": 111,
    "quadclass": 3,
    "nummentions": 2,
    "numsources": 1,
    "numarticles": 2,
    "avgtone": "8.0",
    "sourceurl": "http://www.pr.com/press-release/515235",
    "feature_id": "988003",
    "feature_name": "Kings Mountain",
    "state_alpha": "NC",
    "county_name": "Cleveland",
    "county_numeric": "045",
    "prim_lat_dec": "35.2451343",
    "prim_long_dec": "-81.3411942",
    "elev_in_m": "307",
    "elev_in_ft": "1007",
    "lat": 35.2451343,
    "long": -81.3411942
  },
  {
    "globaleventid": 267362327,
    "sqldate": 20130912,
    "monthyear": 201309,
    "year": 2013,
    "fractiondate": "2013.6904",
    "eventcode": 111,
    "quadclass": 3,
    "nummentions": 8,
    "numsources": 2,
    "numarticles": 8,
    "avgtone": "2.54880173266162",
    "sourceurl": "http://www.newsday.com/news/nation/obama-delays-syria-vote-says-diplomacy-may-work-1.6042753",
    "feature_id": "531871",
    "feature_name": "Washington",
    "state_alpha": "DC",
    "county_name": "District of Columbia",
    "county_numeric": "001",
    "prim_lat_dec": "38.8951118",
    "prim_long_dec": "-77.0363658",
    "elev_in_m": "7",
    "elev_in_ft": "23",
    "lat": 38.8951118,
    "long": -77.0363658
  },
  {
    "globaleventid": 267362326,
    "sqldate": 20130912,
    "monthyear": 201309,
    "year": 2013,
    "fractiondate": "2013.6904",
    "eventcode": 111,
    "quadclass": 3,
    "nummentions": 2,
    "numsources": 1,
    "numarticles": 2,
    "avgtone": "2.26876090750436",
    "sourceurl": "http://www.politico.com/story/2013/09/white-house-obamacare-debt-negotiations-96741.html",
    "feature_id": "531871",
    "feature_name": "Washington",
    "state_alpha": "DC",
    "county_name": "District of Columbia",
    "county_numeric": "001",
    "prim_lat_dec": "38.8951118",
    "prim_long_dec": "-77.0363658",
    "elev_in_m": "7",
    "elev_in_ft": "23",
    "lat": 38.8951118,
    "long": -77.0363658
  },
  {
    "globaleventid": 267362324,
    "sqldate": 20130912,
    "monthyear": 201309,
    "year": 2013,
    "fractiondate": "2013.6904",
    "eventcode": 111,
    "quadclass": 3,
    "nummentions": 2,
    "numsources": 1,
    "numarticles": 2,
    "avgtone": "0.757575757575758",
    "sourceurl": "http://www.californiatelegraph.com/index.php/sid/217017312/scat/805170b4ac37e387",
    "feature_id": "295004",
    "feature_name": "Miami",
    "state_alpha": "FL",
    "county_name": "Miami-Dade",
    "county_numeric": "086",
    "prim_lat_dec": "25.7742658",
    "prim_long_dec": "-80.1936589",
    "elev_in_m": "2",
    "elev_in_ft": "7",
    "lat": 25.7742658,
    "long": -80.1936589
  },
  {
    "globaleventid": 267362323,
    "sqldate": 20130912,
    "monthyear": 201309,
    "year": 2013,
    "fractiondate": "2013.6904",
    "eventcode": 111,
    "quadclass": 3,
    "nummentions": 6,
    "numsources": 1,
    "numarticles": 6,
    "avgtone": "1.83792815371763",
    "sourceurl": "http://www.philly.com/philly/education/20130912_Lower_Merion_district_to_mark_its_1963_equality_moment.html",
    "feature_id": "1168378",
    "feature_name": "Ardmore",
    "state_alpha": "PA",
    "county_name": "Montgomery",
    "county_numeric": "091",
    "prim_lat_dec": "40.0067786",
    "prim_long_dec": "-75.2854622",
    "elev_in_m": "108",
    "elev_in_ft": "354",
    "lat": 40.0067786,
    "long": -75.2854622
  },
  {
    "globaleventid": 267362313,
    "sqldate": 20130912,
    "monthyear": 201309,
    "year": 2013,
    "fractiondate": "2013.6904",
    "eventcode": 110,
    "quadclass": 3,
    "nummentions": 2,
    "numsources": 2,
    "numarticles": 2,
    "avgtone": "1.43925448688449",
    "sourceurl": "http://www.inforum.com/event/article/id/411961/group/homepage/",
    "feature_id": "1029197",
    "feature_name": "Grand Forks",
    "state_alpha": "ND",
    "county_name": "Grand Forks",
    "county_numeric": "035",
    "prim_lat_dec": "47.9252568",
    "prim_long_dec": "-97.0328547",
    "elev_in_m": "253",
    "elev_in_ft": "830",
    "lat": 47.9252568,
    "long": -97.0328547
  },
  {
    "globaleventid": 267362312,
    "sqldate": 20130912,
    "monthyear": 201309,
    "year": 2013,
    "fractiondate": "2013.6904",
    "eventcode": 110,
    "quadclass": 3,
    "nummentions": 2,
    "numsources": 2,
    "numarticles": 2,
    "avgtone": "1.43925448688449",
    "sourceurl": "http://www.inforum.com/event/article/id/411961/group/homepage/",
    "feature_id": "1029197",
    "feature_name": "Grand Forks",
    "state_alpha": "ND",
    "county_name": "Grand Forks",
    "county_numeric": "035",
    "prim_lat_dec": "47.9252568",
    "prim_long_dec": "-97.0328547",
    "elev_in_m": "253",
    "elev_in_ft": "830",
    "lat": 47.9252568,
    "long": -97.0328547
  },
  {
    "globaleventid": 267362306,
    "sqldate": 20130912,
    "monthyear": 201309,
    "year": 2013,
    "fractiondate": "2013.6904",
    "eventcode": 100,
    "quadclass": 3,
    "nummentions": 18,
    "numsources": 1,
    "numarticles": 18,
    "avgtone": "2.02788339670469",
    "sourceurl": "http://www.recordnet.com/apps/pbcs.dll/article?AID=/20130912/A_NEWS/309120330",
    "feature_id": "966476",
    "feature_name": "Stockton",
    "state_alpha": "NY",
    "county_name": "Chautauqua",
    "county_numeric": "013",
    "prim_lat_dec": "42.317558",
    "prim_long_dec": "-79.3558788",
    "elev_in_m": "404",
    "elev_in_ft": "1325",
    "lat": 42.317558,
    "long": -79.3558788
  },
  {
    "globaleventid": 267362305,
    "sqldate": 20130912,
    "monthyear": 201309,
    "year": 2013,
    "fractiondate": "2013.6904",
    "eventcode": 100,
    "quadclass": 3,
    "nummentions": 2,
    "numsources": 1,
    "numarticles": 2,
    "avgtone": "1.15473441108545",
    "sourceurl": "http://www.allvoices.com/contributed-news/15519073-bostonarea-man-who-plotted-to-kidnap-torture-eat-children-set-for-sentencing",
    "feature_id": "617565",
    "feature_name": "Boston",
    "state_alpha": "MA",
    "county_name": "Suffolk",
    "county_numeric": "025",
    "prim_lat_dec": "42.3584308",
    "prim_long_dec": "-71.0597732",
    "elev_in_m": "14",
    "elev_in_ft": "46",
    "lat": 42.3584308,
    "long": -71.0597732
  },
  {
    "globaleventid": 267362304,
    "sqldate": 20130912,
    "monthyear": 201309,
    "year": 2013,
    "fractiondate": "2013.6904",
    "eventcode": 100,
    "quadclass": 3,
    "nummentions": 1,
    "numsources": 1,
    "numarticles": 1,
    "avgtone": "3.32278481012658",
    "sourceurl": "http://www.deseretnews.com/article/865586189/50-years-after-Birmingham-murders-black-children-still-arent-valued.html",
    "feature_id": "531871",
    "feature_name": "Washington",
    "state_alpha": "DC",
    "county_name": "District of Columbia",
    "county_numeric": "001",
    "prim_lat_dec": "38.8951118",
    "prim_long_dec": "-77.0363658",
    "elev_in_m": "7",
    "elev_in_ft": "23",
    "lat": 38.8951118,
    "long": -77.0363658
  },
  {
    "globaleventid": 267362302,
    "sqldate": 20130912,
    "monthyear": 201309,
    "year": 2013,
    "fractiondate": "2013.6904",
    "eventcode": 100,
    "quadclass": 3,
    "nummentions": 4,
    "numsources": 1,
    "numarticles": 4,
    "avgtone": "1.52777777777778",
    "sourceurl": "http://www.sfgate.com/news/crime/article/Justices-to-hear-appeal-in-Va-Tech-trial-4807565.php",
    "feature_id": "1481840",
    "feature_name": "Blacksburg",
    "state_alpha": "VA",
    "county_name": "Rockbridge",
    "county_numeric": "163",
    "prim_lat_dec": "37.8187439",
    "prim_long_dec": "-79.3192012",
    "elev_in_m": "438",
    "elev_in_ft": "1437",
    "lat": 37.8187439,
    "long": -79.3192012
  },
  {
    "globaleventid": 267361491,
    "sqldate": 20130912,
    "monthyear": 201309,
    "year": 2013,
    "fractiondate": "2013.6904",
    "eventcode": 130,
    "quadclass": 3,
    "nummentions": 2,
    "numsources": 1,
    "numarticles": 2,
    "avgtone": "0.952380952380952",
    "sourceurl": "http://www.boston.com/news/world/middle-east/2013/09/11/bomb-hits-libya-benghazi-attack-anniversary/Osno21gihLsywyLubJ3avK/story.html",
    "feature_id": "617565",
    "feature_name": "Boston",
    "state_alpha": "MA",
    "county_name": "Suffolk",
    "county_numeric": "025",
    "prim_lat_dec": "42.3584308",
    "prim_long_dec": "-71.0597732",
    "elev_in_m": "14",
    "elev_in_ft": "46",
    "lat": 42.3584308,
    "long": -71.0597732
  },
  {
    "globaleventid": 267361489,
    "sqldate": 20130912,
    "monthyear": 201309,
    "year": 2013,
    "fractiondate": "2013.6904",
    "eventcode": 130,
    "quadclass": 3,
    "nummentions": 5,
    "numsources": 2,
    "numarticles": 5,
    "avgtone": "2.75071305626887",
    "sourceurl": "http://www.heraldandnews.com/news/nation_world/article_5f4e3322-1b75-11e3-b6bd-0019bb2963f4.html",
    "feature_id": "531871",
    "feature_name": "Washington",
    "state_alpha": "DC",
    "county_name": "District of Columbia",
    "county_numeric": "001",
    "prim_lat_dec": "38.8951118",
    "prim_long_dec": "-77.0363658",
    "elev_in_m": "7",
    "elev_in_ft": "23",
    "lat": 38.8951118,
    "long": -77.0363658
  },
  {
    "globaleventid": 267361487,
    "sqldate": 20130912,
    "monthyear": 201309,
    "year": 2013,
    "fractiondate": "2013.6904",
    "eventcode": 130,
    "quadclass": 3,
    "nummentions": 4,
    "numsources": 1,
    "numarticles": 4,
    "avgtone": "1.60965794768612",
    "sourceurl": "http://www.denverpost.com/nationworld/ci_24072637/car-bomb-hits-benghazi-attack-anniversary",
    "feature_id": "201738",
    "feature_name": "Denver",
    "state_alpha": "CO",
    "county_name": "Denver",
    "county_numeric": "031",
    "prim_lat_dec": "39.7391536",
    "prim_long_dec": "-104.9847034",
    "elev_in_m": "1609",
    "elev_in_ft": "5279",
    "lat": 39.7391536,
    "long": -104.9847034
  },
  {
    "globaleventid": 267361485,
    "sqldate": 20130912,
    "monthyear": 201309,
    "year": 2013,
    "fractiondate": "2013.6904",
    "eventcode": 130,
    "quadclass": 3,
    "nummentions": 2,
    "numsources": 1,
    "numarticles": 2,
    "avgtone": "1.57618213660245",
    "sourceurl": "http://www.yourhoustonnews.com/courier/news/bomb-hits-benghazi-on-attack-anniversary/article_6e631f6a-fc2e-5f96-8ad5-47be2fcb7802.html",
    "feature_id": "1380948",
    "feature_name": "Houston",
    "state_alpha": "TX",
    "county_name": "Harris",
    "county_numeric": "201",
    "prim_lat_dec": "29.7632836",
    "prim_long_dec": "-95.3632715",
    "elev_in_m": "11",
    "elev_in_ft": "36",
    "lat": 29.7632836,
    "long": -95.3632715
  },
  {
    "globaleventid": 267361293,
    "sqldate": 20130912,
    "monthyear": 201309,
    "year": 2013,
    "fractiondate": "2013.6904",
    "eventcode": 130,
    "quadclass": 3,
    "nummentions": 10,
    "numsources": 1,
    "numarticles": 10,
    "avgtone": "2.64227642276423",
    "sourceurl": "http://townhall.com/columnists/michaelbarone/2013/09/13/obamas-wingit-diplomacy-undermines-us-credibility-n1698656",
    "feature_id": "531871",
    "feature_name": "Washington",
    "state_alpha": "DC",
    "county_name": "District of Columbia",
    "county_numeric": "001",
    "prim_lat_dec": "38.8951118",
    "prim_long_dec": "-77.0363658",
    "elev_in_m": "7",
    "elev_in_ft": "23",
    "lat": 38.8951118,
    "long": -77.0363658
  },
  {
    "globaleventid": 267361275,
    "sqldate": 20130912,
    "monthyear": 201309,
    "year": 2013,
    "fractiondate": "2013.6904",
    "eventcode": 173,
    "quadclass": 4,
    "nummentions": 24,
    "numsources": 3,
    "numarticles": 24,
    "avgtone": "2.48921891677171",
    "sourceurl": "http://www.reuters.com/article/2013/09/12/us-syria-crisis-intelligence-idUSBRE98B1C220130912?feedType=RSS&feedName=wtMostRead",
    "feature_id": "531871",
    "feature_name": "Washington",
    "state_alpha": "DC",
    "county_name": "District of Columbia",
    "county_numeric": "001",
    "prim_lat_dec": "38.8951118",
    "prim_long_dec": "-77.0363658",
    "elev_in_m": "7",
    "elev_in_ft": "23",
    "lat": 38.8951118,
    "long": -77.0363658
  },
  {
    "globaleventid": 267361205,
    "sqldate": 20130912,
    "monthyear": 201309,
    "year": 2013,
    "fractiondate": "2013.6904",
    "eventcode": 120,
    "quadclass": 3,
    "nummentions": 6,
    "numsources": 1,
    "numarticles": 6,
    "avgtone": "2.95315682281059",
    "sourceurl": "http://www.nationaljournal.com/the-edge-newsletter/the-edge-partisanship-versus-citizenship-20130911?mrefid=mostViewed",
    "feature_id": "531871",
    "feature_name": "Washington",
    "state_alpha": "DC",
    "county_name": "District of Columbia",
    "county_numeric": "001",
    "prim_lat_dec": "38.8951118",
    "prim_long_dec": "-77.0363658",
    "elev_in_m": "7",
    "elev_in_ft": "23",
    "lat": 38.8951118,
    "long": -77.0363658
  },
  {
    "globaleventid": 267361203,
    "sqldate": 20130912,
    "monthyear": 201309,
    "year": 2013,
    "fractiondate": "2013.6904",
    "eventcode": 120,
    "quadclass": 3,
    "nummentions": 2,
    "numsources": 1,
    "numarticles": 2,
    "avgtone": "1.65394402035623",
    "sourceurl": "http://www.miamiherald.com/2013/09/12/3623495/ap-news-in-brief-at-858-pm-edt.html",
    "feature_id": "531871",
    "feature_name": "Washington",
    "state_alpha": "DC",
    "county_name": "District of Columbia",
    "county_numeric": "001",
    "prim_lat_dec": "38.8951118",
    "prim_long_dec": "-77.0363658",
    "elev_in_m": "7",
    "elev_in_ft": "23",
    "lat": 38.8951118,
    "long": -77.0363658
  },
  {
    "globaleventid": 267360488,
    "sqldate": 20130912,
    "monthyear": 201309,
    "year": 2013,
    "fractiondate": "2013.6904",
    "eventcode": 1124,
    "quadclass": 3,
    "nummentions": 94,
    "numsources": 11,
    "numarticles": 94,
    "avgtone": "1.64515588369279",
    "sourceurl": "http://www.phuketgazette.net/worldnews/2013/Phuket-Gazette-World-News-Syria-now-chemical-free-India-rape-trial-Philippine-seige-spreads-Ex-CIA-seeks-pardon-in-Italy-22234.html&c=gk042trIqIui77R4kMqul6XUN6YE_bRX5OOTDYTc2hM&mkt=en-us",
    "feature_id": "531871",
    "feature_name": "Washington",
    "state_alpha": "DC",
    "county_name": "District of Columbia",
    "county_numeric": "001",
    "prim_lat_dec": "38.8951118",
    "prim_long_dec": "-77.0363658",
    "elev_in_m": "7",
    "elev_in_ft": "23",
    "lat": 38.8951118,
    "long": -77.0363658
  },
  {
    "globaleventid": 267360487,
    "sqldate": 20130912,
    "monthyear": 201309,
    "year": 2013,
    "fractiondate": "2013.6904",
    "eventcode": 1124,
    "quadclass": 3,
    "nummentions": 23,
    "numsources": 1,
    "numarticles": 23,
    "avgtone": "3.08746291243651",
    "sourceurl": "http://www.reuters.com/article/2013/09/12/us-syria-crisis-un-idUSBRE98B0UL20130912",
    "feature_id": "529313",
    "feature_name": "Capitol Hill",
    "state_alpha": "DC",
    "county_name": "District of Columbia",
    "county_numeric": "001",
    "prim_lat_dec": "38.8890009",
    "prim_long_dec": "-77.0002537",
    "elev_in_m": "28",
    "elev_in_ft": "92",
    "lat": 38.8890009,
    "long": -77.0002537
  },
  {
    "globaleventid": 267360478,
    "sqldate": 20130912,
    "monthyear": 201309,
    "year": 2013,
    "fractiondate": "2013.6904",
    "eventcode": 112,
    "quadclass": 3,
    "nummentions": 25,
    "numsources": 4,
    "numarticles": 25,
    "avgtone": "3.03423163968491",
    "sourceurl": "http://pakistan.onepakistan.com.pk/news/world/middle-east/244881-analysts-hardline-assad-backers-likely-dismayed-over-international-diplomacy.html",
    "feature_id": "531871",
    "feature_name": "Washington",
    "state_alpha": "DC",
    "county_name": "District of Columbia",
    "county_numeric": "001",
    "prim_lat_dec": "38.8951118",
    "prim_long_dec": "-77.0363658",
    "elev_in_m": "7",
    "elev_in_ft": "23",
    "lat": 38.8951118,
    "long": -77.0363658
  },
  {
    "globaleventid": 267360427,
    "sqldate": 20130912,
    "monthyear": 201309,
    "year": 2013,
    "fractiondate": "2013.6904",
    "eventcode": 190,
    "quadclass": 4,
    "nummentions": 6,
    "numsources": 1,
    "numarticles": 6,
    "avgtone": "2.91181364392679",
    "sourceurl": "http://www.sanliurfa.com/haber134634-Russia_Ready_For_Cooperation_With_US.htm&c=k45kAQg5pbsN_alZMw6F9oEjE5xHBmaVFzXHEGPGldU&mkt=en-us",
    "feature_id": "617565",
    "feature_name": "Boston",
    "state_alpha": "MA",
    "county_name": "Suffolk",
    "county_numeric": "025",
    "prim_lat_dec": "42.3584308",
    "prim_long_dec": "-71.0597732",
    "elev_in_m": "14",
    "elev_in_ft": "46",
    "lat": 42.3584308,
    "long": -71.0597732
  },
  {
    "globaleventid": 267359685,
    "sqldate": 20130912,
    "monthyear": 201309,
    "year": 2013,
    "fractiondate": "2013.6904",
    "eventcode": 138,
    "quadclass": 3,
    "nummentions": 6,
    "numsources": 3,
    "numarticles": 6,
    "avgtone": "2.52252252252252",
    "sourceurl": "http://www.dailybulletin.com/opinion/20130912/sen-boxer-showed-that-obama-was-bluffing-debra-j-saunders&c=L6OgsXfypUlCbQjGMHjGdyHP96PKHQvkJRR4wLRQw6Q&mkt=en-us",
    "feature_id": "531871",
    "feature_name": "Washington",
    "state_alpha": "DC",
    "county_name": "District of Columbia",
    "county_numeric": "001",
    "prim_lat_dec": "38.8951118",
    "prim_long_dec": "-77.0363658",
    "elev_in_m": "7",
    "elev_in_ft": "23",
    "lat": 38.8951118,
    "long": -77.0363658
  },
  {
    "globaleventid": 267359684,
    "sqldate": 20130912,
    "monthyear": 201309,
    "year": 2013,
    "fractiondate": "2013.6904",
    "eventcode": 138,
    "quadclass": 3,
    "nummentions": 6,
    "numsources": 3,
    "numarticles": 6,
    "avgtone": "2.52252252252252",
    "sourceurl": "http://www.dailybulletin.com/opinion/20130912/sen-boxer-showed-that-obama-was-bluffing-debra-j-saunders&c=L6OgsXfypUlCbQjGMHjGdyHP96PKHQvkJRR4wLRQw6Q&mkt=en-us",
    "feature_id": "277593",
    "feature_name": "San Francisco",
    "state_alpha": "CA",
    "county_name": "San Francisco",
    "county_numeric": "075",
    "prim_lat_dec": "37.775",
    "prim_long_dec": "-122.4194444",
    "elev_in_m": "16",
    "elev_in_ft": "52",
    "lat": 37.775,
    "long": -122.4194444
  },
  {
    "globaleventid": 267359683,
    "sqldate": 20130912,
    "monthyear": 201309,
    "year": 2013,
    "fractiondate": "2013.6904",
    "eventcode": 138,
    "quadclass": 3,
    "nummentions": 18,
    "numsources": 3,
    "numarticles": 18,
    "avgtone": "2.52252252252252",
    "sourceurl": "http://www.dailybulletin.com/opinion/20130912/sen-boxer-showed-that-obama-was-bluffing-debra-j-saunders&c=L6OgsXfypUlCbQjGMHjGdyHP96PKHQvkJRR4wLRQw6Q&mkt=en-us",
    "feature_id": "277593",
    "feature_name": "San Francisco",
    "state_alpha": "CA",
    "county_name": "San Francisco",
    "county_numeric": "075",
    "prim_lat_dec": "37.775",
    "prim_long_dec": "-122.4194444",
    "elev_in_m": "16",
    "elev_in_ft": "52",
    "lat": 37.775,
    "long": -122.4194444
  },
  {
    "globaleventid": 267359534,
    "sqldate": 20130912,
    "monthyear": 201309,
    "year": 2013,
    "fractiondate": "2013.6904",
    "eventcode": 173,
    "quadclass": 4,
    "nummentions": 6,
    "numsources": 1,
    "numarticles": 6,
    "avgtone": "0.851581508515815",
    "sourceurl": "http://bostonherald.com/news_opinion/national/west/2013/09/ex_tsa_worker_arrested_in_connection_with_threats?utm_source=feedburner&utm_medium=feed&utm_campaign=Feed%3A+bostonherald%2Fnews%2Fnational+%28National+-+News+%26+Opinion+-+BostonHerald.com%29",
    "feature_id": "617565",
    "feature_name": "Boston",
    "state_alpha": "MA",
    "county_name": "Suffolk",
    "county_numeric": "025",
    "prim_lat_dec": "42.3584308",
    "prim_long_dec": "-71.0597732",
    "elev_in_m": "14",
    "elev_in_ft": "46",
    "lat": 42.3584308,
    "long": -71.0597732
  },
  {
    "globaleventid": 267359533,
    "sqldate": 20130912,
    "monthyear": 201309,
    "year": 2013,
    "fractiondate": "2013.6904",
    "eventcode": 173,
    "quadclass": 4,
    "nummentions": 6,
    "numsources": 1,
    "numarticles": 6,
    "avgtone": "0.619578686493185",
    "sourceurl": "http://www.boston.com/business/news/2013/09/11/tsa-worker-arrested-connection-with-threats/ucJdUl6rKjjUuUWgVkDr6L/story.html",
    "feature_id": "608930",
    "feature_name": "Riverside",
    "state_alpha": "MA",
    "county_name": "Franklin",
    "county_numeric": "011",
    "prim_lat_dec": "42.6111966",
    "prim_long_dec": "-72.5467553",
    "elev_in_m": "60",
    "elev_in_ft": "197",
    "lat": 42.6111966,
    "long": -72.5467553
  },
  {
    "globaleventid": 267359532,
    "sqldate": 20130912,
    "monthyear": 201309,
    "year": 2013,
    "fractiondate": "2013.6904",
    "eventcode": 173,
    "quadclass": 4,
    "nummentions": 6,
    "numsources": 1,
    "numarticles": 6,
    "avgtone": "0.68649885583524",
    "sourceurl": "http://www.theepochtimes.com/n3/285089-nna-alpha-onuoha-ex-tsa-worker-charged-with-making-violent-threats/",
    "feature_id": "253387",
    "feature_name": "Riverside",
    "state_alpha": "CA",
    "county_name": "Sacramento",
    "county_numeric": "067",
    "prim_lat_dec": "38.5190734",
    "prim_long_dec": "-121.5205112",
    "elev_in_m": "3",
    "elev_in_ft": "10",
    "lat": 38.5190734,
    "long": -121.5205112
  },
  {
    "globaleventid": 267359530,
    "sqldate": 20130912,
    "monthyear": 201309,
    "year": 2013,
    "fractiondate": "2013.6904",
    "eventcode": 173,
    "quadclass": 4,
    "nummentions": 6,
    "numsources": 1,
    "numarticles": 6,
    "avgtone": "0.736196319018405",
    "sourceurl": "http://www.sanduskyregister.com/article/4642456",
    "feature_id": "1662328",
    "feature_name": "Los Angeles",
    "state_alpha": "CA",
    "county_name": "Los Angeles",
    "county_numeric": "037",
    "prim_lat_dec": "34.0522342",
    "prim_long_dec": "-118.2436849",
    "elev_in_m": "89",
    "elev_in_ft": "292",
    "lat": 34.0522342,
    "long": -118.2436849
  },
  {
    "globaleventid": 267359515,
    "sqldate": 20130912,
    "monthyear": 201309,
    "year": 2013,
    "fractiondate": "2013.6904",
    "eventcode": 120,
    "quadclass": 3,
    "nummentions": 3,
    "numsources": 1,
    "numarticles": 3,
    "avgtone": "2.17391304347826",
    "sourceurl": "http://thehill.com/blogs/blog-briefing-room/news/322017-white-house-obama-open-to-approving-resolution-to-prevent-shutdown",
    "feature_id": "531871",
    "feature_name": "Washington",
    "state_alpha": "DC",
    "county_name": "District of Columbia",
    "county_numeric": "001",
    "prim_lat_dec": "38.8951118",
    "prim_long_dec": "-77.0363658",
    "elev_in_m": "7",
    "elev_in_ft": "23",
    "lat": 38.8951118,
    "long": -77.0363658
  },
  {
    "globaleventid": 267359508,
    "sqldate": 20130912,
    "monthyear": 201309,
    "year": 2013,
    "fractiondate": "2013.6904",
    "eventcode": 1124,
    "quadclass": 3,
    "nummentions": 4,
    "numsources": 2,
    "numarticles": 4,
    "avgtone": "1.34212657642022",
    "sourceurl": "http://www.kcrg.com/news/local/Officials-SE-Iowa-Fire-Victim-Overcome-by-Smoke-223561171.html",
    "feature_id": "457327",
    "feature_name": "Hawkeye",
    "state_alpha": "IA",
    "county_name": "Fayette",
    "county_numeric": "065",
    "prim_lat_dec": "42.9385894",
    "prim_long_dec": "-91.9501687",
    "elev_in_m": "355",
    "elev_in_ft": "1165",
    "lat": 42.9385894,
    "long": -91.9501687
  },
  {
    "globaleventid": 267359292,
    "sqldate": 20130912,
    "monthyear": 201309,
    "year": 2013,
    "fractiondate": "2013.6904",
    "eventcode": 129,
    "quadclass": 3,
    "nummentions": 2,
    "numsources": 1,
    "numarticles": 2,
    "avgtone": "2.62206148282098",
    "sourceurl": "http://www.lsjournal.com/2013/09/12/105211/failed-veto-override-applauded.html",
    "feature_id": "758233",
    "feature_name": "Jefferson City",
    "state_alpha": "MO",
    "county_name": "Cole",
    "county_numeric": "051",
    "prim_lat_dec": "38.5767017",
    "prim_long_dec": "-92.1735164",
    "elev_in_m": "192",
    "elev_in_ft": "630",
    "lat": 38.5767017,
    "long": -92.1735164
  },
  {
    "globaleventid": 267359291,
    "sqldate": 20130912,
    "monthyear": 201309,
    "year": 2013,
    "fractiondate": "2013.6904",
    "eventcode": 129,
    "quadclass": 3,
    "nummentions": 18,
    "numsources": 1,
    "numarticles": 10,
    "avgtone": "2.62206148282098",
    "sourceurl": "http://www.lsjournal.com/2013/09/12/105211/failed-veto-override-applauded.html",
    "feature_id": "758233",
    "feature_name": "Jefferson City",
    "state_alpha": "MO",
    "county_name": "Cole",
    "county_numeric": "051",
    "prim_lat_dec": "38.5767017",
    "prim_long_dec": "-92.1735164",
    "elev_in_m": "192",
    "elev_in_ft": "630",
    "lat": 38.5767017,
    "long": -92.1735164
  },
  {
    "globaleventid": 267359285,
    "sqldate": 20130912,
    "monthyear": 201309,
    "year": 2013,
    "fractiondate": "2013.6904",
    "eventcode": 120,
    "quadclass": 3,
    "nummentions": 4,
    "numsources": 1,
    "numarticles": 4,
    "avgtone": "3.2051282051282",
    "sourceurl": "http://www.capecodtoday.com/article/2013/09/12/21606-se-mass-rep-calls-legislators-block-tribes-compact-just-approved-committee",
    "feature_id": "615624",
    "feature_name": "Mashpee",
    "state_alpha": "MA",
    "county_name": "Barnstable",
    "county_numeric": "001",
    "prim_lat_dec": "41.6484421",
    "prim_long_dec": "-70.4811383",
    "elev_in_m": "21",
    "elev_in_ft": "69",
    "lat": 41.6484421,
    "long": -70.4811383
  },
  {
    "globaleventid": 267359281,
    "sqldate": 20130912,
    "monthyear": 201309,
    "year": 2013,
    "fractiondate": "2013.6904",
    "eventcode": 114,
    "quadclass": 3,
    "nummentions": 5,
    "numsources": 1,
    "numarticles": 5,
    "avgtone": "2.14646464646465",
    "sourceurl": "http://www.laobserved.com/boyarsky/2013/09/why_the_inscrutable_supes_wont.php",
    "feature_id": "1662328",
    "feature_name": "Los Angeles",
    "state_alpha": "CA",
    "county_name": "Los Angeles",
    "county_numeric": "037",
    "prim_lat_dec": "34.0522342",
    "prim_long_dec": "-118.2436849",
    "elev_in_m": "89",
    "elev_in_ft": "292",
    "lat": 34.0522342,
    "long": -118.2436849
  },
  {
    "globaleventid": 267359277,
    "sqldate": 20130912,
    "monthyear": 201309,
    "year": 2013,
    "fractiondate": "2013.6904",
    "eventcode": 110,
    "quadclass": 3,
    "nummentions": 5,
    "numsources": 1,
    "numarticles": 5,
    "avgtone": "1.70183798502383",
    "sourceurl": "http://oldgoldandblack.com/?p=35248",
    "feature_id": "531871",
    "feature_name": "Washington",
    "state_alpha": "DC",
    "county_name": "District of Columbia",
    "county_numeric": "001",
    "prim_lat_dec": "38.8951118",
    "prim_long_dec": "-77.0363658",
    "elev_in_m": "7",
    "elev_in_ft": "23",
    "lat": 38.8951118,
    "long": -77.0363658
  },
  {
    "globaleventid": 267359275,
    "sqldate": 20130912,
    "monthyear": 201309,
    "year": 2013,
    "fractiondate": "2013.6904",
    "eventcode": 102,
    "quadclass": 3,
    "nummentions": 5,
    "numsources": 1,
    "numarticles": 5,
    "avgtone": "3.07017543859649",
    "sourceurl": "http://www.newsreview.com/chico/enough-doublespeak-mr-president/content?oid=11388627",
    "feature_id": "531871",
    "feature_name": "Washington",
    "state_alpha": "DC",
    "county_name": "District of Columbia",
    "county_numeric": "001",
    "prim_lat_dec": "38.8951118",
    "prim_long_dec": "-77.0363658",
    "elev_in_m": "7",
    "elev_in_ft": "23",
    "lat": 38.8951118,
    "long": -77.0363658
  },
  {
    "globaleventid": 267359086,
    "sqldate": 20130912,
    "monthyear": 201309,
    "year": 2013,
    "fractiondate": "2013.6904",
    "eventcode": 190,
    "quadclass": 4,
    "nummentions": 3,
    "numsources": 1,
    "numarticles": 3,
    "avgtone": "2.0",
    "sourceurl": "http://weekly.ahram.org.eg/News/4030/21/Israel-pushes-for-war-.aspx",
    "feature_id": "531871",
    "feature_name": "Washington",
    "state_alpha": "DC",
    "county_name": "District of Columbia",
    "county_numeric": "001",
    "prim_lat_dec": "38.8951118",
    "prim_long_dec": "-77.0363658",
    "elev_in_m": "7",
    "elev_in_ft": "23",
    "lat": 38.8951118,
    "long": -77.0363658
  },
  {
    "globaleventid": 267359080,
    "sqldate": 20130912,
    "monthyear": 201309,
    "year": 2013,
    "fractiondate": "2013.6904",
    "eventcode": 190,
    "quadclass": 4,
    "nummentions": 1,
    "numsources": 1,
    "numarticles": 1,
    "avgtone": "2.0",
    "sourceurl": "http://weekly.ahram.org.eg/News/4030/21/Israel-pushes-for-war-.aspx",
    "feature_id": "531871",
    "feature_name": "Washington",
    "state_alpha": "DC",
    "county_name": "District of Columbia",
    "county_numeric": "001",
    "prim_lat_dec": "38.8951118",
    "prim_long_dec": "-77.0363658",
    "elev_in_m": "7",
    "elev_in_ft": "23",
    "lat": 38.8951118,
    "long": -77.0363658
  },
  {
    "globaleventid": 267358992,
    "sqldate": 20130912,
    "monthyear": 201309,
    "year": 2013,
    "fractiondate": "2013.6904",
    "eventcode": 192,
    "quadclass": 4,
    "nummentions": 5,
    "numsources": 1,
    "numarticles": 5,
    "avgtone": "0.0",
    "sourceurl": "http://www.boston.com/news/nation/2013/09/11/federal-hiring-down-with-most-jobs-going-defense/6MyRHIc45zxUNVzU3fam3H/story.html",
    "feature_id": "617565",
    "feature_name": "Boston",
    "state_alpha": "MA",
    "county_name": "Suffolk",
    "county_numeric": "025",
    "prim_lat_dec": "42.3584308",
    "prim_long_dec": "-71.0597732",
    "elev_in_m": "14",
    "elev_in_ft": "46",
    "lat": 42.3584308,
    "long": -71.0597732
  },
  {
    "globaleventid": 267358988,
    "sqldate": 20130912,
    "monthyear": 201309,
    "year": 2013,
    "fractiondate": "2013.6904",
    "eventcode": 173,
    "quadclass": 4,
    "nummentions": 4,
    "numsources": 1,
    "numarticles": 4,
    "avgtone": "1.16626997619857",
    "sourceurl": "http://oaklandtownship.patch.com/groups/around-town/p/woman-swindled-out-of-nearly-10000-by-internet-date_57f37d45",
    "feature_id": "638798",
    "feature_name": "Sterling Heights",
    "state_alpha": "MI",
    "county_name": "Macomb",
    "county_numeric": "099",
    "prim_lat_dec": "42.5803122",
    "prim_long_dec": "-83.0302033",
    "elev_in_m": "187",
    "elev_in_ft": "614",
    "lat": 42.5803122,
    "long": -83.0302033
  },
  {
    "globaleventid": 267358982,
    "sqldate": 20130912,
    "monthyear": 201309,
    "year": 2013,
    "fractiondate": "2013.6904",
    "eventcode": 112,
    "quadclass": 3,
    "nummentions": 6,
    "numsources": 1,
    "numarticles": 6,
    "avgtone": "1.25391849529781",
    "sourceurl": "http://www.washingtonpost.com/local/lightning-delays-flights-but-storms-lack-wallop/2013/09/12/96f06ebe-1c0e-11e3-82ef-a059e54c49d0_story.html",
    "feature_id": "531871",
    "feature_name": "Washington",
    "state_alpha": "DC",
    "county_name": "District of Columbia",
    "county_numeric": "001",
    "prim_lat_dec": "38.8951118",
    "prim_long_dec": "-77.0363658",
    "elev_in_m": "7",
    "elev_in_ft": "23",
    "lat": 38.8951118,
    "long": -77.0363658
  },
  {
    "globaleventid": 267358979,
    "sqldate": 20130912,
    "monthyear": 201309,
    "year": 2013,
    "fractiondate": "2013.6904",
    "eventcode": 110,
    "quadclass": 3,
    "nummentions": 15,
    "numsources": 1,
    "numarticles": 15,
    "avgtone": "2.43445692883895",
    "sourceurl": "http://www.washingtonpost.com/local/dc-politics/mayor-gray-vetoes-living-wage-bill-aimed-at-wal-mart-setting-up-decisive-council-vote/2013/09/12/664d7310-077d-11e3-a07f-49ddc7417125_story.html?wprss=rss_dc-news",
    "feature_id": "531871",
    "feature_name": "Washington",
    "state_alpha": "DC",
    "county_name": "District of Columbia",
    "county_numeric": "001",
    "prim_lat_dec": "38.8951118",
    "prim_long_dec": "-77.0363658",
    "elev_in_m": "7",
    "elev_in_ft": "23",
    "lat": 38.8951118,
    "long": -77.0363658
  },
  {
    "globaleventid": 267358789,
    "sqldate": 20130912,
    "monthyear": 201309,
    "year": 2013,
    "fractiondate": "2013.6904",
    "eventcode": 1822,
    "quadclass": 4,
    "nummentions": 30,
    "numsources": 2,
    "numarticles": 30,
    "avgtone": "1.66056199431445",
    "sourceurl": "http://frxkivk.chicagodefender.com/index.php/news/city/24233-chicago-police-torture-mayor-rahm-emanuel-apologizes-says-let-us-now-move-on&c=3swweuEWEzd0zrop7iNy57HZoB6im3GRYgACO6Apagc&mkt=en-us",
    "feature_id": "423587",
    "feature_name": "Chicago",
    "state_alpha": "IL",
    "county_name": "Cook",
    "county_numeric": "031",
    "prim_lat_dec": "41.850033",
    "prim_long_dec": "-87.6500523",
    "elev_in_m": "179",
    "elev_in_ft": "587",
    "lat": 41.850033,
    "long": -87.6500523
  },
  {
    "globaleventid": 267357904,
    "sqldate": 20130912,
    "monthyear": 201309,
    "year": 2013,
    "fractiondate": "2013.6904",
    "eventcode": 190,
    "quadclass": 4,
    "nummentions": 10,
    "numsources": 1,
    "numarticles": 10,
    "avgtone": "0.775193798449612",
    "sourceurl": "http://www.therepublic.com/view/story/a6779a62f1e6490dbdf2289f6e85dd25/AL--Center-Point-Fire",
    "feature_id": "115851",
    "feature_name": "Center Point",
    "state_alpha": "AL",
    "county_name": "Clarke",
    "county_numeric": "025",
    "prim_lat_dec": "31.7884902",
    "prim_long_dec": "-88.0300078",
    "elev_in_m": "81",
    "elev_in_ft": "266",
    "lat": 31.7884902,
    "long": -88.0300078
  },
  {
    "globaleventid": 267357734,
    "sqldate": 20130912,
    "monthyear": 201309,
    "year": 2013,
    "fractiondate": "2013.6904",
    "eventcode": 120,
    "quadclass": 3,
    "nummentions": 8,
    "numsources": 2,
    "numarticles": 8,
    "avgtone": "2.36659210736539",
    "sourceurl": "http://www.theepochtimes.com/n3/285260-question-of-enforcement-casts-cloud-on-syria-plan/",
    "feature_id": "531871",
    "feature_name": "Washington",
    "state_alpha": "DC",
    "county_name": "District of Columbia",
    "county_numeric": "001",
    "prim_lat_dec": "38.8951118",
    "prim_long_dec": "-77.0363658",
    "elev_in_m": "7",
    "elev_in_ft": "23",
    "lat": 38.8951118,
    "long": -77.0363658
  },
  {
    "globaleventid": 267357529,
    "sqldate": 20130912,
    "monthyear": 201309,
    "year": 2013,
    "fractiondate": "2013.6904",
    "eventcode": 160,
    "quadclass": 4,
    "nummentions": 2,
    "numsources": 1,
    "numarticles": 2,
    "avgtone": "1.18460019743337",
    "sourceurl": "http://www.reporterherald.com/news/loveland-local-news/ci_24084083/people-and-animals-find-shelter-at-thompson-school",
    "feature_id": "177720",
    "feature_name": "Loveland",
    "state_alpha": "CO",
    "county_name": "Larimer",
    "county_numeric": "069",
    "prim_lat_dec": "40.3977612",
    "prim_long_dec": "-105.0749801",
    "elev_in_m": "1519",
    "elev_in_ft": "4984",
    "lat": 40.3977612,
    "long": -105.0749801
  },
  {
    "globaleventid": 267357519,
    "sqldate": 20130912,
    "monthyear": 201309,
    "year": 2013,
    "fractiondate": "2013.6904",
    "eventcode": 114,
    "quadclass": 3,
    "nummentions": 4,
    "numsources": 1,
    "numarticles": 4,
    "avgtone": "0.657894736842105",
    "sourceurl": "http://www.boston.com/metrodesk/2013/09/12/heat-humidity-turn-floors-slippery-force-closures-mass-schools/cd4cr84z3MdOQvQbqJGt1I/story.html?rss_id=Top+Stories",
    "feature_id": "607825",
    "feature_name": "Williamstown",
    "state_alpha": "MA",
    "county_name": "Berkshire",
    "county_numeric": "003",
    "prim_lat_dec": "42.7120249",
    "prim_long_dec": "-73.2037177",
    "elev_in_m": "208",
    "elev_in_ft": "682",
    "lat": 42.7120249,
    "long": -73.2037177
  },
  {
    "globaleventid": 267357518,
    "sqldate": 20130912,
    "monthyear": 201309,
    "year": 2013,
    "fractiondate": "2013.6904",
    "eventcode": 114,
    "quadclass": 3,
    "nummentions": 4,
    "numsources": 1,
    "numarticles": 4,
    "avgtone": "0.657894736842105",
    "sourceurl": "http://www.boston.com/metrodesk/2013/09/12/heat-humidity-turn-floors-slippery-force-closures-mass-schools/cd4cr84z3MdOQvQbqJGt1I/story.html?rss_id=Top+Stories",
    "feature_id": "607825",
    "feature_name": "Williamstown",
    "state_alpha": "MA",
    "county_name": "Berkshire",
    "county_numeric": "003",
    "prim_lat_dec": "42.7120249",
    "prim_long_dec": "-73.2037177",
    "elev_in_m": "208",
    "elev_in_ft": "682",
    "lat": 42.7120249,
    "long": -73.2037177
  },
  {
    "globaleventid": 267357295,
    "sqldate": 20130912,
    "monthyear": 201309,
    "year": 2013,
    "fractiondate": "2013.6904",
    "eventcode": 193,
    "quadclass": 4,
    "nummentions": 10,
    "numsources": 1,
    "numarticles": 10,
    "avgtone": "1.59453302961276",
    "sourceurl": "http://www.mysanantonio.com/news/texas/article/Consul-will-respect-grand-jury-decision-4805583.php",
    "feature_id": "1380951",
    "feature_name": "San Antonio",
    "state_alpha": "TX",
    "county_name": "Bexar",
    "county_numeric": "029",
    "prim_lat_dec": "29.4241219",
    "prim_long_dec": "-98.4936282",
    "elev_in_m": "198",
    "elev_in_ft": "650",
    "lat": 29.4241219,
    "long": -98.4936282
  },
  {
    "globaleventid": 267357293,
    "sqldate": 20130912,
    "monthyear": 201309,
    "year": 2013,
    "fractiondate": "2013.6904",
    "eventcode": 190,
    "quadclass": 4,
    "nummentions": 1,
    "numsources": 1,
    "numarticles": 1,
    "avgtone": "4.28713858424726",
    "sourceurl": "http://www.wickedlocal.com/stoughton/news/x2139011730/Brockton-area-9-11-ceremonies-rekindle-memories-of-those-we-have-lost",
    "feature_id": "617571",
    "feature_name": "Brockton",
    "state_alpha": "MA",
    "county_name": "Plymouth",
    "county_numeric": "023",
    "prim_lat_dec": "42.0834335",
    "prim_long_dec": "-71.0183787",
    "elev_in_m": "34",
    "elev_in_ft": "112",
    "lat": 42.0834335,
    "long": -71.0183787
  },
  {
    "globaleventid": 267357292,
    "sqldate": 20130912,
    "monthyear": 201309,
    "year": 2013,
    "fractiondate": "2013.6904",
    "eventcode": 190,
    "quadclass": 4,
    "nummentions": 1,
    "numsources": 1,
    "numarticles": 1,
    "avgtone": "4.28713858424726",
    "sourceurl": "http://www.wickedlocal.com/stoughton/news/x2139011730/Brockton-area-9-11-ceremonies-rekindle-memories-of-those-we-have-lost",
    "feature_id": "617571",
    "feature_name": "Brockton",
    "state_alpha": "MA",
    "county_name": "Plymouth",
    "county_numeric": "023",
    "prim_lat_dec": "42.0834335",
    "prim_long_dec": "-71.0183787",
    "elev_in_m": "34",
    "elev_in_ft": "112",
    "lat": 42.0834335,
    "long": -71.0183787
  },
  {
    "globaleventid": 267357291,
    "sqldate": 20130912,
    "monthyear": 201309,
    "year": 2013,
    "fractiondate": "2013.6904",
    "eventcode": 190,
    "quadclass": 4,
    "nummentions": 3,
    "numsources": 1,
    "numarticles": 3,
    "avgtone": "4.28713858424726",
    "sourceurl": "http://www.wickedlocal.com/stoughton/news/x2139011730/Brockton-area-9-11-ceremonies-rekindle-memories-of-those-we-have-lost",
    "feature_id": "613136",
    "feature_name": "Raynham",
    "state_alpha": "MA",
    "county_name": "Bristol",
    "county_numeric": "005",
    "prim_lat_dec": "41.9487118",
    "prim_long_dec": "-71.0731008",
    "elev_in_m": "24",
    "elev_in_ft": "79",
    "lat": 41.9487118,
    "long": -71.0731008
  },
  {
    "globaleventid": 267357290,
    "sqldate": 20130912,
    "monthyear": 201309,
    "year": 2013,
    "fractiondate": "2013.6904",
    "eventcode": 190,
    "quadclass": 4,
    "nummentions": 1,
    "numsources": 1,
    "numarticles": 1,
    "avgtone": "4.28713858424726",
    "sourceurl": "http://www.wickedlocal.com/stoughton/news/x2139011730/Brockton-area-9-11-ceremonies-rekindle-memories-of-those-we-have-lost",
    "feature_id": "613136",
    "feature_name": "Raynham",
    "state_alpha": "MA",
    "county_name": "Bristol",
    "county_numeric": "005",
    "prim_lat_dec": "41.9487118",
    "prim_long_dec": "-71.0731008",
    "elev_in_m": "24",
    "elev_in_ft": "79",
    "lat": 41.9487118,
    "long": -71.0731008
  },
  {
    "globaleventid": 267357289,
    "sqldate": 20130912,
    "monthyear": 201309,
    "year": 2013,
    "fractiondate": "2013.6904",
    "eventcode": 190,
    "quadclass": 4,
    "nummentions": 2,
    "numsources": 1,
    "numarticles": 2,
    "avgtone": "4.28713858424726",
    "sourceurl": "http://www.wickedlocal.com/stoughton/news/x2139011730/Brockton-area-9-11-ceremonies-rekindle-memories-of-those-we-have-lost",
    "feature_id": "613136",
    "feature_name": "Raynham",
    "state_alpha": "MA",
    "county_name": "Bristol",
    "county_numeric": "005",
    "prim_lat_dec": "41.9487118",
    "prim_long_dec": "-71.0731008",
    "elev_in_m": "24",
    "elev_in_ft": "79",
    "lat": 41.9487118,
    "long": -71.0731008
  },
  {
    "globaleventid": 267357275,
    "sqldate": 20130912,
    "monthyear": 201309,
    "year": 2013,
    "fractiondate": "2013.6904",
    "eventcode": 1233,
    "quadclass": 3,
    "nummentions": 6,
    "numsources": 4,
    "numarticles": 6,
    "avgtone": "2.07359194862218",
    "sourceurl": "http://www.mcclatchydc.com/2013/09/11/201868/partisanship-syria-tension-intrude.html",
    "feature_id": "531871",
    "feature_name": "Washington",
    "state_alpha": "DC",
    "county_name": "District of Columbia",
    "county_numeric": "001",
    "prim_lat_dec": "38.8951118",
    "prim_long_dec": "-77.0363658",
    "elev_in_m": "7",
    "elev_in_ft": "23",
    "lat": 38.8951118,
    "long": -77.0363658
  },
  {
    "globaleventid": 267357268,
    "sqldate": 20130912,
    "monthyear": 201309,
    "year": 2013,
    "fractiondate": "2013.6904",
    "eventcode": 112,
    "quadclass": 3,
    "nummentions": 10,
    "numsources": 1,
    "numarticles": 10,
    "avgtone": "3.76569037656904",
    "sourceurl": "http://www.washingtonpost.com/blogs/the-switch/wp/2013/09/12/cloudflare-ceo-says-insane-nsa-gag-order-is-costing-u-s-tech-firms-customers/",
    "feature_id": "531871",
    "feature_name": "Washington",
    "state_alpha": "DC",
    "county_name": "District of Columbia",
    "county_numeric": "001",
    "prim_lat_dec": "38.8951118",
    "prim_long_dec": "-77.0363658",
    "elev_in_m": "7",
    "elev_in_ft": "23",
    "lat": 38.8951118,
    "long": -77.0363658
  },
  {
    "globaleventid": 267357262,
    "sqldate": 20130912,
    "monthyear": 201309,
    "year": 2013,
    "fractiondate": "2013.6904",
    "eventcode": 110,
    "quadclass": 3,
    "nummentions": 1,
    "numsources": 1,
    "numarticles": 1,
    "avgtone": "4.28713858424726",
    "sourceurl": "http://www.wickedlocal.com/stoughton/news/x2139011730/Brockton-area-9-11-ceremonies-rekindle-memories-of-those-we-have-lost",
    "feature_id": "617571",
    "feature_name": "Brockton",
    "state_alpha": "MA",
    "county_name": "Plymouth",
    "county_numeric": "023",
    "prim_lat_dec": "42.0834335",
    "prim_long_dec": "-71.0183787",
    "elev_in_m": "34",
    "elev_in_ft": "112",
    "lat": 42.0834335,
    "long": -71.0183787
  },
  {
    "globaleventid": 267357261,
    "sqldate": 20130912,
    "monthyear": 201309,
    "year": 2013,
    "fractiondate": "2013.6904",
    "eventcode": 110,
    "quadclass": 3,
    "nummentions": 1,
    "numsources": 1,
    "numarticles": 1,
    "avgtone": "4.28713858424726",
    "sourceurl": "http://www.wickedlocal.com/stoughton/news/x2139011730/Brockton-area-9-11-ceremonies-rekindle-memories-of-those-we-have-lost",
    "feature_id": "617571",
    "feature_name": "Brockton",
    "state_alpha": "MA",
    "county_name": "Plymouth",
    "county_numeric": "023",
    "prim_lat_dec": "42.0834335",
    "prim_long_dec": "-71.0183787",
    "elev_in_m": "34",
    "elev_in_ft": "112",
    "lat": 42.0834335,
    "long": -71.0183787
  },
  {
    "globaleventid": 267357260,
    "sqldate": 20130912,
    "monthyear": 201309,
    "year": 2013,
    "fractiondate": "2013.6904",
    "eventcode": 110,
    "quadclass": 3,
    "nummentions": 3,
    "numsources": 1,
    "numarticles": 3,
    "avgtone": "4.28713858424726",
    "sourceurl": "http://www.wickedlocal.com/stoughton/news/x2139011730/Brockton-area-9-11-ceremonies-rekindle-memories-of-those-we-have-lost",
    "feature_id": "613136",
    "feature_name": "Raynham",
    "state_alpha": "MA",
    "county_name": "Bristol",
    "county_numeric": "005",
    "prim_lat_dec": "41.9487118",
    "prim_long_dec": "-71.0731008",
    "elev_in_m": "24",
    "elev_in_ft": "79",
    "lat": 41.9487118,
    "long": -71.0731008
  },
  {
    "globaleventid": 267357259,
    "sqldate": 20130912,
    "monthyear": 201309,
    "year": 2013,
    "fractiondate": "2013.6904",
    "eventcode": 110,
    "quadclass": 3,
    "nummentions": 1,
    "numsources": 1,
    "numarticles": 1,
    "avgtone": "4.28713858424726",
    "sourceurl": "http://www.wickedlocal.com/stoughton/news/x2139011730/Brockton-area-9-11-ceremonies-rekindle-memories-of-those-we-have-lost",
    "feature_id": "613482",
    "feature_name": "Bridgewater",
    "state_alpha": "MA",
    "county_name": "Plymouth",
    "county_numeric": "023",
    "prim_lat_dec": "41.9903787",
    "prim_long_dec": "-70.9750426",
    "elev_in_m": "28",
    "elev_in_ft": "92",
    "lat": 41.9903787,
    "long": -70.9750426
  },
  {
    "globaleventid": 267357258,
    "sqldate": 20130912,
    "monthyear": 201309,
    "year": 2013,
    "fractiondate": "2013.6904",
    "eventcode": 110,
    "quadclass": 3,
    "nummentions": 2,
    "numsources": 1,
    "numarticles": 2,
    "avgtone": "4.28713858424726",
    "sourceurl": "http://www.wickedlocal.com/stoughton/news/x2139011730/Brockton-area-9-11-ceremonies-rekindle-memories-of-those-we-have-lost",
    "feature_id": "613136",
    "feature_name": "Raynham",
    "state_alpha": "MA",
    "county_name": "Bristol",
    "county_numeric": "005",
    "prim_lat_dec": "41.9487118",
    "prim_long_dec": "-71.0731008",
    "elev_in_m": "24",
    "elev_in_ft": "79",
    "lat": 41.9487118,
    "long": -71.0731008
  },
  {
    "globaleventid": 267357257,
    "sqldate": 20130912,
    "monthyear": 201309,
    "year": 2013,
    "fractiondate": "2013.6904",
    "eventcode": 110,
    "quadclass": 3,
    "nummentions": 3,
    "numsources": 1,
    "numarticles": 3,
    "avgtone": "0.932400932400932",
    "sourceurl": "http://www.thegrower.com/news/Numerous-psyllids-found-in-California-223453551.html",
    "feature_id": "1658422",
    "feature_name": "Dinuba",
    "state_alpha": "CA",
    "county_name": "Tulare",
    "county_numeric": "107",
    "prim_lat_dec": "36.5432837",
    "prim_long_dec": "-119.3870656",
    "elev_in_m": "102",
    "elev_in_ft": "335",
    "lat": 36.5432837,
    "long": -119.3870656
  },
  {
    "globaleventid": 267357250,
    "sqldate": 20130912,
    "monthyear": 201309,
    "year": 2013,
    "fractiondate": "2013.6904",
    "eventcode": 100,
    "quadclass": 3,
    "nummentions": 10,
    "numsources": 1,
    "numarticles": 10,
    "avgtone": "2.99102691924227",
    "sourceurl": "http://www.heraldnews.com/news/x511623886/Somerset-BOS-makes-a-few-more-appointments-to-CPA-panel",
    "feature_id": "617230",
    "feature_name": "Slades Ferry",
    "state_alpha": "MA",
    "county_name": "Bristol",
    "county_numeric": "005",
    "prim_lat_dec": "41.7209355",
    "prim_long_dec": "-71.157823",
    "elev_in_m": "0",
    "elev_in_ft": "0",
    "lat": 41.7209355,
    "long": -71.157823
  },
  {
    "globaleventid": 267357249,
    "sqldate": 20130912,
    "monthyear": 201309,
    "year": 2013,
    "fractiondate": "2013.6904",
    "eventcode": 100,
    "quadclass": 3,
    "nummentions": 2,
    "numsources": 1,
    "numarticles": 2,
    "avgtone": "2.99102691924227",
    "sourceurl": "http://www.heraldnews.com/news/x511623886/Somerset-BOS-makes-a-few-more-appointments-to-CPA-panel",
    "feature_id": "612595",
    "feature_name": "Fall River",
    "state_alpha": "MA",
    "county_name": "Bristol",
    "county_numeric": "005",
    "prim_lat_dec": "41.7014912",
    "prim_long_dec": "-71.1550451",
    "elev_in_m": "37",
    "elev_in_ft": "121",
    "lat": 41.7014912,
    "long": -71.1550451
  },
  {
    "globaleventid": 267357248,
    "sqldate": 20130912,
    "monthyear": 201309,
    "year": 2013,
    "fractiondate": "2013.6904",
    "eventcode": 100,
    "quadclass": 3,
    "nummentions": 2,
    "numsources": 1,
    "numarticles": 2,
    "avgtone": "4.22857142857143",
    "sourceurl": "http://blog.al.com/spotnews/2013/09/post_1002.html",
    "feature_id": "1209052",
    "feature_name": "Philadelphia",
    "state_alpha": "PA",
    "county_name": "Philadelphia",
    "county_numeric": "101",
    "prim_lat_dec": "39.952335",
    "prim_long_dec": "-75.163789",
    "elev_in_m": "14",
    "elev_in_ft": "46",
    "lat": 39.952335,
    "long": -75.163789
  },
  {
    "globaleventid": 267357080,
    "sqldate": 20130912,
    "monthyear": 201309,
    "year": 2013,
    "fractiondate": "2013.6904",
    "eventcode": 173,
    "quadclass": 4,
    "nummentions": 6,
    "numsources": 1,
    "numarticles": 6,
    "avgtone": "0.925069380203515",
    "sourceurl": "http://enr.construction.com/yb/enr/article.aspx?story_id=189909048&c=x7jgdJt7QCeHxkzf8-kpKPQoYYPZa-nSYcnvaJKTKN0&mkt=en-us",
    "feature_id": "569106",
    "feature_name": "Kennebec",
    "state_alpha": "ME",
    "county_name": "Washington",
    "county_numeric": "029",
    "prim_lat_dec": "44.6684111",
    "prim_long_dec": "-67.46388",
    "elev_in_m": "5",
    "elev_in_ft": "16",
    "lat": 44.6684111,
    "long": -67.46388
  },
  {
    "globaleventid": 267357079,
    "sqldate": 20130912,
    "monthyear": 201309,
    "year": 2013,
    "fractiondate": "2013.6904",
    "eventcode": 173,
    "quadclass": 4,
    "nummentions": 3,
    "numsources": 1,
    "numarticles": 3,
    "avgtone": "2.09205020920502",
    "sourceurl": "http://www.lakewyliepilot.com/2013/09/12/2067436/officials-see-sharp-drop-in-libyas.html",
    "feature_id": "1233775",
    "feature_name": "Lake Wylie",
    "state_alpha": "SC",
    "county_name": "York",
    "county_numeric": "091",
    "prim_lat_dec": "35.108476",
    "prim_long_dec": "-81.0428538",
    "elev_in_m": "179",
    "elev_in_ft": "587",
    "lat": 35.108476,
    "long": -81.0428538
  },
  {
    "globaleventid": 267357072,
    "sqldate": 20130912,
    "monthyear": 201309,
    "year": 2013,
    "fractiondate": "2013.6904",
    "eventcode": 1711,
    "quadclass": 4,
    "nummentions": 6,
    "numsources": 1,
    "numarticles": 6,
    "avgtone": "1.85185185185185",
    "sourceurl": "http://wcsi.whiterivernews.com/templates/localnews_temp.asp?id=7885&storyno=1",
    "feature_id": "432826",
    "feature_name": "Columbus",
    "state_alpha": "IN",
    "county_name": "Bartholomew",
    "county_numeric": "005",
    "prim_lat_dec": "39.2014405",
    "prim_long_dec": "-85.9213796",
    "elev_in_m": "192",
    "elev_in_ft": "630",
    "lat": 39.2014405,
    "long": -85.9213796
  },
  {
    "globaleventid": 267357069,
    "sqldate": 20130912,
    "monthyear": 201309,
    "year": 2013,
    "fractiondate": "2013.6904",
    "eventcode": 166,
    "quadclass": 4,
    "nummentions": 10,
    "numsources": 1,
    "numarticles": 10,
    "avgtone": "0.21551724137931",
    "sourceurl": "http://www.newsday.com/long-island/nassau/feds-roslyn-heights-man-pleads-guilty-to-store-robbery-spree-1.6060794",
    "feature_id": "944840",
    "feature_name": "Brooklyn",
    "state_alpha": "NY",
    "county_name": "Delaware",
    "county_numeric": "025",
    "prim_lat_dec": "42.3442482",
    "prim_long_dec": "-75.1704468",
    "elev_in_m": "366",
    "elev_in_ft": "1201",
    "lat": 42.3442482,
    "long": -75.1704468
  },
  {
    "globaleventid": 267357067,
    "sqldate": 20130912,
    "monthyear": 201309,
    "year": 2013,
    "fractiondate": "2013.6904",
    "eventcode": 112,
    "quadclass": 3,
    "nummentions": 6,
    "numsources": 1,
    "numarticles": 6,
    "avgtone": "0.925069380203515",
    "sourceurl": "http://enr.construction.com/yb/enr/article.aspx?story_id=189909048&c=x7jgdJt7QCeHxkzf8-kpKPQoYYPZa-nSYcnvaJKTKN0&mkt=en-us",
    "feature_id": "569106",
    "feature_name": "Kennebec",
    "state_alpha": "ME",
    "county_name": "Washington",
    "county_numeric": "029",
    "prim_lat_dec": "44.6684111",
    "prim_long_dec": "-67.46388",
    "elev_in_m": "5",
    "elev_in_ft": "16",
    "lat": 44.6684111,
    "long": -67.46388
  },
  {
    "globaleventid": 267357035,
    "sqldate": 20130912,
    "monthyear": 201309,
    "year": 2013,
    "fractiondate": "2013.6904",
    "eventcode": 193,
    "quadclass": 4,
    "nummentions": 2,
    "numsources": 1,
    "numarticles": 2,
    "avgtone": "0.947867298578199",
    "sourceurl": "http://www.lakewyliepilot.com/2013/09/10/2063917/ark-officer-on-leave-after-107.html",
    "feature_id": "78006",
    "feature_name": "Pine Bluff",
    "state_alpha": "AR",
    "county_name": "Jefferson",
    "county_numeric": "069",
    "prim_lat_dec": "34.2284312",
    "prim_long_dec": "-92.0031955",
    "elev_in_m": "67",
    "elev_in_ft": "220",
    "lat": 34.2284312,
    "long": -92.0031955
  },
  {
    "globaleventid": 267357034,
    "sqldate": 20130912,
    "monthyear": 201309,
    "year": 2013,
    "fractiondate": "2013.6904",
    "eventcode": 193,
    "quadclass": 4,
    "nummentions": 2,
    "numsources": 1,
    "numarticles": 2,
    "avgtone": "0.441176470588235",
    "sourceurl": "http://www.couriernews.com/view/full_story/23588133/article-Pine-Bluff-man--107--spoke-of-being-shot-before-standoff",
    "feature_id": "77553",
    "feature_name": "Lonoke",
    "state_alpha": "AR",
    "county_name": "Lonoke",
    "county_numeric": "085",
    "prim_lat_dec": "34.7839795",
    "prim_long_dec": "-91.8998611",
    "elev_in_m": "74",
    "elev_in_ft": "243",
    "lat": 34.7839795,
    "long": -91.8998611
  },
  {
    "globaleventid": 267357016,
    "sqldate": 20130912,
    "monthyear": 201309,
    "year": 2013,
    "fractiondate": "2013.6904",
    "eventcode": 173,
    "quadclass": 4,
    "nummentions": 4,
    "numsources": 1,
    "numarticles": 4,
    "avgtone": "1.57728706624606",
    "sourceurl": "http://www.denverpost.com/breakingnews/ci_24080723/englewood-woman-gets-28-months-failing-pay-4&c=oQ3xqtAJPqfSauTufiBA6PQSt3mnHaRIlaqHTx_fzgI&mkt=en-us",
    "feature_id": "201738",
    "feature_name": "Denver",
    "state_alpha": "CO",
    "county_name": "Denver",
    "county_numeric": "031",
    "prim_lat_dec": "39.7391536",
    "prim_long_dec": "-104.9847034",
    "elev_in_m": "1609",
    "elev_in_ft": "5279",
    "lat": 39.7391536,
    "long": -104.9847034
  },
  {
    "globaleventid": 267357015,
    "sqldate": 20130912,
    "monthyear": 201309,
    "year": 2013,
    "fractiondate": "2013.6904",
    "eventcode": 173,
    "quadclass": 4,
    "nummentions": 1,
    "numsources": 1,
    "numarticles": 1,
    "avgtone": "1.81058495821727",
    "sourceurl": "http://www.charlotteobserver.com/2013/09/12/4307223/2-arrested-after-york-county-meth.html",
    "feature_id": "1019610",
    "feature_name": "Charlotte",
    "state_alpha": "NC",
    "county_name": "Mecklenburg",
    "county_numeric": "119",
    "prim_lat_dec": "35.2270869",
    "prim_long_dec": "-80.8431268",
    "elev_in_m": "232",
    "elev_in_ft": "761",
    "lat": 35.2270869,
    "long": -80.8431268
  },
  {
    "globaleventid": 267357007,
    "sqldate": 20130912,
    "monthyear": 201309,
    "year": 2013,
    "fractiondate": "2013.6904",
    "eventcode": 138,
    "quadclass": 3,
    "nummentions": 5,
    "numsources": 1,
    "numarticles": 5,
    "avgtone": "3.76569037656904",
    "sourceurl": "http://www.washingtonpost.com/blogs/the-switch/wp/2013/09/12/cloudflare-ceo-says-insane-nsa-gag-order-is-costing-u-s-tech-firms-customers/",
    "feature_id": "531871",
    "feature_name": "Washington",
    "state_alpha": "DC",
    "county_name": "District of Columbia",
    "county_numeric": "001",
    "prim_lat_dec": "38.8951118",
    "prim_long_dec": "-77.0363658",
    "elev_in_m": "7",
    "elev_in_ft": "23",
    "lat": 38.8951118,
    "long": -77.0363658
  },
  {
    "globaleventid": 267356995,
    "sqldate": 20130912,
    "monthyear": 201309,
    "year": 2013,
    "fractiondate": "2013.6904",
    "eventcode": 1014,
    "quadclass": 3,
    "nummentions": 2,
    "numsources": 1,
    "numarticles": 2,
    "avgtone": "2.06349206349206",
    "sourceurl": "http://www.abc15.com/dpp/news/region_phoenix_metro/central_phoenix/debra-milke-update-detective-who-claimed-confession-will-not-testify",
    "feature_id": "44784",
    "feature_name": "Phoenix",
    "state_alpha": "AZ",
    "county_name": "Maricopa",
    "county_numeric": "013",
    "prim_lat_dec": "33.4483771",
    "prim_long_dec": "-112.0740373",
    "elev_in_m": "331",
    "elev_in_ft": "1086",
    "lat": 33.4483771,
    "long": -112.0740373
  },
  {
    "globaleventid": 267356994,
    "sqldate": 20130912,
    "monthyear": 201309,
    "year": 2013,
    "fractiondate": "2013.6904",
    "eventcode": 1014,
    "quadclass": 3,
    "nummentions": 2,
    "numsources": 1,
    "numarticles": 2,
    "avgtone": "2.06349206349206",
    "sourceurl": "http://www.abc15.com/dpp/news/region_phoenix_metro/central_phoenix/debra-milke-update-detective-who-claimed-confession-will-not-testify",
    "feature_id": "44784",
    "feature_name": "Phoenix",
    "state_alpha": "AZ",
    "county_name": "Maricopa",
    "county_numeric": "013",
    "prim_lat_dec": "33.4483771",
    "prim_long_dec": "-112.0740373",
    "elev_in_m": "331",
    "elev_in_ft": "1086",
    "lat": 33.4483771,
    "long": -112.0740373
  },
  {
    "globaleventid": 267356483,
    "sqldate": 20130912,
    "monthyear": 201309,
    "year": 2013,
    "fractiondate": "2013.6904",
    "eventcode": 190,
    "quadclass": 4,
    "nummentions": 12,
    "numsources": 1,
    "numarticles": 12,
    "avgtone": "1.88964186027134",
    "sourceurl": "http://www.bloomberg.com/news/2013-09-12/christie-heads-to-n-j-boardwalk-ablaze-after-sandy-rebuilding.html",
    "feature_id": "880451",
    "feature_name": "Seaside Park",
    "state_alpha": "NJ",
    "county_name": "Ocean",
    "county_numeric": "029",
    "prim_lat_dec": "39.9267852",
    "prim_long_dec": "-74.0770806",
    "elev_in_m": "2",
    "elev_in_ft": "7",
    "lat": 39.9267852,
    "long": -74.0770806
  },
  {
    "globaleventid": 267356466,
    "sqldate": 20130912,
    "monthyear": 201309,
    "year": 2013,
    "fractiondate": "2013.6904",
    "eventcode": 111,
    "quadclass": 3,
    "nummentions": 1,
    "numsources": 1,
    "numarticles": 1,
    "avgtone": "8.0",
    "sourceurl": "http://www.pr.com/press-release/515235",
    "feature_id": "988003",
    "feature_name": "Kings Mountain",
    "state_alpha": "NC",
    "county_name": "Cleveland",
    "county_numeric": "045",
    "prim_lat_dec": "35.2451343",
    "prim_long_dec": "-81.3411942",
    "elev_in_m": "307",
    "elev_in_ft": "1007",
    "lat": 35.2451343,
    "long": -81.3411942
  },
  {
    "globaleventid": 267356460,
    "sqldate": 20130912,
    "monthyear": 201309,
    "year": 2013,
    "fractiondate": "2013.6904",
    "eventcode": 110,
    "quadclass": 3,
    "nummentions": 3,
    "numsources": 1,
    "numarticles": 3,
    "avgtone": "1.70068027210884",
    "sourceurl": "http://www.baltimoresun.com/news/maryland/baltimore-city/north-baltimore/ph-ms-methadone-clinic-0919-20130912,0,1398307.story",
    "feature_id": "597518",
    "feature_name": "Hampden",
    "state_alpha": "MD",
    "county_name": "Baltimore (city)",
    "county_numeric": "510",
    "prim_lat_dec": "39.3309401",
    "prim_long_dec": "-76.6349686",
    "elev_in_m": "75",
    "elev_in_ft": "246",
    "lat": 39.3309401,
    "long": -76.6349686
  },
  {
    "globaleventid": 267356451,
    "sqldate": 20130912,
    "monthyear": 201309,
    "year": 2013,
    "fractiondate": "2013.6904",
    "eventcode": 100,
    "quadclass": 3,
    "nummentions": 4,
    "numsources": 2,
    "numarticles": 4,
    "avgtone": "0.929614873837981",
    "sourceurl": "http://www.kjonline.com/news/Fate-of-contracts-with-MaineCare-ride-brokers-up-in-the-air.html",
    "feature_id": "573692",
    "feature_name": "Portland",
    "state_alpha": "ME",
    "county_name": "Cumberland",
    "county_numeric": "005",
    "prim_lat_dec": "43.661471",
    "prim_long_dec": "-70.2553259",
    "elev_in_m": "19",
    "elev_in_ft": "62",
    "lat": 43.661471,
    "long": -70.2553259
  },
  {
    "globaleventid": 267355844,
    "sqldate": 20130912,
    "monthyear": 201309,
    "year": 2013,
    "fractiondate": "2013.6904",
    "eventcode": 190,
    "quadclass": 4,
    "nummentions": 1,
    "numsources": 1,
    "numarticles": 1,
    "avgtone": "3.0241935483871",
    "sourceurl": "http://www.koamtv.com/story/23416462/mccaskill-demands-answers-on-kabul-embassy-security-after-inconsistencies-in-testimony-from-state-department-official",
    "feature_id": "531871",
    "feature_name": "Washington",
    "state_alpha": "DC",
    "county_name": "District of Columbia",
    "county_numeric": "001",
    "prim_lat_dec": "38.8951118",
    "prim_long_dec": "-77.0363658",
    "elev_in_m": "7",
    "elev_in_ft": "23",
    "lat": 38.8951118,
    "long": -77.0363658
  },