[
  {
    "globaleventid": 255038469,
    "sqldate": 20130418,
    "monthyear": 201304,
    "year": 2013,
    "fractiondate": "2013.2959",
    "eventcode": 173,
    "quadclass": 4,
    "nummentions": 10,
    "numsources": 1,
    "numarticles": 10,
    "avgtone": "1.34831460674157",
    "sourceurl": "http://www.bloomberg.com/news/2013-05-17/illinois-man-indicted-for-trying-to-join-al-qaeda-ally.html",
    "feature_id": "423587",
    "feature_name": "Chicago",
    "state_alpha": "IL",
    "county_name": "Cook",
    "county_numeric": "031",
    "prim_lat_dec": "41.850033",
    "prim_long_dec": "-87.6500523",
    "elev_in_m": "179",
    "elev_in_ft": "587",
    "lat": 41.850033,
    "long": -87.6500523
  },
  {
    "globaleventid": 293920071,
    "sqldate": 20130418,
    "monthyear": 201304,
    "year": 2013,
    "fractiondate": "2013.2959",
    "eventcode": 173,
    "quadclass": 4,
    "nummentions": 4,
    "numsources": 1,
    "numarticles": 4,
    "avgtone": "1.08992634830126",
    "sourceurl": "http://www.philly.com/philly/news/20140418_N_J__man_gets_57_months_for_attack_in_historic_area.html",
    "feature_id": "1209052",
    "feature_name": "Philadelphia",
    "state_alpha": "PA",
    "county_name": "Philadelphia",
    "county_numeric": "101",
    "prim_lat_dec": "39.952335",
    "prim_long_dec": "-75.163789",
    "elev_in_m": "14",
    "elev_in_ft": "46",
    "lat": 39.952335,
    "long": -75.163789
  },
  {
    "globaleventid": 293919957,
    "sqldate": 20130418,
    "monthyear": 201304,
    "year": 2013,
    "fractiondate": "2013.2959",
    "eventcode": 120,
    "quadclass": 3,
    "nummentions": 76,
    "numsources": 34,
    "numarticles": 76,
    "avgtone": "2.82939164222615",
    "sourceurl": "http://tbo.com/health/apnewsbreak-medicaid-paid-m-for-illinois-dead-ap_health51483889d00b4f7482d6bf312bce2221",
    "feature_id": "423587",
    "feature_name": "Chicago",
    "state_alpha": "IL",
    "county_name": "Cook",
    "county_numeric": "031",
    "prim_lat_dec": "41.850033",
    "prim_long_dec": "-87.6500523",
    "elev_in_m": "179",
    "elev_in_ft": "587",
    "lat": 41.850033,
    "long": -87.6500523
  },
  {
    "globaleventid": 293919956,
    "sqldate": 20130418,
    "monthyear": 201304,
    "year": 2013,
    "fractiondate": "2013.2959",
    "eventcode": 120,
    "quadclass": 3,
    "nummentions": 2,
    "numsources": 1,
    "numarticles": 2,
    "avgtone": "3.01507537688442",
    "sourceurl": "http://news.gnom.es/news/apnewsbreak-medicaid-paid-12m-for-illinois-dead",
    "feature_id": "421852",
    "feature_name": "Hinsdale",
    "state_alpha": "IL",
    "county_name": "DuPage",
    "county_numeric": "043",
    "prim_lat_dec": "41.8008642",
    "prim_long_dec": "-87.9370052",
    "elev_in_m": "213",
    "elev_in_ft": "699",
    "lat": 41.8008642,
    "long": -87.9370052
  },
  {
    "globaleventid": 293919941,
    "sqldate": 20130418,
    "monthyear": 201304,
    "year": 2013,
    "fractiondate": "2013.2959",
    "eventcode": 114,
    "quadclass": 3,
    "nummentions": 5,
    "numsources": 1,
    "numarticles": 5,
    "avgtone": "3.33000333000333",
    "sourceurl": "http://www.metnews.com/articles/2014/judielec041814.htm",
    "feature_id": "1662328",
    "feature_name": "Los Angeles",
    "state_alpha": "CA",
    "county_name": "Los Angeles",
    "county_numeric": "037",
    "prim_lat_dec": "34.0522342",
    "prim_long_dec": "-118.2436849",
    "elev_in_m": "89",
    "elev_in_ft": "292",
    "lat": 34.0522342,
    "long": -118.2436849
  },
  {
    "globaleventid": 293919917,
    "sqldate": 20130418,
    "monthyear": 201304,
    "year": 2013,
    "fractiondate": "2013.2959",
    "eventcode": 111,
    "quadclass": 3,
    "nummentions": 3,
    "numsources": 1,
    "numarticles": 3,
    "avgtone": "1.73697270471464",
    "sourceurl": "http://www.denverpost.com/opinion/ci_25593088/lessons-from-columbine-and-other-public-shootings",
    "feature_id": "169446",
    "feature_name": "Littleton",
    "state_alpha": "CO",
    "county_name": "Arapahoe",
    "county_numeric": "005",
    "prim_lat_dec": "39.613321",
    "prim_long_dec": "-105.0166498",
    "elev_in_m": "1631",
    "elev_in_ft": "5351",
    "lat": 39.613321,
    "long": -105.0166498
  },
  {
    "globaleventid": 293919889,
    "sqldate": 20130418,
    "monthyear": 201304,
    "year": 2013,
    "fractiondate": "2013.2959",
    "eventcode": 173,
    "quadclass": 4,
    "nummentions": 12,
    "numsources": 2,
    "numarticles": 12,
    "avgtone": "0.0",
    "sourceurl": "http://www.sfgate.com/news/crime/article/Creal-Springs-man-gets-4-years-for-deadly-fight-5413559.php",
    "feature_id": "424793",
    "feature_name": "Creal Springs",
    "state_alpha": "IL",
    "county_name": "Williamson",
    "county_numeric": "199",
    "prim_lat_dec": "37.6194946",
    "prim_long_dec": "-88.8367311",
    "elev_in_m": "155",
    "elev_in_ft": "509",
    "lat": 37.6194946,
    "long": -88.8367311
  },
  {
    "globaleventid": 293919888,
    "sqldate": 20130418,
    "monthyear": 201304,
    "year": 2013,
    "fractiondate": "2013.2959",
    "eventcode": 173,
    "quadclass": 4,
    "nummentions": 6,
    "numsources": 1,
    "numarticles": 6,
    "avgtone": "0.662251655629139",
    "sourceurl": "http://www.greenfieldreporter.com/view/story/6d8f495e89f649819169ce1c7fc7846a/PA--Fake-Kidnapping-Plea",
    "feature_id": "1182330",
    "feature_name": "New Holland",
    "state_alpha": "PA",
    "county_name": "Lancaster",
    "county_numeric": "071",
    "prim_lat_dec": "40.1017643",
    "prim_long_dec": "-76.085227",
    "elev_in_m": "150",
    "elev_in_ft": "492",
    "lat": 40.1017643,
    "long": -76.085227
  },
  {
    "globaleventid": 293919877,
    "sqldate": 20130418,
    "monthyear": 201304,
    "year": 2013,
    "fractiondate": "2013.2959",
    "eventcode": 190,
    "quadclass": 4,
    "nummentions": 10,
    "numsources": 1,
    "numarticles": 10,
    "avgtone": "1.75438596491228",
    "sourceurl": "http://www.bizjournals.com/phoenix/morning_call/2014/04/michaels-latest-store-hit-by-credit-card-hack.html?utm_source=feedburner&utm_medium=feed&utm_campaign=Feed%3A+bizj_phoenix+%28Phoenix+Business+Journal%29",
    "feature_id": "44784",
    "feature_name": "Phoenix",
    "state_alpha": "AZ",
    "county_name": "Maricopa",
    "county_numeric": "013",
    "prim_lat_dec": "33.4483771",
    "prim_long_dec": "-112.0740373",
    "elev_in_m": "331",
    "elev_in_ft": "1086",
    "lat": 33.4483771,
    "long": -112.0740373
  },
  {
    "globaleventid": 293919872,
    "sqldate": 20130418,
    "monthyear": 201304,
    "year": 2013,
    "fractiondate": "2013.2959",
    "eventcode": 172,
    "quadclass": 4,
    "nummentions": 2,
    "numsources": 1,
    "numarticles": 2,
    "avgtone": "1.75438596491228",
    "sourceurl": "http://gazette.com/robber-who-was-homesick-for-prison-to-be-sentenced/article/1518427",
    "feature_id": "423587",
    "feature_name": "Chicago",
    "state_alpha": "IL",
    "county_name": "Cook",
    "county_numeric": "031",
    "prim_lat_dec": "41.850033",
    "prim_long_dec": "-87.6500523",
    "elev_in_m": "179",
    "elev_in_ft": "587",
    "lat": 41.850033,
    "long": -87.6500523
  },
  {
    "globaleventid": 293919871,
    "sqldate": 20130418,
    "monthyear": 201304,
    "year": 2013,
    "fractiondate": "2013.2959",
    "eventcode": 172,
    "quadclass": 4,
    "nummentions": 2,
    "numsources": 1,
    "numarticles": 2,
    "avgtone": "1.75438596491228",
    "sourceurl": "http://gazette.com/robber-who-was-homesick-for-prison-to-be-sentenced/article/1518427",
    "feature_id": "423587",
    "feature_name": "Chicago",
    "state_alpha": "IL",
    "county_name": "Cook",
    "county_numeric": "031",
    "prim_lat_dec": "41.850033",
    "prim_long_dec": "-87.6500523",
    "elev_in_m": "179",
    "elev_in_ft": "587",
    "lat": 41.850033,
    "long": -87.6500523
  },
  {
    "globaleventid": 293919864,
    "sqldate": 20130418,
    "monthyear": 201304,
    "year": 2013,
    "fractiondate": "2013.2959",
    "eventcode": 130,
    "quadclass": 3,
    "nummentions": 1,
    "numsources": 1,
    "numarticles": 1,
    "avgtone": "4.00667779632721",
    "sourceurl": "http://www.oregonlive.com/pacific-northwest-news/index.ssf/2014/04/tribes_ranchers_sign_deal_to_s.html",
    "feature_id": "277534",
    "feature_name": "Klamath",
    "state_alpha": "CA",
    "county_name": "Del Norte",
    "county_numeric": "015",
    "prim_lat_dec": "41.5265092",
    "prim_long_dec": "-124.0384069",
    "elev_in_m": "9",
    "elev_in_ft": "30",
    "lat": 41.5265092,
    "long": -124.0384069
  },
  {
    "globaleventid": 293919863,
    "sqldate": 20130418,
    "monthyear": 201304,
    "year": 2013,
    "fractiondate": "2013.2959",
    "eventcode": 130,
    "quadclass": 3,
    "nummentions": 1,
    "numsources": 1,
    "numarticles": 1,
    "avgtone": "4.00667779632721",
    "sourceurl": "http://www.oregonlive.com/pacific-northwest-news/index.ssf/2014/04/tribes_ranchers_sign_deal_to_s.html",
    "feature_id": "277534",
    "feature_name": "Klamath",
    "state_alpha": "CA",
    "county_name": "Del Norte",
    "county_numeric": "015",
    "prim_lat_dec": "41.5265092",
    "prim_long_dec": "-124.0384069",
    "elev_in_m": "9",
    "elev_in_ft": "30",
    "lat": 41.5265092,
    "long": -124.0384069
  },
  {
    "globaleventid": 293919526,
    "sqldate": 20130418,
    "monthyear": 201304,
    "year": 2013,
    "fractiondate": "2013.2959",
    "eventcode": 115,
    "quadclass": 3,
    "nummentions": 3,
    "numsources": 3,
    "numarticles": 3,
    "avgtone": "3.94467401285583",
    "sourceurl": "http://www.timesdispatch.com/news/state-regional/law-professors-back-herring-s-marriage-stance/article_11491ec8-c70d-11e3-8575-001a4bcf6878.html",
    "feature_id": "1497051",
    "feature_name": "Norfolk",
    "state_alpha": "VA",
    "county_name": "Norfolk (city)",
    "county_numeric": "710",
    "prim_lat_dec": "36.8468146",
    "prim_long_dec": "-76.2852183",
    "elev_in_m": "3",
    "elev_in_ft": "10",
    "lat": 36.8468146,
    "long": -76.2852183
  },
  {
    "globaleventid": 293919519,
    "sqldate": 20130418,
    "monthyear": 201304,
    "year": 2013,
    "fractiondate": "2013.2959",
    "eventcode": 120,
    "quadclass": 3,
    "nummentions": 3,
    "numsources": 3,
    "numarticles": 3,
    "avgtone": "3.94467401285583",
    "sourceurl": "http://www.timesdispatch.com/news/state-regional/law-professors-back-herring-s-marriage-stance/article_11491ec8-c70d-11e3-8575-001a4bcf6878.html",
    "feature_id": "1497051",
    "feature_name": "Norfolk",
    "state_alpha": "VA",
    "county_name": "Norfolk (city)",
    "county_numeric": "710",
    "prim_lat_dec": "36.8468146",
    "prim_long_dec": "-76.2852183",
    "elev_in_m": "3",
    "elev_in_ft": "10",
    "lat": 36.8468146,
    "long": -76.2852183
  },
  {
    "globaleventid": 293919503,
    "sqldate": 20130418,
    "monthyear": 201304,
    "year": 2013,
    "fractiondate": "2013.2959",
    "eventcode": 112,
    "quadclass": 3,
    "nummentions": 2,
    "numsources": 1,
    "numarticles": 2,
    "avgtone": "0.384615384615385",
    "sourceurl": "http://cumberlink.com/news/local/crime-and-courts/upper-allen-incident-connected-to-drug-cartel/article_39c9c8d6-c742-11e3-a6cc-0019bb2963f4.html",
    "feature_id": "288240",
    "feature_name": "Orlando",
    "state_alpha": "FL",
    "county_name": "Orange",
    "county_numeric": "095",
    "prim_lat_dec": "28.5383355",
    "prim_long_dec": "-81.3792365",
    "elev_in_m": "31",
    "elev_in_ft": "102",
    "lat": 28.5383355,
    "long": -81.3792365
  },
  {
    "globaleventid": 293919484,
    "sqldate": 20130418,
    "monthyear": 201304,
    "year": 2013,
    "fractiondate": "2013.2959",
    "eventcode": 190,
    "quadclass": 4,
    "nummentions": 16,
    "numsources": 2,
    "numarticles": 16,
    "avgtone": "1.84970747386921",
    "sourceurl": "http://azdailysun.com/news/local/govt-and-politics/arizona-legislative-roundup-revenge-porn-criminal-penalties-advance/article_d4e70262-c6ba-11e3-bc6a-001a4bcf887a.html",
    "feature_id": "43534",
    "feature_name": "Tucson",
    "state_alpha": "AZ",
    "county_name": "Pima",
    "county_numeric": "019",
    "prim_lat_dec": "32.2217429",
    "prim_long_dec": "-110.926479",
    "elev_in_m": "759",
    "elev_in_ft": "2490",
    "lat": 32.2217429,
    "long": -110.926479
  },
  {
    "globaleventid": 293919412,
    "sqldate": 20130418,
    "monthyear": 201304,
    "year": 2013,
    "fractiondate": "2013.2959",
    "eventcode": 100,
    "quadclass": 3,
    "nummentions": 10,
    "numsources": 1,
    "numarticles": 10,
    "avgtone": "1.80072028811525",
    "sourceurl": "http://www.modbee.com/2014/04/17/3297999/in-sacramento-das-race-schubert.html",
    "feature_id": "277609",
    "feature_name": "Modesto",
    "state_alpha": "CA",
    "county_name": "Stanislaus",
    "county_numeric": "099",
    "prim_lat_dec": "37.6390972",
    "prim_long_dec": "-120.9968782",
    "elev_in_m": "27",
    "elev_in_ft": "89",
    "lat": 37.6390972,
    "long": -120.9968782
  },
  {
    "globaleventid": 293919374,
    "sqldate": 20130418,
    "monthyear": 201304,
    "year": 2013,
    "fractiondate": "2013.2959",
    "eventcode": 114,
    "quadclass": 3,
    "nummentions": 2,
    "numsources": 1,
    "numarticles": 2,
    "avgtone": "3.33000333000333",
    "sourceurl": "http://www.metnews.com/articles/2014/judielec041814.htm",
    "feature_id": "1662328",
    "feature_name": "Los Angeles",
    "state_alpha": "CA",
    "county_name": "Los Angeles",
    "county_numeric": "037",
    "prim_lat_dec": "34.0522342",
    "prim_long_dec": "-118.2436849",
    "elev_in_m": "89",
    "elev_in_ft": "292",
    "lat": 34.0522342,
    "long": -118.2436849
  },
  {
    "globaleventid": 293919367,
    "sqldate": 20130418,
    "monthyear": 201304,
    "year": 2013,
    "fractiondate": "2013.2959",
    "eventcode": 110,
    "quadclass": 3,
    "nummentions": 10,
    "numsources": 1,
    "numarticles": 10,
    "avgtone": "1.8348623853211",
    "sourceurl": "http://www.sfvbj.com/news/2014/apr/18/antelope-valley-union-settlement-costs-boeing-47-m/",
    "feature_id": "423587",
    "feature_name": "Chicago",
    "state_alpha": "IL",
    "county_name": "Cook",
    "county_numeric": "031",
    "prim_lat_dec": "41.850033",
    "prim_long_dec": "-87.6500523",
    "elev_in_m": "179",
    "elev_in_ft": "587",
    "lat": 41.850033,
    "long": -87.6500523
  },
  {
    "globaleventid": 293919323,
    "sqldate": 20130418,
    "monthyear": 201304,
    "year": 2013,
    "fractiondate": "2013.2959",
    "eventcode": 173,
    "quadclass": 4,
    "nummentions": 2,
    "numsources": 1,
    "numarticles": 2,
    "avgtone": "3.40236686390533",
    "sourceurl": "http://www.timesunion.com/local/article/Victory-wants-state-to-allow-clerk-to-live-5411655.php",
    "feature_id": "531871",
    "feature_name": "Washington",
    "state_alpha": "DC",
    "county_name": "District of Columbia",
    "county_numeric": "001",
    "prim_lat_dec": "38.8951118",
    "prim_long_dec": "-77.0363658",
    "elev_in_m": "7",
    "elev_in_ft": "23",
    "lat": 38.8951118,
    "long": -77.0363658
  },
  {
    "globaleventid": 293919153,
    "sqldate": 20130418,
    "monthyear": 201304,
    "year": 2013,
    "fractiondate": "2013.2959",
    "eventcode": 172,
    "quadclass": 4,
    "nummentions": 2,
    "numsources": 1,
    "numarticles": 2,
    "avgtone": "0.711743772241993",
    "sourceurl": "http://www.philly.com/philly/business/Top_Fed_officials_consider_enforcement_issue_at_closed_meeting.html",
    "feature_id": "531871",
    "feature_name": "Washington",
    "state_alpha": "DC",
    "county_name": "District of Columbia",
    "county_numeric": "001",
    "prim_lat_dec": "38.8951118",
    "prim_long_dec": "-77.0363658",
    "elev_in_m": "7",
    "elev_in_ft": "23",
    "lat": 38.8951118,
    "long": -77.0363658
  },
  {
    "globaleventid": 293919078,
    "sqldate": 20130418,
    "monthyear": 201304,
    "year": 2013,
    "fractiondate": "2013.2959",
    "eventcode": 115,
    "quadclass": 3,
    "nummentions": 12,
    "numsources": 3,
    "numarticles": 12,
    "avgtone": "3.94467401285583",
    "sourceurl": "http://www.timesdispatch.com/news/state-regional/law-professors-back-herring-s-marriage-stance/article_11491ec8-c70d-11e3-8575-001a4bcf6878.html",
    "feature_id": "1497051",
    "feature_name": "Norfolk",
    "state_alpha": "VA",
    "county_name": "Norfolk (city)",
    "county_numeric": "710",
    "prim_lat_dec": "36.8468146",
    "prim_long_dec": "-76.2852183",
    "elev_in_m": "3",
    "elev_in_ft": "10",
    "lat": 36.8468146,
    "long": -76.2852183
  },
  {
    "globaleventid": 293919073,
    "sqldate": 20130418,
    "monthyear": 201304,
    "year": 2013,
    "fractiondate": "2013.2959",
    "eventcode": 120,
    "quadclass": 3,
    "nummentions": 15,
    "numsources": 3,
    "numarticles": 15,
    "avgtone": "3.94467401285583",
    "sourceurl": "http://www.timesdispatch.com/news/state-regional/law-professors-back-herring-s-marriage-stance/article_11491ec8-c70d-11e3-8575-001a4bcf6878.html",
    "feature_id": "1497051",
    "feature_name": "Norfolk",
    "state_alpha": "VA",
    "county_name": "Norfolk (city)",
    "county_numeric": "710",
    "prim_lat_dec": "36.8468146",
    "prim_long_dec": "-76.2852183",
    "elev_in_m": "3",
    "elev_in_ft": "10",
    "lat": 36.8468146,
    "long": -76.2852183
  },
  {
    "globaleventid": 293919072,
    "sqldate": 20130418,
    "monthyear": 201304,
    "year": 2013,
    "fractiondate": "2013.2959",
    "eventcode": 115,
    "quadclass": 3,
    "nummentions": 3,
    "numsources": 3,
    "numarticles": 3,
    "avgtone": "3.94467401285583",
    "sourceurl": "http://www.timesdispatch.com/news/state-regional/law-professors-back-herring-s-marriage-stance/article_11491ec8-c70d-11e3-8575-001a4bcf6878.html",
    "feature_id": "1497051",
    "feature_name": "Norfolk",
    "state_alpha": "VA",
    "county_name": "Norfolk (city)",
    "county_numeric": "710",
    "prim_lat_dec": "36.8468146",
    "prim_long_dec": "-76.2852183",
    "elev_in_m": "3",
    "elev_in_ft": "10",
    "lat": 36.8468146,
    "long": -76.2852183
  },
  {
    "globaleventid": 293918900,
    "sqldate": 20130418,
    "monthyear": 201304,
    "year": 2013,
    "fractiondate": "2013.2959",
    "eventcode": 173,
    "quadclass": 4,
    "nummentions": 4,
    "numsources": 1,
    "numarticles": 4,
    "avgtone": "1.90995907230559",
    "sourceurl": "http://www.khaleejtimes.com/kt-article-display-1.asp?xfile=data/offbeat/2014/April/offbeat_April13.xml&section=offbeat",
    "feature_id": "423587",
    "feature_name": "Chicago",
    "state_alpha": "IL",
    "county_name": "Cook",
    "county_numeric": "031",
    "prim_lat_dec": "41.850033",
    "prim_long_dec": "-87.6500523",
    "elev_in_m": "179",
    "elev_in_ft": "587",
    "lat": 41.850033,
    "long": -87.6500523
  },
  {
    "globaleventid": 293918892,
    "sqldate": 20130418,
    "monthyear": 201304,
    "year": 2013,
    "fractiondate": "2013.2959",
    "eventcode": 193,
    "quadclass": 4,
    "nummentions": 10,
    "numsources": 1,
    "numarticles": 10,
    "avgtone": "0.675675675675676",
    "sourceurl": "http://www.dailyjournal.net/view/story/c10c31231f1e4384b9008bb885dc27aa/NY--Police-Shooting-Teen/",
    "feature_id": "944840",
    "feature_name": "Brooklyn",
    "state_alpha": "NY",
    "county_name": "Delaware",
    "county_numeric": "025",
    "prim_lat_dec": "42.3442482",
    "prim_long_dec": "-75.1704468",
    "elev_in_m": "366",
    "elev_in_ft": "1201",
    "lat": 42.3442482,
    "long": -75.1704468
  },
  {
    "globaleventid": 293918891,
    "sqldate": 20130418,
    "monthyear": 201304,
    "year": 2013,
    "fractiondate": "2013.2959",
    "eventcode": 193,
    "quadclass": 4,
    "nummentions": 10,
    "numsources": 1,
    "numarticles": 10,
    "avgtone": "0.694444444444444",
    "sourceurl": "http://www.ctpost.com/news/crime/article/Family-of-teen-shot-and-killed-by-police-sues-NYC-5414095.php",
    "feature_id": "205750",
    "feature_name": "Brooklyn",
    "state_alpha": "CT",
    "county_name": "Windham",
    "county_numeric": "015",
    "prim_lat_dec": "41.7881541",
    "prim_long_dec": "-71.9497957",
    "elev_in_m": "86",
    "elev_in_ft": "282",
    "lat": 41.7881541,
    "long": -71.9497957
  },
  {
    "globaleventid": 293918890,
    "sqldate": 20130418,
    "monthyear": 201304,
    "year": 2013,
    "fractiondate": "2013.2959",
    "eventcode": 193,
    "quadclass": 4,
    "nummentions": 10,
    "numsources": 1,
    "numarticles": 10,
    "avgtone": "0.694444444444444",
    "sourceurl": "http://www.washingtontimes.com/news/2014/apr/18/family-of-teen-shot-and-killed-by-police-sues-nyc/",
    "feature_id": "1510840",
    "feature_name": "Brooklyn",
    "state_alpha": "WA",
    "county_name": "Pacific",
    "county_numeric": "049",
    "prim_lat_dec": "46.776211",
    "prim_long_dec": "-123.5098812",
    "elev_in_m": "54",
    "elev_in_ft": "177",
    "lat": 46.776211,
    "long": -123.5098812
  },
  {
    "globaleventid": 293918885,
    "sqldate": 20130418,
    "monthyear": 201304,
    "year": 2013,
    "fractiondate": "2013.2959",
    "eventcode": 141,
    "quadclass": 3,
    "nummentions": 2,
    "numsources": 1,
    "numarticles": 2,
    "avgtone": "0.675675675675676",
    "sourceurl": "http://www.dailyjournal.net/view/story/c10c31231f1e4384b9008bb885dc27aa/NY--Police-Shooting-Teen/",
    "feature_id": "944840",
    "feature_name": "Brooklyn",
    "state_alpha": "NY",
    "county_name": "Delaware",
    "county_numeric": "025",
    "prim_lat_dec": "42.3442482",
    "prim_long_dec": "-75.1704468",
    "elev_in_m": "366",
    "elev_in_ft": "1201",
    "lat": 42.3442482,
    "long": -75.1704468
  },
  {
    "globaleventid": 293918883,
    "sqldate": 20130418,
    "monthyear": 201304,
    "year": 2013,
    "fractiondate": "2013.2959",
    "eventcode": 141,
    "quadclass": 3,
    "nummentions": 2,
    "numsources": 1,
    "numarticles": 2,
    "avgtone": "0.694444444444444",
    "sourceurl": "http://www.ctpost.com/news/crime/article/Family-of-teen-shot-and-killed-by-police-sues-NYC-5414095.php",
    "feature_id": "205750",
    "feature_name": "Brooklyn",
    "state_alpha": "CT",
    "county_name": "Windham",
    "county_numeric": "015",
    "prim_lat_dec": "41.7881541",
    "prim_long_dec": "-71.9497957",
    "elev_in_m": "86",
    "elev_in_ft": "282",
    "lat": 41.7881541,
    "long": -71.9497957
  },
  {
    "globaleventid": 293918881,
    "sqldate": 20130418,
    "monthyear": 201304,
    "year": 2013,
    "fractiondate": "2013.2959",
    "eventcode": 141,
    "quadclass": 3,
    "nummentions": 2,
    "numsources": 1,
    "numarticles": 2,
    "avgtone": "0.694444444444444",
    "sourceurl": "http://www.washingtontimes.com/news/2014/apr/18/family-of-teen-shot-and-killed-by-police-sues-nyc/",
    "feature_id": "1510840",
    "feature_name": "Brooklyn",
    "state_alpha": "WA",
    "county_name": "Pacific",
    "county_numeric": "049",
    "prim_lat_dec": "46.776211",
    "prim_long_dec": "-123.5098812",
    "elev_in_m": "54",
    "elev_in_ft": "177",
    "lat": 46.776211,
    "long": -123.5098812
  },
  {
    "globaleventid": 254080642,
    "sqldate": 20130418,
    "monthyear": 201304,
    "year": 2013,
    "fractiondate": "2013.2959",
    "eventcode": 111,
    "quadclass": 3,
    "nummentions": 6,
    "numsources": 1,
    "numarticles": 6,
    "avgtone": "2.51450676982592",
    "sourceurl": "http://cnsnews.com/blog/gregory-gwyn-williams-jr/editorials-seethe-anger-over-shameful-gun-control-defeat",
    "feature_id": "531871",
    "feature_name": "Washington",
    "state_alpha": "DC",
    "county_name": "District of Columbia",
    "county_numeric": "001",
    "prim_lat_dec": "38.8951118",
    "prim_long_dec": "-77.0363658",
    "elev_in_m": "7",
    "elev_in_ft": "23",
    "lat": 38.8951118,
    "long": -77.0363658
  },
  {
    "globaleventid": 254080641,
    "sqldate": 20130418,
    "monthyear": 201304,
    "year": 2013,
    "fractiondate": "2013.2959",
    "eventcode": 111,
    "quadclass": 3,
    "nummentions": 3,
    "numsources": 1,
    "numarticles": 3,
    "avgtone": "2.51450676982592",
    "sourceurl": "http://cnsnews.com/blog/gregory-gwyn-williams-jr/editorials-seethe-anger-over-shameful-gun-control-defeat",
    "feature_id": "531871",
    "feature_name": "Washington",
    "state_alpha": "DC",
    "county_name": "District of Columbia",
    "county_numeric": "001",
    "prim_lat_dec": "38.8951118",
    "prim_long_dec": "-77.0363658",
    "elev_in_m": "7",
    "elev_in_ft": "23",
    "lat": 38.8951118,
    "long": -77.0363658
  },
  {
    "globaleventid": 254080520,
    "sqldate": 20130418,
    "monthyear": 201304,
    "year": 2013,
    "fractiondate": "2013.2959",
    "eventcode": 190,
    "quadclass": 4,
    "nummentions": 6,
    "numsources": 1,
    "numarticles": 6,
    "avgtone": "2.87769784172662",
    "sourceurl": "http://www.eenews.net/Greenwire/rss/2013/04/19/14",
    "feature_id": "1558347",
    "feature_name": "Charleston",
    "state_alpha": "WV",
    "county_name": "Kanawha",
    "county_numeric": "039",
    "prim_lat_dec": "38.3498195",
    "prim_long_dec": "-81.6326235",
    "elev_in_m": "182",
    "elev_in_ft": "597",
    "lat": 38.3498195,
    "long": -81.6326235
  },
  {
    "globaleventid": 254079209,
    "sqldate": 20130418,
    "monthyear": 201304,
    "year": 2013,
    "fractiondate": "2013.2959",
    "eventcode": 173,
    "quadclass": 4,
    "nummentions": 2,
    "numsources": 1,
    "numarticles": 2,
    "avgtone": "2.47349823321555",
    "sourceurl": "http://www.nydailynews.com/news/world/forced-walk-hot-coals-talking-church-article-1.1320454?localLinksEnabled=false",
    "feature_id": "1203751",
    "feature_name": "Harlem",
    "state_alpha": "PA",
    "county_name": "Berks",
    "county_numeric": "011",
    "prim_lat_dec": "40.4581526",
    "prim_long_dec": "-75.5874084",
    "elev_in_m": "239",
    "elev_in_ft": "784",
    "lat": 40.4581526,
    "long": -75.5874084
  },
  {
    "globaleventid": 254079105,
    "sqldate": 20130418,
    "monthyear": 201304,
    "year": 2013,
    "fractiondate": "2013.2959",
    "eventcode": 173,
    "quadclass": 4,
    "nummentions": 8,
    "numsources": 1,
    "numarticles": 8,
    "avgtone": "1.64319248826291",
    "sourceurl": "http://www.nhregister.com/articles/2013/04/18/news/new_haven/doc5170382e058dd838051555.txt",
    "feature_id": "209231",
    "feature_name": "New Haven",
    "state_alpha": "CT",
    "county_name": "New Haven",
    "county_numeric": "009",
    "prim_lat_dec": "41.3081527",
    "prim_long_dec": "-72.9281578",
    "elev_in_m": "12",
    "elev_in_ft": "39",
    "lat": 41.3081527,
    "long": -72.9281578
  },
  {
    "globaleventid": 254079104,
    "sqldate": 20130418,
    "monthyear": 201304,
    "year": 2013,
    "fractiondate": "2013.2959",
    "eventcode": 173,
    "quadclass": 4,
    "nummentions": 2,
    "numsources": 1,
    "numarticles": 2,
    "avgtone": "1.64319248826291",
    "sourceurl": "http://www.nhregister.com/articles/2013/04/18/news/new_haven/doc5170382e058dd838051555.txt",
    "feature_id": "206990",
    "feature_name": "Fair Haven",
    "state_alpha": "CT",
    "county_name": "New Haven",
    "county_numeric": "009",
    "prim_lat_dec": "41.3112082",
    "prim_long_dec": "-72.8956569",
    "elev_in_m": "9",
    "elev_in_ft": "30",
    "lat": 41.3112082,
    "long": -72.8956569
  },
  {
    "globaleventid": 254078672,
    "sqldate": 20130418,
    "monthyear": 201304,
    "year": 2013,
    "fractiondate": "2013.2959",
    "eventcode": 110,
    "quadclass": 3,
    "nummentions": 30,
    "numsources": 3,
    "numarticles": 30,
    "avgtone": "2.2712355526478",
    "sourceurl": "http://news.msn.co.nz/worldnews/8644471/court-upholds-secrecy-in-manning-trial",
    "feature_id": "531871",
    "feature_name": "Washington",
    "state_alpha": "DC",
    "county_name": "District of Columbia",
    "county_numeric": "001",
    "prim_lat_dec": "38.8951118",
    "prim_long_dec": "-77.0363658",
    "elev_in_m": "7",
    "elev_in_ft": "23",
    "lat": 38.8951118,
    "long": -77.0363658
  },
  {
    "globaleventid": 254078650,
    "sqldate": 20130418,
    "monthyear": 201304,
    "year": 2013,
    "fractiondate": "2013.2959",
    "eventcode": 138,
    "quadclass": 3,
    "nummentions": 8,
    "numsources": 1,
    "numarticles": 8,
    "avgtone": "0.775193798449612",
    "sourceurl": "http://www.wftv.com/news/news/local/man-accused-planned-attack-us-military-sentenced-1/nXQbd/",
    "feature_id": "617565",
    "feature_name": "Boston",
    "state_alpha": "MA",
    "county_name": "Suffolk",
    "county_numeric": "025",
    "prim_lat_dec": "42.3584308",
    "prim_long_dec": "-71.0597732",
    "elev_in_m": "14",
    "elev_in_ft": "46",
    "lat": 42.3584308,
    "long": -71.0597732
  },
  {
    "globaleventid": 254078614,
    "sqldate": 20130418,
    "monthyear": 201304,
    "year": 2013,
    "fractiondate": "2013.2959",
    "eventcode": 193,
    "quadclass": 4,
    "nummentions": 4,
    "numsources": 1,
    "numarticles": 4,
    "avgtone": "2.47524752475248",
    "sourceurl": "http://www.nypost.com/p/news/local/mayoral_hopeful_john_catsimatidis_JtW3R5pgD1OwpRnbvWSuyM?utm_medium=rss&utm_content=%20Local",
    "feature_id": "617565",
    "feature_name": "Boston",
    "state_alpha": "MA",
    "county_name": "Suffolk",
    "county_numeric": "025",
    "prim_lat_dec": "42.3584308",
    "prim_long_dec": "-71.0597732",
    "elev_in_m": "14",
    "elev_in_ft": "46",
    "lat": 42.3584308,
    "long": -71.0597732
  },
  {
    "globaleventid": 254078610,
    "sqldate": 20130418,
    "monthyear": 201304,
    "year": 2013,
    "fractiondate": "2013.2959",
    "eventcode": 180,
    "quadclass": 4,
    "nummentions": 6,
    "numsources": 1,
    "numarticles": 6,
    "avgtone": "2.23463687150838",
    "sourceurl": "http://www.newsday.com/news/nation/kerry-us-making-progress-on-benghazi-attackers-1.5089801",
    "feature_id": "531871",
    "feature_name": "Washington",
    "state_alpha": "DC",
    "county_name": "District of Columbia",
    "county_numeric": "001",
    "prim_lat_dec": "38.8951118",
    "prim_long_dec": "-77.0363658",
    "elev_in_m": "7",
    "elev_in_ft": "23",
    "lat": 38.8951118,
    "long": -77.0363658
  },
  {
    "globaleventid": 254078608,
    "sqldate": 20130418,
    "monthyear": 201304,
    "year": 2013,
    "fractiondate": "2013.2959",
    "eventcode": 173,
    "quadclass": 4,
    "nummentions": 1,
    "numsources": 1,
    "numarticles": 1,
    "avgtone": "2.08333333333333",
    "sourceurl": "http://www.reuters.com/article/2013/04/18/us-usa-texas-districtattorney-idUSBRE93H10T20130418",
    "feature_id": "1378241",
    "feature_name": "Edith",
    "state_alpha": "TX",
    "county_name": "Coke",
    "county_numeric": "081",
    "prim_lat_dec": "31.9034748",
    "prim_long_dec": "-100.610658",
    "elev_in_m": "597",
    "elev_in_ft": "1959",
    "lat": 31.9034748,
    "long": -100.610658
  },
  {
    "globaleventid": 254078604,
    "sqldate": 20130418,
    "monthyear": 201304,
    "year": 2013,
    "fractiondate": "2013.2959",
    "eventcode": 111,
    "quadclass": 3,
    "nummentions": 10,
    "numsources": 1,
    "numarticles": 10,
    "avgtone": "0.943396226415094",
    "sourceurl": "http://www.google.com/hostednews/ap/article/ALeqM5gDHQtitENdQbgFvYGzQZp3dZl8Rg?docId=c443904526c8461a93d07aa5b3fbf04e",
    "feature_id": "876119",
    "feature_name": "Egg Harbor City",
    "state_alpha": "NJ",
    "county_name": "Atlantic",
    "county_numeric": "001",
    "prim_lat_dec": "39.5287282",
    "prim_long_dec": "-74.6479364",
    "elev_in_m": "18",
    "elev_in_ft": "59",
    "lat": 39.5287282,
    "long": -74.6479364
  },
  {
    "globaleventid": 254078601,
    "sqldate": 20130418,
    "monthyear": 201304,
    "year": 2013,
    "fractiondate": "2013.2959",
    "eventcode": 110,
    "quadclass": 3,
    "nummentions": 2,
    "numsources": 1,
    "numarticles": 2,
    "avgtone": "0.677200902934537",
    "sourceurl": "http://www.chron.com/news/houston-texas/houston/article/Petition-to-put-Sugar-Land-red-light-cameras-to-a-4446191.php",
    "feature_id": "1348034",
    "feature_name": "Sugar Land",
    "state_alpha": "TX",
    "county_name": "Fort Bend",
    "county_numeric": "157",
    "prim_lat_dec": "29.6196787",
    "prim_long_dec": "-95.6349463",
    "elev_in_m": "23",
    "elev_in_ft": "75",
    "lat": 29.6196787,
    "long": -95.6349463
  },
  {
    "globaleventid": 254078518,
    "sqldate": 20130418,
    "monthyear": 201304,
    "year": 2013,
    "fractiondate": "2013.2959",
    "eventcode": 190,
    "quadclass": 4,
    "nummentions": 10,
    "numsources": 1,
    "numarticles": 10,
    "avgtone": "2.10970464135021",
    "sourceurl": "http://www.reuters.com/article/2013/04/18/us-usa-pensions-congress-idUSBRE93H0TZ20130418?feedType=RSS&feedName=politicsNews",
    "feature_id": "531871",
    "feature_name": "Washington",
    "state_alpha": "DC",
    "county_name": "District of Columbia",
    "county_numeric": "001",
    "prim_lat_dec": "38.8951118",
    "prim_long_dec": "-77.0363658",
    "elev_in_m": "7",
    "elev_in_ft": "23",
    "lat": 38.8951118,
    "long": -77.0363658
  },
  {
    "globaleventid": 254078517,
    "sqldate": 20130418,
    "monthyear": 201304,
    "year": 2013,
    "fractiondate": "2013.2959",
    "eventcode": 130,
    "quadclass": 3,
    "nummentions": 2,
    "numsources": 1,
    "numarticles": 2,
    "avgtone": "7.4468085106383",
    "sourceurl": "http://www.news.com.au/breaking-news/wa-can-move-on-marriage-equality-says-greens-mp-lynn-maclaren/story-e6frfkp9-1226623517099?from=public_rss",
    "feature_id": "531871",
    "feature_name": "Washington",
    "state_alpha": "DC",
    "county_name": "District of Columbia",
    "county_numeric": "001",
    "prim_lat_dec": "38.8951118",
    "prim_long_dec": "-77.0363658",
    "elev_in_m": "7",
    "elev_in_ft": "23",
    "lat": 38.8951118,
    "long": -77.0363658
  },
  {
    "globaleventid": 254078459,
    "sqldate": 20130418,
    "monthyear": 201304,
    "year": 2013,
    "fractiondate": "2013.2959",
    "eventcode": 112,
    "quadclass": 3,
    "nummentions": 8,
    "numsources": 1,
    "numarticles": 8,
    "avgtone": "0.786516853932584",
    "sourceurl": "http://www.google.com/hostednews/ap/article/ALeqM5jD780h_NqcbYgN9JHU1SHFuL0p8Q?docId=6a52c6dfbac14135961a14acfe3821be",
    "feature_id": "1656315",
    "feature_name": "Saratoga",
    "state_alpha": "CA",
    "county_name": "Santa Clara",
    "county_numeric": "085",
    "prim_lat_dec": "37.2638324",
    "prim_long_dec": "-122.0230146",
    "elev_in_m": "129",
    "elev_in_ft": "423",
    "lat": 37.2638324,
    "long": -122.0230146
  },
  {
    "globaleventid": 254078444,
    "sqldate": 20130418,
    "monthyear": 201304,
    "year": 2013,
    "fractiondate": "2013.2959",
    "eventcode": 113,
    "quadclass": 3,
    "nummentions": 5,
    "numsources": 1,
    "numarticles": 5,
    "avgtone": "2.22222222222222",
    "sourceurl": "http://finance.yahoo.com/news/money-market-reform-could-drive-182842791.html",
    "feature_id": "531871",
    "feature_name": "Washington",
    "state_alpha": "DC",
    "county_name": "District of Columbia",
    "county_numeric": "001",
    "prim_lat_dec": "38.8951118",
    "prim_long_dec": "-77.0363658",
    "elev_in_m": "7",
    "elev_in_ft": "23",
    "lat": 38.8951118,
    "long": -77.0363658
  },
  {
    "globaleventid": 254078351,
    "sqldate": 20130418,
    "monthyear": 201304,
    "year": 2013,
    "fractiondate": "2013.2959",
    "eventcode": 190,
    "quadclass": 4,
    "nummentions": 2,
    "numsources": 1,
    "numarticles": 2,
    "avgtone": "2.46815286624204",
    "sourceurl": "http://swampland.time.com/2013/04/17/senate-guns-down-background-checks/?utm_source=feedburner&utm_medium=feed&utm_campaign=Feed%3A+timeblogs%2Fswampland+%28TIME%3A+Swampland%29",
    "feature_id": "1500025",
    "feature_name": "Sandy Hook",
    "state_alpha": "VA",
    "county_name": "Goochland",
    "county_numeric": "075",
    "prim_lat_dec": "37.7526452",
    "prim_long_dec": "-77.9124958",
    "elev_in_m": "109",
    "elev_in_ft": "358",
    "lat": 37.7526452,
    "long": -77.9124958
  },
  {
    "globaleventid": 254078334,
    "sqldate": 20130418,
    "monthyear": 201304,
    "year": 2013,
    "fractiondate": "2013.2959",
    "eventcode": 130,
    "quadclass": 3,
    "nummentions": 2,
    "numsources": 1,
    "numarticles": 2,
    "avgtone": "2.12765957446809",
    "sourceurl": "http://www.dailystar.com.lb/News/Middle-East/2013/Apr-19/214307-activists-rebels-capture-base-in-central-syria.ashx",
    "feature_id": "531871",
    "feature_name": "Washington",
    "state_alpha": "DC",
    "county_name": "District of Columbia",
    "county_numeric": "001",
    "prim_lat_dec": "38.8951118",
    "prim_long_dec": "-77.0363658",
    "elev_in_m": "7",
    "elev_in_ft": "23",
    "lat": 38.8951118,
    "long": -77.0363658
  },
  {
    "globaleventid": 254078323,
    "sqldate": 20130418,
    "monthyear": 201304,
    "year": 2013,
    "fractiondate": "2013.2959",
    "eventcode": 120,
    "quadclass": 3,
    "nummentions": 35,
    "numsources": 3,
    "numarticles": 35,
    "avgtone": "0.196133519008167",
    "sourceurl": "http://english.chosun.com/site/data/html_dir/2013/04/19/2013041900383.html",
    "feature_id": "531871",
    "feature_name": "Washington",
    "state_alpha": "DC",
    "county_name": "District of Columbia",
    "county_numeric": "001",
    "prim_lat_dec": "38.8951118",
    "prim_long_dec": "-77.0363658",
    "elev_in_m": "7",
    "elev_in_ft": "23",
    "lat": 38.8951118,
    "long": -77.0363658
  },
  {
    "globaleventid": 254078299,
    "sqldate": 20130418,
    "monthyear": 201304,
    "year": 2013,
    "fractiondate": "2013.2959",
    "eventcode": 173,
    "quadclass": 4,
    "nummentions": 8,
    "numsources": 1,
    "numarticles": 8,
    "avgtone": "1.64319248826291",
    "sourceurl": "http://www.nhregister.com/articles/2013/04/18/news/new_haven/doc5170382e058dd838051555.txt",
    "feature_id": "209231",
    "feature_name": "New Haven",
    "state_alpha": "CT",
    "county_name": "New Haven",
    "county_numeric": "009",
    "prim_lat_dec": "41.3081527",
    "prim_long_dec": "-72.9281578",
    "elev_in_m": "12",
    "elev_in_ft": "39",
    "lat": 41.3081527,
    "long": -72.9281578
  },
  {
    "globaleventid": 254078294,
    "sqldate": 20130418,
    "monthyear": 201304,
    "year": 2013,
    "fractiondate": "2013.2959",
    "eventcode": 110,
    "quadclass": 3,
    "nummentions": 4,
    "numsources": 1,
    "numarticles": 4,
    "avgtone": "2.30769230769231",
    "sourceurl": "http://minnesota.publicradio.org/display/web/2013/04/17/news/rochester-mayo-clinic-expansion?refid=0&utm_source=feedburner&utm_medium=feed&utm_campaign=Feed%3A+MPR_NewsFeatures+%28News+%26+Features+from+Minnesota+Public+Radio%29",
    "feature_id": "650180",
    "feature_name": "Rochester",
    "state_alpha": "MN",
    "county_name": "Olmsted",
    "county_numeric": "109",
    "prim_lat_dec": "44.0216306",
    "prim_long_dec": "-92.4698992",
    "elev_in_m": "312",
    "elev_in_ft": "1024",
    "lat": 44.0216306,
    "long": -92.4698992
  },
  {
    "globaleventid": 254078290,
    "sqldate": 20130418,
    "monthyear": 201304,
    "year": 2013,
    "fractiondate": "2013.2959",
    "eventcode": 193,
    "quadclass": 4,
    "nummentions": 12,
    "numsources": 6,
    "numarticles": 12,
    "avgtone": "0.655005174196961",
    "sourceurl": "http://www.foxnews.com/us/2013/04/18/michigan-woman-gets-22-years-in-teen-grandson-killing/",
    "feature_id": "1617959",
    "feature_name": "Detroit",
    "state_alpha": "MI",
    "county_name": "Wayne",
    "county_numeric": "163",
    "prim_lat_dec": "42.331427",
    "prim_long_dec": "-83.0457538",
    "elev_in_m": "182",
    "elev_in_ft": "597",
    "lat": 42.331427,
    "long": -83.0457538
  },
  {
    "globaleventid": 254078286,
    "sqldate": 20130418,
    "monthyear": 201304,
    "year": 2013,
    "fractiondate": "2013.2959",
    "eventcode": 190,
    "quadclass": 4,
    "nummentions": 2,
    "numsources": 1,
    "numarticles": 2,
    "avgtone": "0.798722044728434",
    "sourceurl": "http://www.cnn.com/2013/04/18/us/pennsylvania-abortion-doctor/index.html?utm_source=feedburner&utm_medium=feed&utm_campaign=Feed%3A+rss%2Fcnn_latest+%28RSS%3A+Most+Recent%29",
    "feature_id": "1209052",
    "feature_name": "Philadelphia",
    "state_alpha": "PA",
    "county_name": "Philadelphia",
    "county_numeric": "101",
    "prim_lat_dec": "39.952335",
    "prim_long_dec": "-75.163789",
    "elev_in_m": "14",
    "elev_in_ft": "46",
    "lat": 39.952335,
    "long": -75.163789
  },
  {
    "globaleventid": 254078282,
    "sqldate": 20130418,
    "monthyear": 201304,
    "year": 2013,
    "fractiondate": "2013.2959",
    "eventcode": 173,
    "quadclass": 4,
    "nummentions": 2,
    "numsources": 1,
    "numarticles": 2,
    "avgtone": "1.64319248826291",
    "sourceurl": "http://www.nhregister.com/articles/2013/04/18/news/new_haven/doc5170382e058dd838051555.txt",
    "feature_id": "209231",
    "feature_name": "New Haven",
    "state_alpha": "CT",
    "county_name": "New Haven",
    "county_numeric": "009",
    "prim_lat_dec": "41.3081527",
    "prim_long_dec": "-72.9281578",
    "elev_in_m": "12",
    "elev_in_ft": "39",
    "lat": 41.3081527,
    "long": -72.9281578
  },
  {
    "globaleventid": 254078280,
    "sqldate": 20130418,
    "monthyear": 201304,
    "year": 2013,
    "fractiondate": "2013.2959",
    "eventcode": 173,
    "quadclass": 4,
    "nummentions": 2,
    "numsources": 1,
    "numarticles": 2,
    "avgtone": "0.860215053763441",
    "sourceurl": "http://triblive.com/usworld/nation/3870110-74/layne-hoffman-shooting",
    "feature_id": "1617959",
    "feature_name": "Detroit",
    "state_alpha": "MI",
    "county_name": "Wayne",
    "county_numeric": "163",
    "prim_lat_dec": "42.331427",
    "prim_long_dec": "-83.0457538",
    "elev_in_m": "182",
    "elev_in_ft": "597",
    "lat": 42.331427,
    "long": -83.0457538
  },
  {
    "globaleventid": 254078279,
    "sqldate": 20130418,
    "monthyear": 201304,
    "year": 2013,
    "fractiondate": "2013.2959",
    "eventcode": 173,
    "quadclass": 4,
    "nummentions": 4,
    "numsources": 2,
    "numarticles": 4,
    "avgtone": "0.962575927109975",
    "sourceurl": "http://www.startribune.com/nation/203719501.html",
    "feature_id": "1512650",
    "feature_name": "Seattle",
    "state_alpha": "WA",
    "county_name": "King",
    "county_numeric": "033",
    "prim_lat_dec": "47.6062095",
    "prim_long_dec": "-122.3320708",
    "elev_in_m": "54",
    "elev_in_ft": "177",
    "lat": 47.6062095,
    "long": -122.3320708
  },
  {
    "globaleventid": 254078276,
    "sqldate": 20130418,
    "monthyear": 201304,
    "year": 2013,
    "fractiondate": "2013.2959",
    "eventcode": 1241,
    "quadclass": 3,
    "nummentions": 2,
    "numsources": 1,
    "numarticles": 2,
    "avgtone": "2.00708382526564",
    "sourceurl": "http://www.semissourian.com/story/1960597.html",
    "feature_id": "731549",
    "feature_name": "Cape Girardeau",
    "state_alpha": "MO",
    "county_name": "Cape Girardeau",
    "county_numeric": "031",
    "prim_lat_dec": "37.3058839",
    "prim_long_dec": "-89.5181476",
    "elev_in_m": "108",
    "elev_in_ft": "354",
    "lat": 37.3058839,
    "long": -89.5181476
  },
  {
    "globaleventid": 254078268,
    "sqldate": 20130418,
    "monthyear": 201304,
    "year": 2013,
    "fractiondate": "2013.2959",
    "eventcode": 112,
    "quadclass": 3,
    "nummentions": 2,
    "numsources": 1,
    "numarticles": 2,
    "avgtone": "2.14669051878354",
    "sourceurl": "http://www.startribune.com/nation/203621321.html",
    "feature_id": "1380944",
    "feature_name": "Dallas",
    "state_alpha": "TX",
    "county_name": "Dallas",
    "county_numeric": "113",
    "prim_lat_dec": "32.7830556",
    "prim_long_dec": "-96.8066667",
    "elev_in_m": "128",
    "elev_in_ft": "420",
    "lat": 32.7830556,
    "long": -96.8066667
  },
  {
    "globaleventid": 254078266,
    "sqldate": 20130418,
    "monthyear": 201304,
    "year": 2013,
    "fractiondate": "2013.2959",
    "eventcode": 110,
    "quadclass": 3,
    "nummentions": 3,
    "numsources": 1,
    "numarticles": 3,
    "avgtone": "2.30769230769231",
    "sourceurl": "http://minnesota.publicradio.org/display/web/2013/04/17/news/rochester-mayo-clinic-expansion?refid=0&utm_source=feedburner&utm_medium=feed&utm_campaign=Feed%3A+MPR_NewsFeatures+%28News+%26+Features+from+Minnesota+Public+Radio%29",
    "feature_id": "650180",
    "feature_name": "Rochester",
    "state_alpha": "MN",
    "county_name": "Olmsted",
    "county_numeric": "109",
    "prim_lat_dec": "44.0216306",
    "prim_long_dec": "-92.4698992",
    "elev_in_m": "312",
    "elev_in_ft": "1024",
    "lat": 44.0216306,
    "long": -92.4698992
  },
  {
    "globaleventid": 254078226,
    "sqldate": 20130418,
    "monthyear": 201304,
    "year": 2013,
    "fractiondate": "2013.2959",
    "eventcode": 120,
    "quadclass": 3,
    "nummentions": 3,
    "numsources": 1,
    "numarticles": 3,
    "avgtone": "2.51450676982592",
    "sourceurl": "http://www.nypost.com/p/news/local/this_lawyer_and_got_them_hXtlyh2Gl0sNc0LndjXEuI?utm_medium=rss&utm_content=Local",
    "feature_id": "617565",
    "feature_name": "Boston",
    "state_alpha": "MA",
    "county_name": "Suffolk",
    "county_numeric": "025",
    "prim_lat_dec": "42.3584308",
    "prim_long_dec": "-71.0597732",
    "elev_in_m": "14",
    "elev_in_ft": "46",
    "lat": 42.3584308,
    "long": -71.0597732
  },
  {
    "globaleventid": 254078194,
    "sqldate": 20130418,
    "monthyear": 201304,
    "year": 2013,
    "fractiondate": "2013.2959",
    "eventcode": 112,
    "quadclass": 3,
    "nummentions": 4,
    "numsources": 1,
    "numarticles": 4,
    "avgtone": "0.0",
    "sourceurl": "http://www.foxnews.com/us/2013/04/18/nurse-in-ohio-accused-trying-to-hire-patient-to-kill-woman-pleads-guilty-in/?utm_source=feedburner&utm_medium=feed&utm_campaign=Feed%3A+foxnews%2Fnational+%28Internal+-+US+Latest+-+Text%29",
    "feature_id": "1066654",
    "feature_name": "Cleveland",
    "state_alpha": "OH",
    "county_name": "Cuyahoga",
    "county_numeric": "035",
    "prim_lat_dec": "41.4994954",
    "prim_long_dec": "-81.6954088",
    "elev_in_m": "199",
    "elev_in_ft": "653",
    "lat": 41.4994954,
    "long": -81.6954088
  },
  {
    "globaleventid": 254078096,
    "sqldate": 20130418,
    "monthyear": 201304,
    "year": 2013,
    "fractiondate": "2013.2959",
    "eventcode": 130,
    "quadclass": 3,
    "nummentions": 2,
    "numsources": 1,
    "numarticles": 2,
    "avgtone": "5.49450549450549",
    "sourceurl": "http://www.upi.com/Top_News/US/2013/04/18/House-passes-cybersecurity-bill/UPI-22581366310317/",
    "feature_id": "531871",
    "feature_name": "Washington",
    "state_alpha": "DC",
    "county_name": "District of Columbia",
    "county_numeric": "001",
    "prim_lat_dec": "38.8951118",
    "prim_long_dec": "-77.0363658",
    "elev_in_m": "7",
    "elev_in_ft": "23",
    "lat": 38.8951118,
    "long": -77.0363658
  },
  {
    "globaleventid": 254078074,
    "sqldate": 20130418,
    "monthyear": 201304,
    "year": 2013,
    "fractiondate": "2013.2959",
    "eventcode": 193,
    "quadclass": 4,
    "nummentions": 2,
    "numsources": 1,
    "numarticles": 2,
    "avgtone": "2.49584026622296",
    "sourceurl": "http://www.cbsnews.com/8301-250_162-57580310/senate-hits-pause-indefinitely-on-gun-bill-reid-says/",
    "feature_id": "531871",
    "feature_name": "Washington",
    "state_alpha": "DC",
    "county_name": "District of Columbia",
    "county_numeric": "001",
    "prim_lat_dec": "38.8951118",
    "prim_long_dec": "-77.0363658",
    "elev_in_m": "7",
    "elev_in_ft": "23",
    "lat": 38.8951118,
    "long": -77.0363658
  },
  {
    "globaleventid": 254078069,
    "sqldate": 20130418,
    "monthyear": 201304,
    "year": 2013,
    "fractiondate": "2013.2959",
    "eventcode": 190,
    "quadclass": 4,
    "nummentions": 2,
    "numsources": 1,
    "numarticles": 2,
    "avgtone": "2.49584026622296",
    "sourceurl": "http://www.cbsnews.com/8301-250_162-57580310/senate-hits-pause-indefinitely-on-gun-bill-reid-says/",
    "feature_id": "531871",
    "feature_name": "Washington",
    "state_alpha": "DC",
    "county_name": "District of Columbia",
    "county_numeric": "001",
    "prim_lat_dec": "38.8951118",
    "prim_long_dec": "-77.0363658",
    "elev_in_m": "7",
    "elev_in_ft": "23",
    "lat": 38.8951118,
    "long": -77.0363658
  },
  {
    "globaleventid": 254078064,
    "sqldate": 20130418,
    "monthyear": 201304,
    "year": 2013,
    "fractiondate": "2013.2959",
    "eventcode": 173,
    "quadclass": 4,
    "nummentions": 12,
    "numsources": 2,
    "numarticles": 12,
    "avgtone": "3.10321619152925",
    "sourceurl": "http://zeenews.india.com/news/world/tears-and-rage-as-victims-watch-us-gun-bill-die_842963.html",
    "feature_id": "531871",
    "feature_name": "Washington",
    "state_alpha": "DC",
    "county_name": "District of Columbia",
    "county_numeric": "001",
    "prim_lat_dec": "38.8951118",
    "prim_long_dec": "-77.0363658",
    "elev_in_m": "7",
    "elev_in_ft": "23",
    "lat": 38.8951118,
    "long": -77.0363658
  },
  {
    "globaleventid": 254078060,
    "sqldate": 20130418,
    "monthyear": 201304,
    "year": 2013,
    "fractiondate": "2013.2959",
    "eventcode": 173,
    "quadclass": 4,
    "nummentions": 2,
    "numsources": 1,
    "numarticles": 2,
    "avgtone": "0.657894736842105",
    "sourceurl": "http://www.philippinetimes.com/index.php/sid/213918094/scat/2411cd3571b4f088",
    "feature_id": "617565",
    "feature_name": "Boston",
    "state_alpha": "MA",
    "county_name": "Suffolk",
    "county_numeric": "025",
    "prim_lat_dec": "42.3584308",
    "prim_long_dec": "-71.0597732",
    "elev_in_m": "14",
    "elev_in_ft": "46",
    "lat": 42.3584308,
    "long": -71.0597732
  },
  {
    "globaleventid": 254078059,
    "sqldate": 20130418,
    "monthyear": 201304,
    "year": 2013,
    "fractiondate": "2013.2959",
    "eventcode": 173,
    "quadclass": 4,
    "nummentions": 26,
    "numsources": 3,
    "numarticles": 26,
    "avgtone": "0.760233476131243",
    "sourceurl": "http://www.globalsecurity.org/security/library/news/2013/04/sec-130418-voa05.htm",
    "feature_id": "531871",
    "feature_name": "Washington",
    "state_alpha": "DC",
    "county_name": "District of Columbia",
    "county_numeric": "001",
    "prim_lat_dec": "38.8951118",
    "prim_long_dec": "-77.0363658",
    "elev_in_m": "7",
    "elev_in_ft": "23",
    "lat": 38.8951118,
    "long": -77.0363658
  },
  {
    "globaleventid": 254078058,
    "sqldate": 20130418,
    "monthyear": 201304,
    "year": 2013,
    "fractiondate": "2013.2959",
    "eventcode": 173,
    "quadclass": 4,
    "nummentions": 6,
    "numsources": 1,
    "numarticles": 6,
    "avgtone": "1.91489361702128",
    "sourceurl": "http://thecaucus.blogs.nytimes.com/2013/04/18/the-early-word-embers/?partner=rss&emc=rss",
    "feature_id": "529313",
    "feature_name": "Capitol Hill",
    "state_alpha": "DC",
    "county_name": "District of Columbia",
    "county_numeric": "001",
    "prim_lat_dec": "38.8890009",
    "prim_long_dec": "-77.0002537",
    "elev_in_m": "28",
    "elev_in_ft": "92",
    "lat": 38.8890009,
    "long": -77.0002537
  },
  {
    "globaleventid": 254078057,
    "sqldate": 20130418,
    "monthyear": 201304,
    "year": 2013,
    "fractiondate": "2013.2959",
    "eventcode": 173,
    "quadclass": 4,
    "nummentions": 10,
    "numsources": 1,
    "numarticles": 10,
    "avgtone": "1.00755667506297",
    "sourceurl": "http://www.upi.com/Top_News/US/2013/04/18/Elvis-impersonator-charged-with-threatening-Obama-with-ricin-letter/UPI-81361366290629/",
    "feature_id": "44784",
    "feature_name": "Phoenix",
    "state_alpha": "AZ",
    "county_name": "Maricopa",
    "county_numeric": "013",
    "prim_lat_dec": "33.4483771",
    "prim_long_dec": "-112.0740373",
    "elev_in_m": "331",
    "elev_in_ft": "1086",
    "lat": 33.4483771,
    "long": -112.0740373
  },
  {
    "globaleventid": 254078055,
    "sqldate": 20130418,
    "monthyear": 201304,
    "year": 2013,
    "fractiondate": "2013.2959",
    "eventcode": 173,
    "quadclass": 4,
    "nummentions": 2,
    "numsources": 1,
    "numarticles": 2,
    "avgtone": "2.55591054313099",
    "sourceurl": "http://www.washingtonpost.com/national/court-records-show-ex-officials-wife-implicated-husband-as-triggerman-in-texas-da-slayings/2013/04/17/0fe1e328-a7c2-11e2-9e1c-bb0fb0c2edd9_story.html",
    "feature_id": "1346844",
    "feature_name": "Seagoville",
    "state_alpha": "TX",
    "county_name": "Dallas",
    "county_numeric": "113",
    "prim_lat_dec": "32.6395776",
    "prim_long_dec": "-96.5383228",
    "elev_in_m": "134",
    "elev_in_ft": "440",
    "lat": 32.6395776,
    "long": -96.5383228
  },
  {
    "globaleventid": 254078052,
    "sqldate": 20130418,
    "monthyear": 201304,
    "year": 2013,
    "fractiondate": "2013.2959",
    "eventcode": 154,
    "quadclass": 4,
    "nummentions": 6,
    "numsources": 1,
    "numarticles": 6,
    "avgtone": "4.04411764705882",
    "sourceurl": "http://www.chron.com/news/houston-texas/houston/article/Houston-Fire-Department-joins-Texas-Task-Force-1-4444903.php",
    "feature_id": "1380948",
    "feature_name": "Houston",
    "state_alpha": "TX",
    "county_name": "Harris",
    "county_numeric": "201",
    "prim_lat_dec": "29.7632836",
    "prim_long_dec": "-95.3632715",
    "elev_in_m": "11",
    "elev_in_ft": "36",
    "lat": 29.7632836,
    "long": -95.3632715
  },
  {
    "globaleventid": 254078050,
    "sqldate": 20130418,
    "monthyear": 201304,
    "year": 2013,
    "fractiondate": "2013.2959",
    "eventcode": 131,
    "quadclass": 3,
    "nummentions": 8,
    "numsources": 2,
    "numarticles": 8,
    "avgtone": "5.07772788885124",
    "sourceurl": "http://www.washingtonpost.com/world/national-security/house-passes-bill-calling-for-more-sharing-of-cyber-threat-data/2013/04/18/01c92ab4-a856-11e2-b029-8fb7e977ef71_story.html?wprss=rss_national-security",
    "feature_id": "531871",
    "feature_name": "Washington",
    "state_alpha": "DC",
    "county_name": "District of Columbia",
    "county_numeric": "001",
    "prim_lat_dec": "38.8951118",
    "prim_long_dec": "-77.0363658",
    "elev_in_m": "7",
    "elev_in_ft": "23",
    "lat": 38.8951118,
    "long": -77.0363658
  },
  {
    "globaleventid": 254078048,
    "sqldate": 20130418,
    "monthyear": 201304,
    "year": 2013,
    "fractiondate": "2013.2959",
    "eventcode": 130,
    "quadclass": 3,
    "nummentions": 8,
    "numsources": 1,
    "numarticles": 8,
    "avgtone": "5.49450549450549",
    "sourceurl": "http://www.upi.com/Top_News/US/2013/04/18/House-passes-cybersecurity-bill/UPI-22581366310317/",
    "feature_id": "531871",
    "feature_name": "Washington",
    "state_alpha": "DC",
    "county_name": "District of Columbia",
    "county_numeric": "001",
    "prim_lat_dec": "38.8951118",
    "prim_long_dec": "-77.0363658",
    "elev_in_m": "7",
    "elev_in_ft": "23",
    "lat": 38.8951118,
    "long": -77.0363658
  },
  {
    "globaleventid": 254078044,
    "sqldate": 20130418,
    "monthyear": 201304,
    "year": 2013,
    "fractiondate": "2013.2959",
    "eventcode": 129,
    "quadclass": 3,
    "nummentions": 24,
    "numsources": 6,
    "numarticles": 24,
    "avgtone": "5.02809466758957",
    "sourceurl": "http://in.reuters.com/article/2013/04/18/usa-cybersecurity-congress-idINDEE93H0EF20130418?feedType=RSS&feedName=technologyNews&utm_source=feedburner&utm_medium=feed&utm_campaign=Feed%3A+reuters%2FINtechnologyNews+%28News+%2F+IN+%2F+Technology+News%29",
    "feature_id": "531871",
    "feature_name": "Washington",
    "state_alpha": "DC",
    "county_name": "District of Columbia",
    "county_numeric": "001",
    "prim_lat_dec": "38.8951118",
    "prim_long_dec": "-77.0363658",
    "elev_in_m": "7",
    "elev_in_ft": "23",
    "lat": 38.8951118,
    "long": -77.0363658
  },
  {
    "globaleventid": 254078042,
    "sqldate": 20130418,
    "monthyear": 201304,
    "year": 2013,
    "fractiondate": "2013.2959",
    "eventcode": 120,
    "quadclass": 3,
    "nummentions": 1,
    "numsources": 1,
    "numarticles": 1,
    "avgtone": "2.5609756097561",
    "sourceurl": "http://zeenews.india.com/news/world/venezuela-rules-out-recount-after-vote-deadly-demos_843005.html",
    "feature_id": "531871",
    "feature_name": "Washington",
    "state_alpha": "DC",
    "county_name": "District of Columbia",
    "county_numeric": "001",
    "prim_lat_dec": "38.8951118",
    "prim_long_dec": "-77.0363658",
    "elev_in_m": "7",
    "elev_in_ft": "23",
    "lat": 38.8951118,
    "long": -77.0363658
  },
  {
    "globaleventid": 254078037,
    "sqldate": 20130418,
    "monthyear": 201304,
    "year": 2013,
    "fractiondate": "2013.2959",
    "eventcode": 112,
    "quadclass": 3,
    "nummentions": 58,
    "numsources": 5,
    "numarticles": 58,
    "avgtone": "0.484928846832724",
    "sourceurl": "http://english.chosun.com/site/data/html_dir/2013/04/19/2013041900383.html",
    "feature_id": "531871",
    "feature_name": "Washington",
    "state_alpha": "DC",
    "county_name": "District of Columbia",
    "county_numeric": "001",
    "prim_lat_dec": "38.8951118",
    "prim_long_dec": "-77.0363658",
    "elev_in_m": "7",
    "elev_in_ft": "23",
    "lat": 38.8951118,
    "long": -77.0363658
  },
  {
    "globaleventid": 254078036,
    "sqldate": 20130418,
    "monthyear": 201304,
    "year": 2013,
    "fractiondate": "2013.2959",
    "eventcode": 111,
    "quadclass": 3,
    "nummentions": 10,
    "numsources": 1,
    "numarticles": 10,
    "avgtone": "2.31404958677686",
    "sourceurl": "http://www.upi.com/Odd_News/2013/04/18/The-almanac/UPI-56261366272000/",
    "feature_id": "531871",
    "feature_name": "Washington",
    "state_alpha": "DC",
    "county_name": "District of Columbia",
    "county_numeric": "001",
    "prim_lat_dec": "38.8951118",
    "prim_long_dec": "-77.0363658",
    "elev_in_m": "7",
    "elev_in_ft": "23",
    "lat": 38.8951118,
    "long": -77.0363658
  },
  {
    "globaleventid": 254078034,
    "sqldate": 20130418,
    "monthyear": 201304,
    "year": 2013,
    "fractiondate": "2013.2959",
    "eventcode": 110,
    "quadclass": 3,
    "nummentions": 16,
    "numsources": 2,
    "numarticles": 16,
    "avgtone": "2.93754350327202",
    "sourceurl": "http://in.reuters.com/article/2013/04/19/venezuela-election-idINDEE93I02L20130419?feedType=RSS&feedName=worldNews",
    "feature_id": "531871",
    "feature_name": "Washington",
    "state_alpha": "DC",
    "county_name": "District of Columbia",
    "county_numeric": "001",
    "prim_lat_dec": "38.8951118",
    "prim_long_dec": "-77.0363658",
    "elev_in_m": "7",
    "elev_in_ft": "23",
    "lat": 38.8951118,
    "long": -77.0363658
  },
  {
    "globaleventid": 254077885,
    "sqldate": 20130418,
    "monthyear": 201304,
    "year": 2013,
    "fractiondate": "2013.2959",
    "eventcode": 129,
    "quadclass": 3,
    "nummentions": 10,
    "numsources": 1,
    "numarticles": 10,
    "avgtone": "2.17391304347826",
    "sourceurl": "http://news.yahoo.com/cispa-fourth-amendment-143420272.html",
    "feature_id": "531871",
    "feature_name": "Washington",
    "state_alpha": "DC",
    "county_name": "District of Columbia",
    "county_numeric": "001",
    "prim_lat_dec": "38.8951118",
    "prim_long_dec": "-77.0363658",
    "elev_in_m": "7",
    "elev_in_ft": "23",
    "lat": 38.8951118,
    "long": -77.0363658
  },
  {
    "globaleventid": 254077882,
    "sqldate": 20130418,
    "monthyear": 201304,
    "year": 2013,
    "fractiondate": "2013.2959",
    "eventcode": 112,
    "quadclass": 3,
    "nummentions": 10,
    "numsources": 1,
    "numarticles": 10,
    "avgtone": "3.68188512518409",
    "sourceurl": "http://www.channel4.com/news/obama-fury-as-senate-votes-down-gun-controls",
    "feature_id": "531871",
    "feature_name": "Washington",
    "state_alpha": "DC",
    "county_name": "District of Columbia",
    "county_numeric": "001",
    "prim_lat_dec": "38.8951118",
    "prim_long_dec": "-77.0363658",
    "elev_in_m": "7",
    "elev_in_ft": "23",
    "lat": 38.8951118,
    "long": -77.0363658
  },
  {
    "globaleventid": 254077881,
    "sqldate": 20130418,
    "monthyear": 201304,
    "year": 2013,
    "fractiondate": "2013.2959",
    "eventcode": 110,
    "quadclass": 3,
    "nummentions": 10,
    "numsources": 1,
    "numarticles": 10,
    "avgtone": "3.68188512518409",
    "sourceurl": "http://www.channel4.com/news/obama-fury-as-senate-votes-down-gun-controls",
    "feature_id": "531871",
    "feature_name": "Washington",
    "state_alpha": "DC",
    "county_name": "District of Columbia",
    "county_numeric": "001",
    "prim_lat_dec": "38.8951118",
    "prim_long_dec": "-77.0363658",
    "elev_in_m": "7",
    "elev_in_ft": "23",
    "lat": 38.8951118,
    "long": -77.0363658
  },
  {
    "globaleventid": 254077796,
    "sqldate": 20130418,
    "monthyear": 201304,
    "year": 2013,
    "fractiondate": "2013.2959",
    "eventcode": 130,
    "quadclass": 3,
    "nummentions": 6,
    "numsources": 1,
    "numarticles": 6,
    "avgtone": "2.27272727272727",
    "sourceurl": "http://www.bloomberg.com/news/2013-04-18/u-s-embassy-in-egypt-advises-citizens-to-beware-of-protests.html",
    "feature_id": "531871",
    "feature_name": "Washington",
    "state_alpha": "DC",
    "county_name": "District of Columbia",
    "county_numeric": "001",
    "prim_lat_dec": "38.8951118",
    "prim_long_dec": "-77.0363658",
    "elev_in_m": "7",
    "elev_in_ft": "23",
    "lat": 38.8951118,
    "long": -77.0363658
  },
  {
    "globaleventid": 254077794,
    "sqldate": 20130418,
    "monthyear": 201304,
    "year": 2013,
    "fractiondate": "2013.2959",
    "eventcode": 130,
    "quadclass": 3,
    "nummentions": 2,
    "numsources": 1,
    "numarticles": 2,
    "avgtone": "2.27272727272727",
    "sourceurl": "http://www.bloomberg.com/news/2013-04-18/u-s-embassy-in-egypt-advises-citizens-to-beware-of-protests.html",
    "feature_id": "531871",
    "feature_name": "Washington",
    "state_alpha": "DC",
    "county_name": "District of Columbia",
    "county_numeric": "001",
    "prim_lat_dec": "38.8951118",
    "prim_long_dec": "-77.0363658",
    "elev_in_m": "7",
    "elev_in_ft": "23",
    "lat": 38.8951118,
    "long": -77.0363658
  },
  {
    "globaleventid": 254077778,
    "sqldate": 20130418,
    "monthyear": 201304,
    "year": 2013,
    "fractiondate": "2013.2959",
    "eventcode": 138,
    "quadclass": 3,
    "nummentions": 20,
    "numsources": 1,
    "numarticles": 20,
    "avgtone": "2.23463687150838",
    "sourceurl": "http://www.newsday.com/news/nation/kerry-us-making-progress-on-benghazi-attackers-1.5089801",
    "feature_id": "531871",
    "feature_name": "Washington",
    "state_alpha": "DC",
    "county_name": "District of Columbia",
    "county_numeric": "001",
    "prim_lat_dec": "38.8951118",
    "prim_long_dec": "-77.0363658",
    "elev_in_m": "7",
    "elev_in_ft": "23",
    "lat": 38.8951118,
    "long": -77.0363658
  },
  {
    "globaleventid": 254077776,
    "sqldate": 20130418,
    "monthyear": 201304,
    "year": 2013,
    "fractiondate": "2013.2959",
    "eventcode": 190,
    "quadclass": 4,
    "nummentions": 6,
    "numsources": 1,
    "numarticles": 6,
    "avgtone": "0.596421471172962",
    "sourceurl": "http://news.yahoo.com/mich-minister-gets-56-prison-term-murder-003752539.html",
    "feature_id": "620755",
    "feature_name": "Battle Creek",
    "state_alpha": "MI",
    "county_name": "Calhoun",
    "county_numeric": "025",
    "prim_lat_dec": "42.3211522",
    "prim_long_dec": "-85.1797142",
    "elev_in_m": "256",
    "elev_in_ft": "840",
    "lat": 42.3211522,
    "long": -85.1797142
  },
  {
    "globaleventid": 254077768,
    "sqldate": 20130418,
    "monthyear": 201304,
    "year": 2013,
    "fractiondate": "2013.2959",
    "eventcode": 110,
    "quadclass": 3,
    "nummentions": 42,
    "numsources": 2,
    "numarticles": 42,
    "avgtone": "2.99369958604947",
    "sourceurl": "http://www.xe.com/news/2013/04/18/3313321.htm?utm_source=RSS&utm_medium=TL&utm_content=NOGEO&utm_campaign=News_RSS_Art18",
    "feature_id": "531871",
    "feature_name": "Washington",
    "state_alpha": "DC",
    "county_name": "District of Columbia",
    "county_numeric": "001",
    "prim_lat_dec": "38.8951118",
    "prim_long_dec": "-77.0363658",
    "elev_in_m": "7",
    "elev_in_ft": "23",
    "lat": 38.8951118,
    "long": -77.0363658
  },
  {
    "globaleventid": 254077609,
    "sqldate": 20130418,
    "monthyear": 201304,
    "year": 2013,
    "fractiondate": "2013.2959",
    "eventcode": 180,
    "quadclass": 4,
    "nummentions": 4,
    "numsources": 1,
    "numarticles": 4,
    "avgtone": "0.772626931567329",
    "sourceurl": "http://www.washingtonpost.com/national/superintendent-district-couldnt-expel-california-teens-after-they-were-charged-in-sex-case/2013/04/17/7d4fcb02-a7c0-11e2-9e1c-bb0fb0c2edd9_story.html",
    "feature_id": "531871",
    "feature_name": "Washington",
    "state_alpha": "DC",
    "county_name": "District of Columbia",
    "county_numeric": "001",
    "prim_lat_dec": "38.8951118",
    "prim_long_dec": "-77.0363658",
    "elev_in_m": "7",
    "elev_in_ft": "23",
    "lat": 38.8951118,
    "long": -77.0363658
  },
  {
    "globaleventid": 254077608,
    "sqldate": 20130418,
    "monthyear": 201304,
    "year": 2013,
    "fractiondate": "2013.2959",
    "eventcode": 180,
    "quadclass": 4,
    "nummentions": 4,
    "numsources": 1,
    "numarticles": 4,
    "avgtone": "0.786516853932584",
    "sourceurl": "http://www.google.com/hostednews/ap/article/ALeqM5jD780h_NqcbYgN9JHU1SHFuL0p8Q?docId=6a52c6dfbac14135961a14acfe3821be",
    "feature_id": "1656315",
    "feature_name": "Saratoga",
    "state_alpha": "CA",
    "county_name": "Santa Clara",
    "county_numeric": "085",
    "prim_lat_dec": "37.2638324",
    "prim_long_dec": "-122.0230146",
    "elev_in_m": "129",
    "elev_in_ft": "423",
    "lat": 37.2638324,
    "long": -122.0230146
  },
  {
    "globaleventid": 254077582,
    "sqldate": 20130418,
    "monthyear": 201304,
    "year": 2013,
    "fractiondate": "2013.2959",
    "eventcode": 173,
    "quadclass": 4,
    "nummentions": 2,
    "numsources": 1,
    "numarticles": 2,
    "avgtone": "0.0",
    "sourceurl": "http://www.nbcnewyork.com/news/local/Uniondale-High-School-Student-Attack-Lunchroom-Stabbing-Lung-Punctured-203512951.html",
    "feature_id": "952574",
    "feature_name": "Hempstead",
    "state_alpha": "NY",
    "county_name": "Nassau",
    "county_numeric": "059",
    "prim_lat_dec": "40.7062128",
    "prim_long_dec": "-73.6187397",
    "elev_in_m": "17",
    "elev_in_ft": "56",
    "lat": 40.7062128,
    "long": -73.6187397
  },
  {
    "globaleventid": 254077581,
    "sqldate": 20130418,
    "monthyear": 201304,
    "year": 2013,
    "fractiondate": "2013.2959",
    "eventcode": 112,
    "quadclass": 3,
    "nummentions": 3,
    "numsources": 1,
    "numarticles": 3,
    "avgtone": "0.0",
    "sourceurl": "http://www.foxnews.com/us/2013/04/18/phoenix-elementary-school-reportedly-evacuated-after-bomb-threat/?utm_source=feedburner&utm_medium=feed&utm_campaign=Feed%3A+foxnews%2Fnational+%28Internal+-+US+Latest+-+Text%29",
    "feature_id": "44784",
    "feature_name": "Phoenix",
    "state_alpha": "AZ",
    "county_name": "Maricopa",
    "county_numeric": "013",
    "prim_lat_dec": "33.4483771",
    "prim_long_dec": "-112.0740373",
    "elev_in_m": "331",
    "elev_in_ft": "1086",
    "lat": 33.4483771,
    "long": -112.0740373
  },
  {
    "globaleventid": 254077505,
    "sqldate": 20130418,
    "monthyear": 201304,
    "year": 2013,
    "fractiondate": "2013.2959",
    "eventcode": 193,
    "quadclass": 4,
    "nummentions": 4,
    "numsources": 1,
    "numarticles": 4,
    "avgtone": "1.25523012552301",
    "sourceurl": "http://www.contracostatimes.com/breaking-news/ci_23052271/san-francisco-officer-fatally-shoots-suspect-wednesday-night?source=rss",
    "feature_id": "277593",
    "feature_name": "San Francisco",
    "state_alpha": "CA",
    "county_name": "San Francisco",
    "county_numeric": "075",
    "prim_lat_dec": "37.775",
    "prim_long_dec": "-122.4194444",
    "elev_in_m": "16",
    "elev_in_ft": "52",
    "lat": 37.775,
    "long": -122.4194444
  },
  {
    "globaleventid": 254077501,
    "sqldate": 20130418,
    "monthyear": 201304,
    "year": 2013,
    "fractiondate": "2013.2959",
    "eventcode": 180,
    "quadclass": 4,
    "nummentions": 2,
    "numsources": 1,
    "numarticles": 2,
    "avgtone": "2.56045519203414",
    "sourceurl": "http://www.huffingtonpost.com/2013/04/18/scott-biumi-georgia-police-pulls-gun-mcdonalds_n_3111804.html",
    "feature_id": "351615",
    "feature_name": "Atlanta",
    "state_alpha": "GA",
    "county_name": "Fulton",
    "county_numeric": "121",
    "prim_lat_dec": "33.7489954",
    "prim_long_dec": "-84.3879824",
    "elev_in_m": "320",
    "elev_in_ft": "1050",
    "lat": 33.7489954,
    "long": -84.3879824
  },
  {
    "globaleventid": 254077500,
    "sqldate": 20130418,
    "monthyear": 201304,
    "year": 2013,
    "fractiondate": "2013.2959",
    "eventcode": 173,
    "quadclass": 4,
    "nummentions": 2,
    "numsources": 1,
    "numarticles": 2,
    "avgtone": "0.0",
    "sourceurl": "http://sanfrancisco.cbslocal.com/2013/04/16/5-teens-arrested-in-oakland-shooting-death-of-paramedic/",
    "feature_id": "277566",
    "feature_name": "Oakland",
    "state_alpha": "CA",
    "county_name": "Alameda",
    "county_numeric": "001",
    "prim_lat_dec": "37.8043722",
    "prim_long_dec": "-122.2708026",
    "elev_in_m": "13",
    "elev_in_ft": "43",
    "lat": 37.8043722,
    "long": -122.2708026
  },
  {
    "globaleventid": 254077498,
    "sqldate": 20130418,
    "monthyear": 201304,
    "year": 2013,
    "fractiondate": "2013.2959",
    "eventcode": 110,
    "quadclass": 3,
    "nummentions": 2,
    "numsources": 1,
    "numarticles": 2,
    "avgtone": "0.0",
    "sourceurl": "http://www.upi.com/Odd_News/2013/04/18/Crash-caused-by-pickup-with-no-brakes/UPI-31681366299182/",
    "feature_id": "953925",
    "feature_name": "Jamestown",
    "state_alpha": "NY",
    "county_name": "Chautauqua",
    "county_numeric": "013",
    "prim_lat_dec": "42.0970023",
    "prim_long_dec": "-79.2353259",
    "elev_in_m": "420",
    "elev_in_ft": "1378",
    "lat": 42.0970023,
    "long": -79.2353259
  },
  {
    "globaleventid": 254077480,
    "sqldate": 20130418,
    "monthyear": 201304,
    "year": 2013,
    "fractiondate": "2013.2959",
    "eventcode": 193,
    "quadclass": 4,
    "nummentions": 2,
    "numsources": 1,
    "numarticles": 2,
    "avgtone": "1.25523012552301",
    "sourceurl": "http://www.contracostatimes.com/breaking-news/ci_23052271/san-francisco-officer-fatally-shoots-suspect-wednesday-night?source=rss",
    "feature_id": "277593",
    "feature_name": "San Francisco",
    "state_alpha": "CA",
    "county_name": "San Francisco",
    "county_numeric": "075",
    "prim_lat_dec": "37.775",
    "prim_long_dec": "-122.4194444",
    "elev_in_m": "16",
    "elev_in_ft": "52",
    "lat": 37.775,
    "long": -122.4194444
  },
  {
    "globaleventid": 254077465,
    "sqldate": 20130418,
    "monthyear": 201304,
    "year": 2013,
    "fractiondate": "2013.2959",
    "eventcode": 160,
    "quadclass": 4,
    "nummentions": 6,
    "numsources": 1,
    "numarticles": 6,
    "avgtone": "1.23239436619718",
    "sourceurl": "http://articles.chicagotribune.com/2013-04-17/news/sns-rt-us-american-outagebre93h00m-20130417_1_american-airlines-american-us-airways-flights",
    "feature_id": "423587",
    "feature_name": "Chicago",
    "state_alpha": "IL",
    "county_name": "Cook",
    "county_numeric": "031",
    "prim_lat_dec": "41.850033",
    "prim_long_dec": "-87.6500523",
    "elev_in_m": "179",
    "elev_in_ft": "587",
    "lat": 41.850033,
    "long": -87.6500523
  },
  {
    "globaleventid": 254077458,
    "sqldate": 20130418,
    "monthyear": 201304,
    "year": 2013,
    "fractiondate": "2013.2959",
    "eventcode": 160,
    "quadclass": 4,
    "nummentions": 10,
    "numsources": 1,
    "numarticles": 10,
    "avgtone": "1.1864406779661",
    "sourceurl": "http://www.iol.co.za/business/international/american-airlines-back-on-track-1.1502262",
    "feature_id": "1662328",
    "feature_name": "Los Angeles",
    "state_alpha": "CA",
    "county_name": "Los Angeles",
    "county_numeric": "037",
    "prim_lat_dec": "34.0522342",
    "prim_long_dec": "-118.2436849",
    "elev_in_m": "89",
    "elev_in_ft": "292",
    "lat": 34.0522342,
    "long": -118.2436849
  },
  {
    "globaleventid": 254077457,
    "sqldate": 20130418,
    "monthyear": 201304,
    "year": 2013,
    "fractiondate": "2013.2959",
    "eventcode": 110,
    "quadclass": 3,
    "nummentions": 10,
    "numsources": 1,
    "numarticles": 10,
    "avgtone": "1.88517566409597",
    "sourceurl": "http://www.latimes.com/news/local/la-me-quake-regulations-20130419,0,1216565.story?track=rss",
    "feature_id": "1662328",
    "feature_name": "Los Angeles",
    "state_alpha": "CA",
    "county_name": "Los Angeles",
    "county_numeric": "037",
    "prim_lat_dec": "34.0522342",
    "prim_long_dec": "-118.2436849",
    "elev_in_m": "89",
    "elev_in_ft": "292",
    "lat": 34.0522342,
    "long": -118.2436849
  },
  {
    "globaleventid": 254077396,
    "sqldate": 20130418,
    "monthyear": 201304,
    "year": 2013,
    "fractiondate": "2013.2959",
    "eventcode": 173,
    "quadclass": 4,
    "nummentions": 8,
    "numsources": 2,
    "numarticles": 8,
    "avgtone": "0.847457627118645",
    "sourceurl": "http://www.foxnews.com/us/2013/04/18/conn-man-convicted-arson-in-fire-that-killed-3-people/?utm_source=feedburner&utm_medium=feed&utm_campaign=Feed%3A+foxnews%2Fnational+%28Internal+-+US+Latest+-+Text%29",
    "feature_id": "209231",
    "feature_name": "New Haven",
    "state_alpha": "CT",
    "county_name": "New Haven",
    "county_numeric": "009",
    "prim_lat_dec": "41.3081527",
    "prim_long_dec": "-72.9281578",
    "elev_in_m": "12",
    "elev_in_ft": "39",
    "lat": 41.3081527,
    "long": -72.9281578
  },
  {
    "globaleventid": 254077391,
    "sqldate": 20130418,
    "monthyear": 201304,
    "year": 2013,
    "fractiondate": "2013.2959",
    "eventcode": 190,
    "quadclass": 4,
    "nummentions": 9,
    "numsources": 1,
    "numarticles": 9,
    "avgtone": "0.413223140495868",
    "sourceurl": "http://www.globalsecurity.org/military/library/news/2013/04/mil-130418-presstv01.htm",
    "feature_id": "531871",
    "feature_name": "Washington",
    "state_alpha": "DC",
    "county_name": "District of Columbia",
    "county_numeric": "001",
    "prim_lat_dec": "38.8951118",
    "prim_long_dec": "-77.0363658",
    "elev_in_m": "7",
    "elev_in_ft": "23",
    "lat": 38.8951118,
    "long": -77.0363658
  },
  {
    "globaleventid": 254077347,
    "sqldate": 20130418,
    "monthyear": 201304,
    "year": 2013,
    "fractiondate": "2013.2959",
    "eventcode": 130,
    "quadclass": 3,
    "nummentions": 2,
    "numsources": 1,
    "numarticles": 2,
    "avgtone": "2.58481421647819",
    "sourceurl": "http://www.foxnews.com/politics/2013/04/17/rand-paul-says-considering-2016-presidential-bid/?test=latestnews",
    "feature_id": "531871",
    "feature_name": "Washington",
    "state_alpha": "DC",
    "county_name": "District of Columbia",
    "county_numeric": "001",
    "prim_lat_dec": "38.8951118",
    "prim_long_dec": "-77.0363658",
    "elev_in_m": "7",
    "elev_in_ft": "23",
    "lat": 38.8951118,
    "long": -77.0363658
  },
  {
    "globaleventid": 254077332,
    "sqldate": 20130418,
    "monthyear": 201304,
    "year": 2013,
    "fractiondate": "2013.2959",
    "eventcode": 183,
    "quadclass": 4,
    "nummentions": 5,
    "numsources": 1,
    "numarticles": 5,
    "avgtone": "0.408163265306122",
    "sourceurl": "http://www.reuters.com/article/2013/04/18/usa-explosion-texas-idUSL2N0D504920130418",
    "feature_id": "1378454",
    "feature_name": "Hillcrest",
    "state_alpha": "TX",
    "county_name": "Colorado",
    "county_numeric": "089",
    "prim_lat_dec": "29.7488436",
    "prim_long_dec": "-96.601084",
    "elev_in_m": "79",
    "elev_in_ft": "259",
    "lat": 29.7488436,
    "long": -96.601084
  },
  {
    "globaleventid": 254077329,
    "sqldate": 20130418,
    "monthyear": 201304,
    "year": 2013,
    "fractiondate": "2013.2959",
    "eventcode": 182,
    "quadclass": 4,
    "nummentions": 10,
    "numsources": 1,
    "numarticles": 10,
    "avgtone": "0.263504611330698",
    "sourceurl": "http://uk.reuters.com/article/2013/04/18/uk-usa-explosion-texas-idUKBRE93H02620130418",
    "feature_id": "531871",
    "feature_name": "Washington",
    "state_alpha": "DC",
    "county_name": "District of Columbia",
    "county_numeric": "001",
    "prim_lat_dec": "38.8951118",
    "prim_long_dec": "-77.0363658",
    "elev_in_m": "7",
    "elev_in_ft": "23",
    "lat": 38.8951118,
    "long": -77.0363658
  },
  {
    "globaleventid": 254077325,
    "sqldate": 20130418,
    "monthyear": 201304,
    "year": 2013,
    "fractiondate": "2013.2959",
    "eventcode": 172,
    "quadclass": 4,
    "nummentions": 2,
    "numsources": 1,
    "numarticles": 2,
    "avgtone": "0.0",
    "sourceurl": "http://www.newsday.com/news/cops-men-toss-dead-groundhog-grouse-into-pa-bar-1.5089363",
    "feature_id": "1213958",
    "feature_name": "Du Bois",
    "state_alpha": "PA",
    "county_name": "Clearfield",
    "county_numeric": "033",
    "prim_lat_dec": "41.1192282",
    "prim_long_dec": "-78.7600297",
    "elev_in_m": "429",
    "elev_in_ft": "1407",
    "lat": 41.1192282,
    "long": -78.7600297
  },
  {
    "globaleventid": 254077324,
    "sqldate": 20130418,
    "monthyear": 201304,
    "year": 2013,
    "fractiondate": "2013.2959",
    "eventcode": 172,
    "quadclass": 4,
    "nummentions": 6,
    "numsources": 1,
    "numarticles": 6,
    "avgtone": "0.0",
    "sourceurl": "http://www.newsday.com/news/cops-men-toss-dead-groundhog-grouse-into-pa-bar-1.5089363",
    "feature_id": "1170350",
    "feature_name": "Brookville",
    "state_alpha": "PA",
    "county_name": "Jefferson",
    "county_numeric": "065",
    "prim_lat_dec": "41.1611747",
    "prim_long_dec": "-79.0830924",
    "elev_in_m": "388",
    "elev_in_ft": "1273",
    "lat": 41.1611747,
    "long": -79.0830924
  },
  {
    "globaleventid": 254077323,
    "sqldate": 20130418,
    "monthyear": 201304,
    "year": 2013,
    "fractiondate": "2013.2959",
    "eventcode": 160,
    "quadclass": 4,
    "nummentions": 4,
    "numsources": 1,
    "numarticles": 4,
    "avgtone": "1.23239436619718",
    "sourceurl": "http://articles.chicagotribune.com/2013-04-17/news/sns-rt-us-american-outagebre93h00m-20130417_1_american-airlines-american-us-airways-flights",
    "feature_id": "423587",
    "feature_name": "Chicago",
    "state_alpha": "IL",
    "county_name": "Cook",
    "county_numeric": "031",
    "prim_lat_dec": "41.850033",
    "prim_long_dec": "-87.6500523",
    "elev_in_m": "179",
    "elev_in_ft": "587",
    "lat": 41.850033,
    "long": -87.6500523
  },
  {
    "globaleventid": 254077321,
    "sqldate": 20130418,
    "monthyear": 201304,
    "year": 2013,
    "fractiondate": "2013.2959",
    "eventcode": 111,
    "quadclass": 3,
    "nummentions": 8,
    "numsources": 1,
    "numarticles": 8,
    "avgtone": "0.760456273764259",
    "sourceurl": "http://ca.reuters.com/article/topNews/idCABRE93H02A20130418",
    "feature_id": "1380944",
    "feature_name": "Dallas",
    "state_alpha": "TX",
    "county_name": "Dallas",
    "county_numeric": "113",
    "prim_lat_dec": "32.7830556",
    "prim_long_dec": "-96.8066667",
    "elev_in_m": "128",
    "elev_in_ft": "420",
    "lat": 32.7830556,
    "long": -96.8066667
  },
  {
    "globaleventid": 254077260,
    "sqldate": 20130418,
    "monthyear": 201304,
    "year": 2013,
    "fractiondate": "2013.2959",
    "eventcode": 173,
    "quadclass": 4,
    "nummentions": 10,
    "numsources": 1,
    "numarticles": 10,
    "avgtone": "1.74825174825175",
    "sourceurl": "http://www.miamiherald.com/2013/04/18/3351451/expelled-nevada-lawmaker-indicted.html",
    "feature_id": "847388",
    "feature_name": "Las Vegas",
    "state_alpha": "NV",
    "county_name": "Clark",
    "county_numeric": "003",
    "prim_lat_dec": "36.1749705",
    "prim_long_dec": "-115.137223",
    "elev_in_m": "610",
    "elev_in_ft": "2001",
    "lat": 36.1749705,
    "long": -115.137223
  },
  {
    "globaleventid": 254077237,
    "sqldate": 20130418,
    "monthyear": 201304,
    "year": 2013,
    "fractiondate": "2013.2959",
    "eventcode": 193,
    "quadclass": 4,
    "nummentions": 2,
    "numsources": 1,
    "numarticles": 2,
    "avgtone": "2.77777777777778",
    "sourceurl": "http://www.washingtonpost.com/local/man-convicted-for-second-time-in-slaying-over-child-support-prosecutors-say/2013/04/18/06f5f3aa-a865-11e2-8302-3c7e0ea97057_story.html?wprss=rss_local",
    "feature_id": "531871",
    "feature_name": "Washington",
    "state_alpha": "DC",
    "county_name": "District of Columbia",
    "county_numeric": "001",
    "prim_lat_dec": "38.8951118",
    "prim_long_dec": "-77.0363658",
    "elev_in_m": "7",
    "elev_in_ft": "23",
    "lat": 38.8951118,
    "long": -77.0363658
  },
  {
    "globaleventid": 254077231,
    "sqldate": 20130418,
    "monthyear": 201304,
    "year": 2013,
    "fractiondate": "2013.2959",
    "eventcode": 190,
    "quadclass": 4,
    "nummentions": 20,
    "numsources": 3,
    "numarticles": 20,
    "avgtone": "0.642556088094942",
    "sourceurl": "http://www.usatoday.com/story/news/nation/2013/04/18/philadelphia-abortion-clinic-trial/2093467/?utm_source=feedburner&utm_medium=feed&utm_campaign=Feed%3A+usatoday-NewsTopStories+%28News+-+Top+Stories%29",
    "feature_id": "1209052",
    "feature_name": "Philadelphia",
    "state_alpha": "PA",
    "county_name": "Philadelphia",
    "county_numeric": "101",
    "prim_lat_dec": "39.952335",
    "prim_long_dec": "-75.163789",
    "elev_in_m": "14",
    "elev_in_ft": "46",
    "lat": 39.952335,
    "long": -75.163789
  },
  {
    "globaleventid": 254077219,
    "sqldate": 20130418,
    "monthyear": 201304,
    "year": 2013,
    "fractiondate": "2013.2959",
    "eventcode": 112,
    "quadclass": 3,
    "nummentions": 4,
    "numsources": 1,
    "numarticles": 4,
    "avgtone": "1.71740827478532",
    "sourceurl": "http://arstechnica.com/tech-policy/2013/04/prenda-law-may-be-hit-with-attorneys-fees-in-sf-case/?utm_source=feedburner&utm_medium=feed&utm_campaign=Feed%3A+arstechnica%2Findex+%28Ars+Technica+-+All+content%29",
    "feature_id": "1661259",
    "feature_name": "Prenda",
    "state_alpha": "CA",
    "county_name": "Riverside",
    "county_numeric": "065",
    "prim_lat_dec": "33.9214049",
    "prim_long_dec": "-117.3883778",
    "elev_in_m": "309",
    "elev_in_ft": "1014",
    "lat": 33.9214049,
    "long": -117.3883778
  },
  {
    "globaleventid": 254077216,
    "sqldate": 20130418,
    "monthyear": 201304,
    "year": 2013,
    "fractiondate": "2013.2959",
    "eventcode": 110,
    "quadclass": 3,
    "nummentions": 4,
    "numsources": 1,
    "numarticles": 4,
    "avgtone": "1.71740827478532",
    "sourceurl": "http://arstechnica.com/tech-policy/2013/04/prenda-law-may-be-hit-with-attorneys-fees-in-sf-case/?utm_source=feedburner&utm_medium=feed&utm_campaign=Feed%3A+arstechnica%2Findex+%28Ars+Technica+-+All+content%29",
    "feature_id": "1661259",
    "feature_name": "Prenda",
    "state_alpha": "CA",
    "county_name": "Riverside",
    "county_numeric": "065",
    "prim_lat_dec": "33.9214049",
    "prim_long_dec": "-117.3883778",
    "elev_in_m": "309",
    "elev_in_ft": "1014",
    "lat": 33.9214049,
    "long": -117.3883778
  },
  {
    "globaleventid": 254077178,
    "sqldate": 20130418,
    "monthyear": 201304,
    "year": 2013,
    "fractiondate": "2013.2959",
    "eventcode": 190,
    "quadclass": 4,
    "nummentions": 4,
    "numsources": 1,
    "numarticles": 4,
    "avgtone": "0.589390962671906",
    "sourceurl": "http://www.startribune.com/nation/203702521.html",
    "feature_id": "620755",
    "feature_name": "Battle Creek",
    "state_alpha": "MI",
    "county_name": "Calhoun",
    "county_numeric": "025",
    "prim_lat_dec": "42.3211522",
    "prim_long_dec": "-85.1797142",
    "elev_in_m": "256",
    "elev_in_ft": "840",
    "lat": 42.3211522,
    "long": -85.1797142
  },
  {
    "globaleventid": 254077177,
    "sqldate": 20130418,
    "monthyear": 201304,
    "year": 2013,
    "fractiondate": "2013.2959",
    "eventcode": 190,
    "quadclass": 4,
    "nummentions": 3,
    "numsources": 1,
    "numarticles": 3,
    "avgtone": "3.19148936170213",
    "sourceurl": "http://www.nzherald.co.nz/world/news/article.cfm?c_id=2&objectid=10878396&ref=rss",
    "feature_id": "531871",
    "feature_name": "Washington",
    "state_alpha": "DC",
    "county_name": "District of Columbia",
    "county_numeric": "001",
    "prim_lat_dec": "38.8951118",
    "prim_long_dec": "-77.0363658",
    "elev_in_m": "7",
    "elev_in_ft": "23",
    "lat": 38.8951118,
    "long": -77.0363658
  },
  {
    "globaleventid": 254077176,
    "sqldate": 20130418,
    "monthyear": 201304,
    "year": 2013,
    "fractiondate": "2013.2959",
    "eventcode": 190,
    "quadclass": 4,
    "nummentions": 10,
    "numsources": 1,
    "numarticles": 10,
    "avgtone": "4.16666666666667",
    "sourceurl": "http://www.miamiherald.com/2013/04/18/3352146/dallas-firefighter-confirmed-killed.html",
    "feature_id": "1380944",
    "feature_name": "Dallas",
    "state_alpha": "TX",
    "county_name": "Dallas",
    "county_numeric": "113",
    "prim_lat_dec": "32.7830556",
    "prim_long_dec": "-96.8066667",
    "elev_in_m": "128",
    "elev_in_ft": "420",
    "lat": 32.7830556,
    "long": -96.8066667
  },
  {
    "globaleventid": 254077174,
    "sqldate": 20130418,
    "monthyear": 201304,
    "year": 2013,
    "fractiondate": "2013.2959",
    "eventcode": 180,
    "quadclass": 4,
    "nummentions": 10,
    "numsources": 1,
    "numarticles": 10,
    "avgtone": "2.09205020920502",
    "sourceurl": "http://www.guardian.co.uk/commentisfree/2013/apr/18/barack-obama-gun-control-no-we-cant",
    "feature_id": "531871",
    "feature_name": "Washington",
    "state_alpha": "DC",
    "county_name": "District of Columbia",
    "county_numeric": "001",
    "prim_lat_dec": "38.8951118",
    "prim_long_dec": "-77.0363658",
    "elev_in_m": "7",
    "elev_in_ft": "23",
    "lat": 38.8951118,
    "long": -77.0363658
  },
  {
    "globaleventid": 254077172,
    "sqldate": 20130418,
    "monthyear": 201304,
    "year": 2013,
    "fractiondate": "2013.2959",
    "eventcode": 173,
    "quadclass": 4,
    "nummentions": 1,
    "numsources": 1,
    "numarticles": 1,
    "avgtone": "2.9806259314456",
    "sourceurl": "http://zeenews.india.com/news/world/tears-and-rage-as-victims-watch-us-gun-bill-die_842963.html",
    "feature_id": "531871",
    "feature_name": "Washington",
    "state_alpha": "DC",
    "county_name": "District of Columbia",
    "county_numeric": "001",
    "prim_lat_dec": "38.8951118",
    "prim_long_dec": "-77.0363658",
    "elev_in_m": "7",
    "elev_in_ft": "23",
    "lat": 38.8951118,
    "long": -77.0363658
  },
  {
    "globaleventid": 254077168,
    "sqldate": 20130418,
    "monthyear": 201304,
    "year": 2013,
    "fractiondate": "2013.2959",
    "eventcode": 173,
    "quadclass": 4,
    "nummentions": 102,
    "numsources": 11,
    "numarticles": 102,
    "avgtone": "2.82382827120583",
    "sourceurl": "http://www.seattlepi.com/news/science/article/NASA-sees-distant-planets-that-seem-ideal-for-life-4445402.php",
    "feature_id": "531871",
    "feature_name": "Washington",
    "state_alpha": "DC",
    "county_name": "District of Columbia",
    "county_numeric": "001",
    "prim_lat_dec": "38.8951118",
    "prim_long_dec": "-77.0363658",
    "elev_in_m": "7",
    "elev_in_ft": "23",
    "lat": 38.8951118,
    "long": -77.0363658
  },
  {
    "globaleventid": 254077166,
    "sqldate": 20130418,
    "monthyear": 201304,
    "year": 2013,
    "fractiondate": "2013.2959",
    "eventcode": 131,
    "quadclass": 3,
    "nummentions": 2,
    "numsources": 1,
    "numarticles": 2,
    "avgtone": "3.69515011547344",
    "sourceurl": "http://www.usnews.com/news/articles/2013/04/18/cispa-passes-house-obama-threatens-veto?s_cid=rss:cispa-passes-house-obama-threatens-veto",
    "feature_id": "531871",
    "feature_name": "Washington",
    "state_alpha": "DC",
    "county_name": "District of Columbia",
    "county_numeric": "001",
    "prim_lat_dec": "38.8951118",
    "prim_long_dec": "-77.0363658",
    "elev_in_m": "7",
    "elev_in_ft": "23",
    "lat": 38.8951118,
    "long": -77.0363658
  },
  {
    "globaleventid": 254077165,
    "sqldate": 20130418,
    "monthyear": 201304,
    "year": 2013,
    "fractiondate": "2013.2959",
    "eventcode": 131,
    "quadclass": 3,
    "nummentions": 2,
    "numsources": 1,
    "numarticles": 2,
    "avgtone": "3.69515011547344",
    "sourceurl": "http://www.usnews.com/news/articles/2013/04/18/cispa-passes-house-obama-threatens-veto?s_cid=rss:cispa-passes-house-obama-threatens-veto",
    "feature_id": "531871",
    "feature_name": "Washington",
    "state_alpha": "DC",
    "county_name": "District of Columbia",
    "county_numeric": "001",
    "prim_lat_dec": "38.8951118",
    "prim_long_dec": "-77.0363658",
    "elev_in_m": "7",
    "elev_in_ft": "23",
    "lat": 38.8951118,
    "long": -77.0363658
  },
  {
    "globaleventid": 254077164,
    "sqldate": 20130418,
    "monthyear": 201304,
    "year": 2013,
    "fractiondate": "2013.2959",
    "eventcode": 129,
    "quadclass": 3,
    "nummentions": 2,
    "numsources": 1,
    "numarticles": 2,
    "avgtone": "3.69515011547344",
    "sourceurl": "http://www.usnews.com/news/articles/2013/04/18/cispa-passes-house-obama-threatens-veto?s_cid=rss:cispa-passes-house-obama-threatens-veto",
    "feature_id": "531871",
    "feature_name": "Washington",
    "state_alpha": "DC",
    "county_name": "District of Columbia",
    "county_numeric": "001",
    "prim_lat_dec": "38.8951118",
    "prim_long_dec": "-77.0363658",
    "elev_in_m": "7",
    "elev_in_ft": "23",
    "lat": 38.8951118,
    "long": -77.0363658
  },
  {
    "globaleventid": 254077163,
    "sqldate": 20130418,
    "monthyear": 201304,
    "year": 2013,
    "fractiondate": "2013.2959",
    "eventcode": 129,
    "quadclass": 3,
    "nummentions": 2,
    "numsources": 1,
    "numarticles": 2,
    "avgtone": "3.69515011547344",
    "sourceurl": "http://www.usnews.com/news/articles/2013/04/18/cispa-passes-house-obama-threatens-veto?s_cid=rss:cispa-passes-house-obama-threatens-veto",
    "feature_id": "531871",
    "feature_name": "Washington",
    "state_alpha": "DC",
    "county_name": "District of Columbia",
    "county_numeric": "001",
    "prim_lat_dec": "38.8951118",
    "prim_long_dec": "-77.0363658",
    "elev_in_m": "7",
    "elev_in_ft": "23",
    "lat": 38.8951118,
    "long": -77.0363658
  },
  {
    "globaleventid": 254077157,
    "sqldate": 20130418,
    "monthyear": 201304,
    "year": 2013,
    "fractiondate": "2013.2959",
    "eventcode": 112,
    "quadclass": 3,
    "nummentions": 4,
    "numsources": 1,
    "numarticles": 4,
    "avgtone": "2.24089635854342",
    "sourceurl": "http://www.usatoday.com/story/news/politics/2013/04/18/senate-gun-bill-what-next/2093419/?utm_source=feedburner&utm_medium=feed&utm_campaign=Feed%3A+UsatodaycomNation-TopStories+%28News+-+Nation+-+Top+Stories%29",
    "feature_id": "531871",
    "feature_name": "Washington",
    "state_alpha": "DC",
    "county_name": "District of Columbia",
    "county_numeric": "001",
    "prim_lat_dec": "38.8951118",
    "prim_long_dec": "-77.0363658",
    "elev_in_m": "7",
    "elev_in_ft": "23",
    "lat": 38.8951118,
    "long": -77.0363658
  },
  {
    "globaleventid": 254077097,
    "sqldate": 20130418,
    "monthyear": 201304,
    "year": 2013,
    "fractiondate": "2013.2959",
    "eventcode": 190,
    "quadclass": 4,
    "nummentions": 20,
    "numsources": 2,
    "numarticles": 20,
    "avgtone": "0.813836040600732",
    "sourceurl": "http://www.npr.org/templates/story/story.php?storyId=177800187&ft=1&f=",
    "feature_id": "1209052",
    "feature_name": "Philadelphia",
    "state_alpha": "PA",
    "county_name": "Philadelphia",
    "county_numeric": "101",
    "prim_lat_dec": "39.952335",
    "prim_long_dec": "-75.163789",
    "elev_in_m": "14",
    "elev_in_ft": "46",
    "lat": 39.952335,
    "long": -75.163789
  },
  {
    "globaleventid": 254077096,
    "sqldate": 20130418,
    "monthyear": 201304,
    "year": 2013,
    "fractiondate": "2013.2959",
    "eventcode": 173,
    "quadclass": 4,
    "nummentions": 4,
    "numsources": 1,
    "numarticles": 4,
    "avgtone": "2.88029036230475",
    "sourceurl": "http://www.usatoday.com/story/news/nation/2013/04/18/kaufman-texas-justice-of-the-peace-eric-williams-prosecutors-district-attorney-murders/2094309/?utm_source=feedburner&utm_medium=feed&utm_campaign=Feed%3A+UsatodaycomNation-TopStories+%28News+-+Nation+-",
    "feature_id": "1380944",
    "feature_name": "Dallas",
    "state_alpha": "TX",
    "county_name": "Dallas",
    "county_numeric": "113",
    "prim_lat_dec": "32.7830556",
    "prim_long_dec": "-96.8066667",
    "elev_in_m": "128",
    "elev_in_ft": "420",
    "lat": 32.7830556,
    "long": -96.8066667
  },
  {
    "globaleventid": 254077092,
    "sqldate": 20130418,
    "monthyear": 201304,
    "year": 2013,
    "fractiondate": "2013.2959",
    "eventcode": 112,
    "quadclass": 3,
    "nummentions": 3,
    "numsources": 1,
    "numarticles": 3,
    "avgtone": "0.883838383838384",
    "sourceurl": "http://www.foxnews.com/us/2013/04/18/school-couldnt-expel-accused-teens-in-assault-case-suicide-official-says/?utm_source=feedburner&utm_medium=feed&utm_campaign=Feed%3A+foxnews%2Fmost-popular+%28Internal+-+Most+Popular+Content%29",
    "feature_id": "1656315",
    "feature_name": "Saratoga",
    "state_alpha": "CA",
    "county_name": "Santa Clara",
    "county_numeric": "085",
    "prim_lat_dec": "37.2638324",
    "prim_long_dec": "-122.0230146",
    "elev_in_m": "129",
    "elev_in_ft": "423",
    "lat": 37.2638324,
    "long": -122.0230146
  },
  {
    "globaleventid": 254077070,
    "sqldate": 20130418,
    "monthyear": 201304,
    "year": 2013,
    "fractiondate": "2013.2959",
    "eventcode": 193,
    "quadclass": 4,
    "nummentions": 2,
    "numsources": 1,
    "numarticles": 2,
    "avgtone": "1.25523012552301",
    "sourceurl": "http://www.contracostatimes.com/breaking-news/ci_23052271/san-francisco-officer-fatally-shoots-suspect-wednesday-night?source=rss",
    "feature_id": "277593",
    "feature_name": "San Francisco",
    "state_alpha": "CA",
    "county_name": "San Francisco",
    "county_numeric": "075",
    "prim_lat_dec": "37.775",
    "prim_long_dec": "-122.4194444",
    "elev_in_m": "16",
    "elev_in_ft": "52",
    "lat": 37.775,
    "long": -122.4194444
  },
  {
    "globaleventid": 254077057,
    "sqldate": 20130418,
    "monthyear": 201304,
    "year": 2013,
    "fractiondate": "2013.2959",
    "eventcode": 193,
    "quadclass": 4,
    "nummentions": 1,
    "numsources": 1,
    "numarticles": 1,
    "avgtone": "2.17391304347826",
    "sourceurl": "http://www.latimes.com/local/lanow/la-me-ln-teen-charged-adult-paramedic-killing-20130418,0,36689.story",
    "feature_id": "277566",
    "feature_name": "Oakland",
    "state_alpha": "CA",
    "county_name": "Alameda",
    "county_numeric": "001",
    "prim_lat_dec": "37.8043722",
    "prim_long_dec": "-122.2708026",
    "elev_in_m": "13",
    "elev_in_ft": "43",
    "lat": 37.8043722,
    "long": -122.2708026
  },
  {
    "globaleventid": 254077055,
    "sqldate": 20130418,
    "monthyear": 201304,
    "year": 2013,
    "fractiondate": "2013.2959",
    "eventcode": 190,
    "quadclass": 4,
    "nummentions": 4,
    "numsources": 1,
    "numarticles": 4,
    "avgtone": "0.0",
    "sourceurl": "http://www.foxnews.com/us/2013/04/18/cal-state-los-angeles-campus-ordered-evacuated-bomb-squad-en-route/?utm_source=feedburner&utm_medium=feed&utm_campaign=Feed%3A+foxnews%2Fnational+%28Internal+-+US+Latest+-+Text%29",
    "feature_id": "1662328",
    "feature_name": "Los Angeles",
    "state_alpha": "CA",
    "county_name": "Los Angeles",
    "county_numeric": "037",
    "prim_lat_dec": "34.0522342",
    "prim_long_dec": "-118.2436849",
    "elev_in_m": "89",
    "elev_in_ft": "292",
    "lat": 34.0522342,
    "long": -118.2436849
  },
  {
    "globaleventid": 254077024,
    "sqldate": 20130418,
    "monthyear": 201304,
    "year": 2013,
    "fractiondate": "2013.2959",
    "eventcode": 193,
    "quadclass": 4,
    "nummentions": 8,
    "numsources": 4,
    "numarticles": 8,
    "avgtone": "2.71655909660447",
    "sourceurl": "http://minnesota.publicradio.org/display/web/2013/04/18/politics/giffords-on-gun-control-defeat-in-senate-round-one?refid=0&utm_source=feedburner&utm_medium=feed&utm_campaign=Feed%3A+MPR_NewsFeatures+%28News+%26+Features+from+Minnesota+Public+Radio%29",
    "feature_id": "531871",
    "feature_name": "Washington",
    "state_alpha": "DC",
    "county_name": "District of Columbia",
    "county_numeric": "001",
    "prim_lat_dec": "38.8951118",
    "prim_long_dec": "-77.0363658",
    "elev_in_m": "7",
    "elev_in_ft": "23",
    "lat": 38.8951118,
    "long": -77.0363658
  },
  {
    "globaleventid": 254077020,
    "sqldate": 20130418,
    "monthyear": 201304,
    "year": 2013,
    "fractiondate": "2013.2959",
    "eventcode": 193,
    "quadclass": 4,
    "nummentions": 6,
    "numsources": 2,
    "numarticles": 6,
    "avgtone": "3.35495461619612",
    "sourceurl": "http://www.nzherald.co.nz/world/news/article.cfm?c_id=2&objectid=10878396&ref=rss",
    "feature_id": "531871",
    "feature_name": "Washington",
    "state_alpha": "DC",
    "county_name": "District of Columbia",
    "county_numeric": "001",
    "prim_lat_dec": "38.8951118",
    "prim_long_dec": "-77.0363658",
    "elev_in_m": "7",
    "elev_in_ft": "23",
    "lat": 38.8951118,
    "long": -77.0363658
  },
  {
    "globaleventid": 254077019,
    "sqldate": 20130418,
    "monthyear": 201304,
    "year": 2013,
    "fractiondate": "2013.2959",
    "eventcode": 190,
    "quadclass": 4,
    "nummentions": 2,
    "numsources": 1,
    "numarticles": 2,
    "avgtone": "2.97872340425532",
    "sourceurl": "http://thehill.com/homenews/senate/294691-obama-in-terrific-form-during-dinner-with-democratic-senators",
    "feature_id": "531871",
    "feature_name": "Washington",
    "state_alpha": "DC",
    "county_name": "District of Columbia",
    "county_numeric": "001",
    "prim_lat_dec": "38.8951118",
    "prim_long_dec": "-77.0363658",
    "elev_in_m": "7",
    "elev_in_ft": "23",
    "lat": 38.8951118,
    "long": -77.0363658
  },