[
  {
    "globaleventid": 268307461,
    "sqldate": 20130918,
    "monthyear": 201309,
    "year": 2013,
    "fractiondate": "2013.7068",
    "eventcode": 100,
    "quadclass": 3,
    "nummentions": 2,
    "numsources": 1,
    "numarticles": 2,
    "avgtone": "3.0",
    "sourceurl": "http://www.bnd.com/2013/09/18/2805154/voters-begin-gathering-for-belleville.html",
    "feature_id": "1380944",
    "feature_name": "Dallas",
    "state_alpha": "TX",
    "county_name": "Dallas",
    "county_numeric": "113",
    "prim_lat_dec": "32.7830556",
    "prim_long_dec": "-96.8066667",
    "elev_in_m": "128",
    "elev_in_ft": "420",
    "lat": 32.7830556,
    "long": -96.8066667
  },
  {
    "globaleventid": 268307459,
    "sqldate": 20130918,
    "monthyear": 201309,
    "year": 2013,
    "fractiondate": "2013.7068",
    "eventcode": 100,
    "quadclass": 3,
    "nummentions": 2,
    "numsources": 1,
    "numarticles": 2,
    "avgtone": "2.9826464208243",
    "sourceurl": "http://delconewsnetwork.com/articles/2013/09/18/news_of_delaware_county/news/doc523202d1b5c80052041876.txt",
    "feature_id": "1209052",
    "feature_name": "Philadelphia",
    "state_alpha": "PA",
    "county_name": "Philadelphia",
    "county_numeric": "101",
    "prim_lat_dec": "39.952335",
    "prim_long_dec": "-75.163789",
    "elev_in_m": "14",
    "elev_in_ft": "46",
    "lat": 39.952335,
    "long": -75.163789
  },
  {
    "globaleventid": 268307458,
    "sqldate": 20130918,
    "monthyear": 201309,
    "year": 2013,
    "fractiondate": "2013.7068",
    "eventcode": 100,
    "quadclass": 3,
    "nummentions": 16,
    "numsources": 2,
    "numarticles": 16,
    "avgtone": "0.608853357021245",
    "sourceurl": "http://www.hsconnect.com/page/content.detail/id/377445/Ohio-man-gets-probation-for-stealing-gutters.html?isap=1&nav=5028",
    "feature_id": "1080996",
    "feature_name": "Columbus",
    "state_alpha": "OH",
    "county_name": "Franklin",
    "county_numeric": "049",
    "prim_lat_dec": "39.9611755",
    "prim_long_dec": "-82.9987942",
    "elev_in_m": "238",
    "elev_in_ft": "781",
    "lat": 39.9611755,
    "long": -82.9987942
  },
  {
    "globaleventid": 268307456,
    "sqldate": 20130918,
    "monthyear": 201309,
    "year": 2013,
    "fractiondate": "2013.7068",
    "eventcode": 100,
    "quadclass": 3,
    "nummentions": 2,
    "numsources": 1,
    "numarticles": 2,
    "avgtone": "0.515463917525773",
    "sourceurl": "http://www.ctpost.com/news/crime/article/Ohio-man-gets-probation-for-stealing-gutters-4825836.php",
    "feature_id": "1080996",
    "feature_name": "Columbus",
    "state_alpha": "OH",
    "county_name": "Franklin",
    "county_numeric": "049",
    "prim_lat_dec": "39.9611755",
    "prim_long_dec": "-82.9987942",
    "elev_in_m": "238",
    "elev_in_ft": "781",
    "lat": 39.9611755,
    "long": -82.9987942
  },
  {
    "globaleventid": 268307266,
    "sqldate": 20130918,
    "monthyear": 201309,
    "year": 2013,
    "fractiondate": "2013.7068",
    "eventcode": 112,
    "quadclass": 3,
    "nummentions": 8,
    "numsources": 1,
    "numarticles": 8,
    "avgtone": "1.80623973727422",
    "sourceurl": "http://www.cnn.com/2013/09/18/us/child-porn-charges-immigration-activist/index.html?utm_source=feedburner&utm_medium=feed&utm_campaign=Feed%3A+rss%2Fcnn_latest+%28RSS%3A+Most+Recent%29",
    "feature_id": "944840",
    "feature_name": "Brooklyn",
    "state_alpha": "NY",
    "county_name": "Delaware",
    "county_numeric": "025",
    "prim_lat_dec": "42.3442482",
    "prim_long_dec": "-75.1704468",
    "elev_in_m": "366",
    "elev_in_ft": "1201",
    "lat": 42.3442482,
    "long": -75.1704468
  },
  {
    "globaleventid": 268307259,
    "sqldate": 20130918,
    "monthyear": 201309,
    "year": 2013,
    "fractiondate": "2013.7068",
    "eventcode": 193,
    "quadclass": 4,
    "nummentions": 6,
    "numsources": 2,
    "numarticles": 6,
    "avgtone": "4.57186853700206",
    "sourceurl": "http://www.kansascity.com/2013/09/18/4489584/quotations-of-the-day.html",
    "feature_id": "531871",
    "feature_name": "Washington",
    "state_alpha": "DC",
    "county_name": "District of Columbia",
    "county_numeric": "001",
    "prim_lat_dec": "38.8951118",
    "prim_long_dec": "-77.0363658",
    "elev_in_m": "7",
    "elev_in_ft": "23",
    "lat": 38.8951118,
    "long": -77.0363658
  },
  {
    "globaleventid": 268307254,
    "sqldate": 20130918,
    "monthyear": 201309,
    "year": 2013,
    "fractiondate": "2013.7068",
    "eventcode": 110,
    "quadclass": 3,
    "nummentions": 2,
    "numsources": 1,
    "numarticles": 2,
    "avgtone": "1.05633802816901",
    "sourceurl": "http://www.bostonglobe.com/metro/2013/09/17/brookline-police-arrest-landscaper-after-allegedly-violated-leaf-blowing-ban/WuVRQeHDyev8o7HahUfd8I/story.html",
    "feature_id": "606977",
    "feature_name": "Brookline",
    "state_alpha": "MA",
    "county_name": "Norfolk",
    "county_numeric": "021",
    "prim_lat_dec": "42.3317642",
    "prim_long_dec": "-71.1211635",
    "elev_in_m": "8",
    "elev_in_ft": "26",
    "lat": 42.3317642,
    "long": -71.1211635
  },
  {
    "globaleventid": 268307241,
    "sqldate": 20130918,
    "monthyear": 201309,
    "year": 2013,
    "fractiondate": "2013.7068",
    "eventcode": 173,
    "quadclass": 4,
    "nummentions": 6,
    "numsources": 1,
    "numarticles": 6,
    "avgtone": "0.852272727272727",
    "sourceurl": "http://www.pressherald.com/news/Portland-judge-gives-cocaine-smuggler-six-years-in-prison.html",
    "feature_id": "209949",
    "feature_name": "Portland",
    "state_alpha": "CT",
    "county_name": "Middlesex",
    "county_numeric": "007",
    "prim_lat_dec": "41.5728766",
    "prim_long_dec": "-72.6406483",
    "elev_in_m": "24",
    "elev_in_ft": "79",
    "lat": 41.5728766,
    "long": -72.6406483
  },
  {
    "globaleventid": 268307237,
    "sqldate": 20130918,
    "monthyear": 201309,
    "year": 2013,
    "fractiondate": "2013.7068",
    "eventcode": 120,
    "quadclass": 3,
    "nummentions": 2,
    "numsources": 1,
    "numarticles": 2,
    "avgtone": "1.90677966101695",
    "sourceurl": "http://www.lakewyliepilot.com/2013/09/12/2067917/ore-judge-rejects-new-sentence.html",
    "feature_id": "1230283",
    "feature_name": "Salem",
    "state_alpha": "SC",
    "county_name": "Oconee",
    "county_numeric": "073",
    "prim_lat_dec": "34.8898161",
    "prim_long_dec": "-82.9765364",
    "elev_in_m": "324",
    "elev_in_ft": "1063",
    "lat": 34.8898161,
    "long": -82.9765364
  },
  {
    "globaleventid": 268307236,
    "sqldate": 20130918,
    "monthyear": 201309,
    "year": 2013,
    "fractiondate": "2013.7068",
    "eventcode": 120,
    "quadclass": 3,
    "nummentions": 4,
    "numsources": 1,
    "numarticles": 4,
    "avgtone": "0.0",
    "sourceurl": "http://redriverradio.org/post/i-killed-man-video-confessor-pleads-guilty",
    "feature_id": "1044900",
    "feature_name": "Red River",
    "state_alpha": "OH",
    "county_name": "Darke",
    "county_numeric": "037",
    "prim_lat_dec": "40.0800503",
    "prim_long_dec": "-84.4485613",
    "elev_in_m": "302",
    "elev_in_ft": "991",
    "lat": 40.0800503,
    "long": -84.4485613
  },
  {
    "globaleventid": 268307232,
    "sqldate": 20130918,
    "monthyear": 201309,
    "year": 2013,
    "fractiondate": "2013.7068",
    "eventcode": 100,
    "quadclass": 3,
    "nummentions": 6,
    "numsources": 1,
    "numarticles": 6,
    "avgtone": "2.39234449760766",
    "sourceurl": "http://www.nola.com/politics/index.ssf/2013/09/angola_three_wallace_release_d.html",
    "feature_id": "1629985",
    "feature_name": "New Orleans",
    "state_alpha": "LA",
    "county_name": "Orleans",
    "county_numeric": "071",
    "prim_lat_dec": "29.9546482",
    "prim_long_dec": "-90.075072",
    "elev_in_m": "0",
    "elev_in_ft": "0",
    "lat": 29.9546482,
    "long": -90.075072
  },
  {
    "globaleventid": 268307231,
    "sqldate": 20130918,
    "monthyear": 201309,
    "year": 2013,
    "fractiondate": "2013.7068",
    "eventcode": 100,
    "quadclass": 3,
    "nummentions": 1,
    "numsources": 1,
    "numarticles": 1,
    "avgtone": "2.39234449760766",
    "sourceurl": "http://www.nola.com/politics/index.ssf/2013/09/angola_three_wallace_release_d.html",
    "feature_id": "1629914",
    "feature_name": "Baton Rouge",
    "state_alpha": "LA",
    "county_name": "East Baton Rouge",
    "county_numeric": "033",
    "prim_lat_dec": "30.4507462",
    "prim_long_dec": "-91.154551",
    "elev_in_m": "14",
    "elev_in_ft": "46",
    "lat": 30.4507462,
    "long": -91.154551
  },
  {
    "globaleventid": 268307195,
    "sqldate": 20130918,
    "monthyear": 201309,
    "year": 2013,
    "fractiondate": "2013.7068",
    "eventcode": 173,
    "quadclass": 4,
    "nummentions": 1,
    "numsources": 1,
    "numarticles": 1,
    "avgtone": "1.47492625368732",
    "sourceurl": "http://7thspace.com/headlines/444948/former_county_prosecutor_convicted_of_oxycodone_distribution.html",
    "feature_id": "1174103",
    "feature_name": "Elizabethtown",
    "state_alpha": "PA",
    "county_name": "Lancaster",
    "county_numeric": "071",
    "prim_lat_dec": "40.1528719",
    "prim_long_dec": "-76.6027455",
    "elev_in_m": "136",
    "elev_in_ft": "446",
    "lat": 40.1528719,
    "long": -76.6027455
  },
  {
    "globaleventid": 268307171,
    "sqldate": 20130918,
    "monthyear": 201309,
    "year": 2013,
    "fractiondate": "2013.7068",
    "eventcode": 193,
    "quadclass": 4,
    "nummentions": 2,
    "numsources": 1,
    "numarticles": 2,
    "avgtone": "1.90677966101695",
    "sourceurl": "http://www.lakewyliepilot.com/2013/09/12/2067917/ore-judge-rejects-new-sentence.html",
    "feature_id": "1233775",
    "feature_name": "Lake Wylie",
    "state_alpha": "SC",
    "county_name": "York",
    "county_numeric": "091",
    "prim_lat_dec": "35.108476",
    "prim_long_dec": "-81.0428538",
    "elev_in_m": "179",
    "elev_in_ft": "587",
    "lat": 35.108476,
    "long": -81.0428538
  },
  {
    "globaleventid": 268307169,
    "sqldate": 20130918,
    "monthyear": 201309,
    "year": 2013,
    "fractiondate": "2013.7068",
    "eventcode": 120,
    "quadclass": 3,
    "nummentions": 6,
    "numsources": 1,
    "numarticles": 6,
    "avgtone": "1.90677966101695",
    "sourceurl": "http://www.lakewyliepilot.com/2013/09/12/2067917/ore-judge-rejects-new-sentence.html",
    "feature_id": "1233775",
    "feature_name": "Lake Wylie",
    "state_alpha": "SC",
    "county_name": "York",
    "county_numeric": "091",
    "prim_lat_dec": "35.108476",
    "prim_long_dec": "-81.0428538",
    "elev_in_m": "179",
    "elev_in_ft": "587",
    "lat": 35.108476,
    "long": -81.0428538
  },
  {
    "globaleventid": 268307156,
    "sqldate": 20130918,
    "monthyear": 201309,
    "year": 2013,
    "fractiondate": "2013.7068",
    "eventcode": 172,
    "quadclass": 4,
    "nummentions": 24,
    "numsources": 2,
    "numarticles": 24,
    "avgtone": "1.04166666666667",
    "sourceurl": "http://www.bizjournals.com/pacific/blog/morning_call/2013/09/hawaii-judge-bars-landowners-eviction.html",
    "feature_id": "359833",
    "feature_name": "Kahuku",
    "state_alpha": "HI",
    "county_name": "Honolulu",
    "county_numeric": "003",
    "prim_lat_dec": "21.6767166",
    "prim_long_dec": "-157.947894",
    "elev_in_m": "1",
    "elev_in_ft": "3",
    "lat": 21.6767166,
    "long": -157.947894
  },
  {
    "globaleventid": 268307144,
    "sqldate": 20130918,
    "monthyear": 201309,
    "year": 2013,
    "fractiondate": "2013.7068",
    "eventcode": 173,
    "quadclass": 4,
    "nummentions": 12,
    "numsources": 1,
    "numarticles": 6,
    "avgtone": "0.852272727272727",
    "sourceurl": "http://www.pressherald.com/news/Portland-judge-gives-cocaine-smuggler-six-years-in-prison.html",
    "feature_id": "209949",
    "feature_name": "Portland",
    "state_alpha": "CT",
    "county_name": "Middlesex",
    "county_numeric": "007",
    "prim_lat_dec": "41.5728766",
    "prim_long_dec": "-72.6406483",
    "elev_in_m": "24",
    "elev_in_ft": "79",
    "lat": 41.5728766,
    "long": -72.6406483
  },
  {
    "globaleventid": 268307142,
    "sqldate": 20130918,
    "monthyear": 201309,
    "year": 2013,
    "fractiondate": "2013.7068",
    "eventcode": 112,
    "quadclass": 3,
    "nummentions": 10,
    "numsources": 1,
    "numarticles": 10,
    "avgtone": "0.490196078431373",
    "sourceurl": "http://www.redsticknow.com/2013/09/baton-rouge-crime-news/five-people-charged-with-filing-false-tax-returns-id-theft/",
    "feature_id": "1629914",
    "feature_name": "Baton Rouge",
    "state_alpha": "LA",
    "county_name": "East Baton Rouge",
    "county_numeric": "033",
    "prim_lat_dec": "30.4507462",
    "prim_long_dec": "-91.154551",
    "elev_in_m": "14",
    "elev_in_ft": "46",
    "lat": 30.4507462,
    "long": -91.154551
  },
  {
    "globaleventid": 268307139,
    "sqldate": 20130918,
    "monthyear": 201309,
    "year": 2013,
    "fractiondate": "2013.7068",
    "eventcode": 173,
    "quadclass": 4,
    "nummentions": 2,
    "numsources": 1,
    "numarticles": 2,
    "avgtone": "1.41509433962264",
    "sourceurl": "http://www.washingtonpost.com/local/burglar-leaves-behind-telling-clue-his-own-court-records/2013/09/18/0ec297ec-209b-11e3-966c-9c4293c47ebe_story.html?wprss=rss_local",
    "feature_id": "1473420",
    "feature_name": "Rockville",
    "state_alpha": "VA",
    "county_name": "Hanover",
    "county_numeric": "085",
    "prim_lat_dec": "37.725978",
    "prim_long_dec": "-77.6783238",
    "elev_in_m": "93",
    "elev_in_ft": "305",
    "lat": 37.725978,
    "long": -77.6783238
  },
  {
    "globaleventid": 268307120,
    "sqldate": 20130918,
    "monthyear": 201309,
    "year": 2013,
    "fractiondate": "2013.7068",
    "eventcode": 190,
    "quadclass": 4,
    "nummentions": 6,
    "numsources": 1,
    "numarticles": 6,
    "avgtone": "1.46520146520147",
    "sourceurl": "http://wcfcourier.com/news/local/govt-and-politics/murder-trial-for-waterloo-man-starts-wednesday/article_12c8bf76-208f-11e3-92ef-0019bb2963f4.html",
    "feature_id": "455240",
    "feature_name": "Cedar Falls",
    "state_alpha": "IA",
    "county_name": "Black Hawk",
    "county_numeric": "013",
    "prim_lat_dec": "42.5277622",
    "prim_long_dec": "-92.4454654",
    "elev_in_m": "268",
    "elev_in_ft": "879",
    "lat": 42.5277622,
    "long": -92.4454654
  },
  {
    "globaleventid": 268306915,
    "sqldate": 20130918,
    "monthyear": 201309,
    "year": 2013,
    "fractiondate": "2013.7068",
    "eventcode": 190,
    "quadclass": 4,
    "nummentions": 4,
    "numsources": 1,
    "numarticles": 4,
    "avgtone": "0.859598853868195",
    "sourceurl": "http://heraldnews.suntimes.com/news/22651328-418/doctor-testifies-abuser-inflicted-babys-fatal-injuries.html",
    "feature_id": "411192",
    "feature_name": "Joliet",
    "state_alpha": "IL",
    "county_name": "Will",
    "county_numeric": "197",
    "prim_lat_dec": "41.525031",
    "prim_long_dec": "-88.0817252",
    "elev_in_m": "165",
    "elev_in_ft": "541",
    "lat": 41.525031,
    "long": -88.0817252
  },
  {
    "globaleventid": 268306913,
    "sqldate": 20130918,
    "monthyear": 201309,
    "year": 2013,
    "fractiondate": "2013.7068",
    "eventcode": 173,
    "quadclass": 4,
    "nummentions": 6,
    "numsources": 1,
    "numarticles": 6,
    "avgtone": "4.40528634361234",
    "sourceurl": "http://lancasteronline.com/article/ap/896034_Pa--nurse-seeks-dismissal-of-assisted-suicide-case.html",
    "feature_id": "1209052",
    "feature_name": "Philadelphia",
    "state_alpha": "PA",
    "county_name": "Philadelphia",
    "county_numeric": "101",
    "prim_lat_dec": "39.952335",
    "prim_long_dec": "-75.163789",
    "elev_in_m": "14",
    "elev_in_ft": "46",
    "lat": 39.952335,
    "long": -75.163789
  },
  {
    "globaleventid": 268306909,
    "sqldate": 20130918,
    "monthyear": 201309,
    "year": 2013,
    "fractiondate": "2013.7068",
    "eventcode": 112,
    "quadclass": 3,
    "nummentions": 2,
    "numsources": 1,
    "numarticles": 2,
    "avgtone": "0.859598853868195",
    "sourceurl": "http://heraldnews.suntimes.com/news/22651328-418/doctor-testifies-abuser-inflicted-babys-fatal-injuries.html",
    "feature_id": "411192",
    "feature_name": "Joliet",
    "state_alpha": "IL",
    "county_name": "Will",
    "county_numeric": "197",
    "prim_lat_dec": "41.525031",
    "prim_long_dec": "-88.0817252",
    "elev_in_m": "165",
    "elev_in_ft": "541",
    "lat": 41.525031,
    "long": -88.0817252
  },
  {
    "globaleventid": 268306907,
    "sqldate": 20130918,
    "monthyear": 201309,
    "year": 2013,
    "fractiondate": "2013.7068",
    "eventcode": 112,
    "quadclass": 3,
    "nummentions": 2,
    "numsources": 1,
    "numarticles": 2,
    "avgtone": "0.0",
    "sourceurl": "http://www.waaytv.com/news/local/fayetteville-woman-arrested-for-prescription-drug-fraud/article_d7d5df68-208c-11e3-9f8a-0019bb30f31a.html",
    "feature_id": "1647829",
    "feature_name": "Fayetteville",
    "state_alpha": "TN",
    "county_name": "Lincoln",
    "county_numeric": "103",
    "prim_lat_dec": "35.1520266",
    "prim_long_dec": "-86.5705508",
    "elev_in_m": "215",
    "elev_in_ft": "705",
    "lat": 35.1520266,
    "long": -86.5705508
  },
  {
    "globaleventid": 268306906,
    "sqldate": 20130918,
    "monthyear": 201309,
    "year": 2013,
    "fractiondate": "2013.7068",
    "eventcode": 110,
    "quadclass": 3,
    "nummentions": 6,
    "numsources": 1,
    "numarticles": 6,
    "avgtone": "2.55102040816327",
    "sourceurl": "http://www.ctpost.com/news/article/Pa-nurse-seeks-dismissal-of-assisted-suicide-case-4823588.php",
    "feature_id": "1209052",
    "feature_name": "Philadelphia",
    "state_alpha": "PA",
    "county_name": "Philadelphia",
    "county_numeric": "101",
    "prim_lat_dec": "39.952335",
    "prim_long_dec": "-75.163789",
    "elev_in_m": "14",
    "elev_in_ft": "46",
    "lat": 39.952335,
    "long": -75.163789
  },
  {
    "globaleventid": 268306855,
    "sqldate": 20130918,
    "monthyear": 201309,
    "year": 2013,
    "fractiondate": "2013.7068",
    "eventcode": 190,
    "quadclass": 4,
    "nummentions": 6,
    "numsources": 3,
    "numarticles": 6,
    "avgtone": "0.0",
    "sourceurl": "http://www.morning-times.com/state_news/article_47be6d95-7dd9-5f18-a798-680cc97105ca.html",
    "feature_id": "962684",
    "feature_name": "Rochester",
    "state_alpha": "NY",
    "county_name": "Monroe",
    "county_numeric": "055",
    "prim_lat_dec": "43.1547845",
    "prim_long_dec": "-77.6155568",
    "elev_in_m": "154",
    "elev_in_ft": "505",
    "lat": 43.1547845,
    "long": -77.6155568
  },
  {
    "globaleventid": 268306850,
    "sqldate": 20130918,
    "monthyear": 201309,
    "year": 2013,
    "fractiondate": "2013.7068",
    "eventcode": 193,
    "quadclass": 4,
    "nummentions": 3,
    "numsources": 1,
    "numarticles": 3,
    "avgtone": "1.43830431491294",
    "sourceurl": "http://www.nydailynews.com/news/national/navy-yard-gunman-struggled-mental-issues-officials-article-1.1458281",
    "feature_id": "531871",
    "feature_name": "Washington",
    "state_alpha": "DC",
    "county_name": "District of Columbia",
    "county_numeric": "001",
    "prim_lat_dec": "38.8951118",
    "prim_long_dec": "-77.0363658",
    "elev_in_m": "7",
    "elev_in_ft": "23",
    "lat": 38.8951118,
    "long": -77.0363658
  },
  {
    "globaleventid": 268306848,
    "sqldate": 20130918,
    "monthyear": 201309,
    "year": 2013,
    "fractiondate": "2013.7068",
    "eventcode": 130,
    "quadclass": 3,
    "nummentions": 6,
    "numsources": 1,
    "numarticles": 6,
    "avgtone": "0.523560209424084",
    "sourceurl": "http://www.kpbs.org/news/2013/sep/18/medi-cal-patients-major-factor-surge-california-em/",
    "feature_id": "1661377",
    "feature_name": "San Diego",
    "state_alpha": "CA",
    "county_name": "San Diego",
    "county_numeric": "073",
    "prim_lat_dec": "32.7153292",
    "prim_long_dec": "-117.1572551",
    "elev_in_m": "19",
    "elev_in_ft": "62",
    "lat": 32.7153292,
    "long": -117.1572551
  },
  {
    "globaleventid": 268306643,
    "sqldate": 20130918,
    "monthyear": 201309,
    "year": 2013,
    "fractiondate": "2013.7068",
    "eventcode": 193,
    "quadclass": 4,
    "nummentions": 11,
    "numsources": 2,
    "numarticles": 11,
    "avgtone": "1.93412124207972",
    "sourceurl": "http://tv.msnbc.com/2013/09/18/after-fort-hood-how-did-aaron-alexis-slip-through-the-cracks/",
    "feature_id": "531871",
    "feature_name": "Washington",
    "state_alpha": "DC",
    "county_name": "District of Columbia",
    "county_numeric": "001",
    "prim_lat_dec": "38.8951118",
    "prim_long_dec": "-77.0363658",
    "elev_in_m": "7",
    "elev_in_ft": "23",
    "lat": 38.8951118,
    "long": -77.0363658
  },
  {
    "globaleventid": 268306642,
    "sqldate": 20130918,
    "monthyear": 201309,
    "year": 2013,
    "fractiondate": "2013.7068",
    "eventcode": 193,
    "quadclass": 4,
    "nummentions": 10,
    "numsources": 1,
    "numarticles": 10,
    "avgtone": "0.846023688663283",
    "sourceurl": "http://www.seacoastonline.com/articles/20130918-NEWS-130919714",
    "feature_id": "295004",
    "feature_name": "Miami",
    "state_alpha": "FL",
    "county_name": "Miami-Dade",
    "county_numeric": "086",
    "prim_lat_dec": "25.7742658",
    "prim_long_dec": "-80.1936589",
    "elev_in_m": "2",
    "elev_in_ft": "7",
    "lat": 25.7742658,
    "long": -80.1936589
  },
  {
    "globaleventid": 268306632,
    "sqldate": 20130918,
    "monthyear": 201309,
    "year": 2013,
    "fractiondate": "2013.7068",
    "eventcode": 193,
    "quadclass": 4,
    "nummentions": 2,
    "numsources": 1,
    "numarticles": 2,
    "avgtone": "1.10726643598616",
    "sourceurl": "http://www.bloomberg.com/news/2013-09-18/military-missed-red-flags-about-navy-shooter-hagel-says.html",
    "feature_id": "531871",
    "feature_name": "Washington",
    "state_alpha": "DC",
    "county_name": "District of Columbia",
    "county_numeric": "001",
    "prim_lat_dec": "38.8951118",
    "prim_long_dec": "-77.0363658",
    "elev_in_m": "7",
    "elev_in_ft": "23",
    "lat": 38.8951118,
    "long": -77.0363658
  },
  {
    "globaleventid": 268306625,
    "sqldate": 20130918,
    "monthyear": 201309,
    "year": 2013,
    "fractiondate": "2013.7068",
    "eventcode": 193,
    "quadclass": 4,
    "nummentions": 10,
    "numsources": 1,
    "numarticles": 10,
    "avgtone": "0.666666666666667",
    "sourceurl": "http://english.cntv.cn/program/newsupdate/20130919/100726.shtml",
    "feature_id": "531871",
    "feature_name": "Washington",
    "state_alpha": "DC",
    "county_name": "District of Columbia",
    "county_numeric": "001",
    "prim_lat_dec": "38.8951118",
    "prim_long_dec": "-77.0363658",
    "elev_in_m": "7",
    "elev_in_ft": "23",
    "lat": 38.8951118,
    "long": -77.0363658
  },
  {
    "globaleventid": 268306624,
    "sqldate": 20130918,
    "monthyear": 201309,
    "year": 2013,
    "fractiondate": "2013.7068",
    "eventcode": 138,
    "quadclass": 3,
    "nummentions": 10,
    "numsources": 1,
    "numarticles": 10,
    "avgtone": "1.61290322580645",
    "sourceurl": "http://security.blogs.cnn.com/2013/09/17/first-on-cnn-hagel-ordering-review-of-security-at-us-military-installations-in-wake-of-washington-navy-yard/",
    "feature_id": "531871",
    "feature_name": "Washington",
    "state_alpha": "DC",
    "county_name": "District of Columbia",
    "county_numeric": "001",
    "prim_lat_dec": "38.8951118",
    "prim_long_dec": "-77.0363658",
    "elev_in_m": "7",
    "elev_in_ft": "23",
    "lat": 38.8951118,
    "long": -77.0363658
  },
  {
    "globaleventid": 268306555,
    "sqldate": 20130918,
    "monthyear": 201309,
    "year": 2013,
    "fractiondate": "2013.7068",
    "eventcode": 112,
    "quadclass": 3,
    "nummentions": 3,
    "numsources": 1,
    "numarticles": 3,
    "avgtone": "2.52873563218391",
    "sourceurl": "http://www.bloomberg.com/news/2013-09-18/imperial-petroleum-executive-charged-with-fraud-over-biofuels.html",
    "feature_id": "407150",
    "feature_name": "Detroit",
    "state_alpha": "IL",
    "county_name": "Pike",
    "county_numeric": "149",
    "prim_lat_dec": "39.6206031",
    "prim_long_dec": "-90.6767936",
    "elev_in_m": "195",
    "elev_in_ft": "640",
    "lat": 39.6206031,
    "long": -90.6767936
  },
  {
    "globaleventid": 268306500,
    "sqldate": 20130918,
    "monthyear": 201309,
    "year": 2013,
    "fractiondate": "2013.7068",
    "eventcode": 193,
    "quadclass": 4,
    "nummentions": 8,
    "numsources": 2,
    "numarticles": 8,
    "avgtone": "0.86115212881904",
    "sourceurl": "http://www.telegraph.co.uk/news/worldnews/barackobama/10316875/Aaron-Alexis-Barack-Obama-calls-for-gun-law-review-after-Washington-Navy-yard-shooting.html",
    "feature_id": "531871",
    "feature_name": "Washington",
    "state_alpha": "DC",
    "county_name": "District of Columbia",
    "county_numeric": "001",
    "prim_lat_dec": "38.8951118",
    "prim_long_dec": "-77.0363658",
    "elev_in_m": "7",
    "elev_in_ft": "23",
    "lat": 38.8951118,
    "long": -77.0363658
  },
  {
    "globaleventid": 268306475,
    "sqldate": 20130918,
    "monthyear": 201309,
    "year": 2013,
    "fractiondate": "2013.7068",
    "eventcode": 193,
    "quadclass": 4,
    "nummentions": 42,
    "numsources": 7,
    "numarticles": 42,
    "avgtone": "0.780262877491198",
    "sourceurl": "http://www.newschannel5.com/story/23466772/man-acknowledges-shooting-at-white-house-in-2011",
    "feature_id": "531871",
    "feature_name": "Washington",
    "state_alpha": "DC",
    "county_name": "District of Columbia",
    "county_numeric": "001",
    "prim_lat_dec": "38.8951118",
    "prim_long_dec": "-77.0363658",
    "elev_in_m": "7",
    "elev_in_ft": "23",
    "lat": 38.8951118,
    "long": -77.0363658
  },
  {
    "globaleventid": 268306444,
    "sqldate": 20130918,
    "monthyear": 201309,
    "year": 2013,
    "fractiondate": "2013.7068",
    "eventcode": 112,
    "quadclass": 3,
    "nummentions": 2,
    "numsources": 1,
    "numarticles": 2,
    "avgtone": "1.92837465564738",
    "sourceurl": "http://www.upi.com/Top_News/US/2013/09/18/US-House-GOP-leaders-cancel-recess-set-healthcare-vote/UPI-41821379546574/&c=sfWME-f5zG1tHaNVIhUxNDsvXlKNIwRnul0o_jPd9-E&mkt=en-us",
    "feature_id": "531871",
    "feature_name": "Washington",
    "state_alpha": "DC",
    "county_name": "District of Columbia",
    "county_numeric": "001",
    "prim_lat_dec": "38.8951118",
    "prim_long_dec": "-77.0363658",
    "elev_in_m": "7",
    "elev_in_ft": "23",
    "lat": 38.8951118,
    "long": -77.0363658
  },
  {
    "globaleventid": 268306443,
    "sqldate": 20130918,
    "monthyear": 201309,
    "year": 2013,
    "fractiondate": "2013.7068",
    "eventcode": 112,
    "quadclass": 3,
    "nummentions": 2,
    "numsources": 1,
    "numarticles": 2,
    "avgtone": "1.92837465564738",
    "sourceurl": "http://www.upi.com/Top_News/US/2013/09/18/US-House-GOP-leaders-cancel-recess-set-healthcare-vote/UPI-41821379546574/&c=sfWME-f5zG1tHaNVIhUxNDsvXlKNIwRnul0o_jPd9-E&mkt=en-us",
    "feature_id": "531871",
    "feature_name": "Washington",
    "state_alpha": "DC",
    "county_name": "District of Columbia",
    "county_numeric": "001",
    "prim_lat_dec": "38.8951118",
    "prim_long_dec": "-77.0363658",
    "elev_in_m": "7",
    "elev_in_ft": "23",
    "lat": 38.8951118,
    "long": -77.0363658
  },
  {
    "globaleventid": 268306434,
    "sqldate": 20130918,
    "monthyear": 201309,
    "year": 2013,
    "fractiondate": "2013.7068",
    "eventcode": 193,
    "quadclass": 4,
    "nummentions": 5,
    "numsources": 1,
    "numarticles": 5,
    "avgtone": "0.970873786407767",
    "sourceurl": "http://newsfixnow.com/2013/09/18/gun-control-debate-heats-up-starbucks-jumps-in/",
    "feature_id": "531871",
    "feature_name": "Washington",
    "state_alpha": "DC",
    "county_name": "District of Columbia",
    "county_numeric": "001",
    "prim_lat_dec": "38.8951118",
    "prim_long_dec": "-77.0363658",
    "elev_in_m": "7",
    "elev_in_ft": "23",
    "lat": 38.8951118,
    "long": -77.0363658
  },
  {
    "globaleventid": 268306432,
    "sqldate": 20130918,
    "monthyear": 201309,
    "year": 2013,
    "fractiondate": "2013.7068",
    "eventcode": 190,
    "quadclass": 4,
    "nummentions": 57,
    "numsources": 4,
    "numarticles": 31,
    "avgtone": "2.52250464957822",
    "sourceurl": "http://www.610kvnu.com/politics/54ee88e9c5081caa6e4042e5db774734&c=pbBFmpUARh5qMP7JoAe8-hXbuOVwgr96zQ-D35uo8Wg&mkt=en-us",
    "feature_id": "531871",
    "feature_name": "Washington",
    "state_alpha": "DC",
    "county_name": "District of Columbia",
    "county_numeric": "001",
    "prim_lat_dec": "38.8951118",
    "prim_long_dec": "-77.0363658",
    "elev_in_m": "7",
    "elev_in_ft": "23",
    "lat": 38.8951118,
    "long": -77.0363658
  },
  {
    "globaleventid": 268306431,
    "sqldate": 20130918,
    "monthyear": 201309,
    "year": 2013,
    "fractiondate": "2013.7068",
    "eventcode": 185,
    "quadclass": 4,
    "nummentions": 3,
    "numsources": 2,
    "numarticles": 3,
    "avgtone": "1.15326184674302",
    "sourceurl": "http://news.yahoo.com/idaho-man-pleads-guilty-firing-assault-rifle-white-232931962.html",
    "feature_id": "531871",
    "feature_name": "Washington",
    "state_alpha": "DC",
    "county_name": "District of Columbia",
    "county_numeric": "001",
    "prim_lat_dec": "38.8951118",
    "prim_long_dec": "-77.0363658",
    "elev_in_m": "7",
    "elev_in_ft": "23",
    "lat": 38.8951118,
    "long": -77.0363658
  },
  {
    "globaleventid": 268306426,
    "sqldate": 20130918,
    "monthyear": 201309,
    "year": 2013,
    "fractiondate": "2013.7068",
    "eventcode": 125,
    "quadclass": 3,
    "nummentions": 4,
    "numsources": 1,
    "numarticles": 4,
    "avgtone": "3.09859154929577",
    "sourceurl": "http://www.kuna.net.kw/ArticleDetails.aspx?id=2334415&Language=en&c=hm4ORpURZkVaebqrYKcFTq5XIIJzPIh7SMtWWE5aDtg&mkt=en-us",
    "feature_id": "531871",
    "feature_name": "Washington",
    "state_alpha": "DC",
    "county_name": "District of Columbia",
    "county_numeric": "001",
    "prim_lat_dec": "38.8951118",
    "prim_long_dec": "-77.0363658",
    "elev_in_m": "7",
    "elev_in_ft": "23",
    "lat": 38.8951118,
    "long": -77.0363658
  },
  {
    "globaleventid": 268306425,
    "sqldate": 20130918,
    "monthyear": 201309,
    "year": 2013,
    "fractiondate": "2013.7068",
    "eventcode": 120,
    "quadclass": 3,
    "nummentions": 2,
    "numsources": 1,
    "numarticles": 2,
    "avgtone": "2.92825768667643",
    "sourceurl": "http://womensenews.org/story/economyeconomic-policy/130917/pensioners-face-betrayal-in-detroits-bankruptcy-push",
    "feature_id": "620133",
    "feature_name": "Ann Arbor",
    "state_alpha": "MI",
    "county_name": "Washtenaw",
    "county_numeric": "161",
    "prim_lat_dec": "42.2708716",
    "prim_long_dec": "-83.7263294",
    "elev_in_m": "268",
    "elev_in_ft": "879",
    "lat": 42.2708716,
    "long": -83.7263294
  },
  {
    "globaleventid": 268306422,
    "sqldate": 20130918,
    "monthyear": 201309,
    "year": 2013,
    "fractiondate": "2013.7068",
    "eventcode": 1124,
    "quadclass": 3,
    "nummentions": 10,
    "numsources": 1,
    "numarticles": 10,
    "avgtone": "2.3489932885906",
    "sourceurl": "http://www.naharnet.com/stories/en/98709-hagel-says-u-s-to-retain-military-threat-against-syria",
    "feature_id": "531871",
    "feature_name": "Washington",
    "state_alpha": "DC",
    "county_name": "District of Columbia",
    "county_numeric": "001",
    "prim_lat_dec": "38.8951118",
    "prim_long_dec": "-77.0363658",
    "elev_in_m": "7",
    "elev_in_ft": "23",
    "lat": 38.8951118,
    "long": -77.0363658
  },
  {
    "globaleventid": 268306416,
    "sqldate": 20130918,
    "monthyear": 201309,
    "year": 2013,
    "fractiondate": "2013.7068",
    "eventcode": 112,
    "quadclass": 3,
    "nummentions": 10,
    "numsources": 1,
    "numarticles": 10,
    "avgtone": "1.8595041322314",
    "sourceurl": "http://www.washingtontimes.com/news/2013/sep/18/obama-accuses-house-gop-extortion-budget-fight/",
    "feature_id": "531871",
    "feature_name": "Washington",
    "state_alpha": "DC",
    "county_name": "District of Columbia",
    "county_numeric": "001",
    "prim_lat_dec": "38.8951118",
    "prim_long_dec": "-77.0363658",
    "elev_in_m": "7",
    "elev_in_ft": "23",
    "lat": 38.8951118,
    "long": -77.0363658
  },
  {
    "globaleventid": 268306335,
    "sqldate": 20130918,
    "monthyear": 201309,
    "year": 2013,
    "fractiondate": "2013.7068",
    "eventcode": 110,
    "quadclass": 3,
    "nummentions": 10,
    "numsources": 1,
    "numarticles": 10,
    "avgtone": "2.07756232686981",
    "sourceurl": "http://www.politico.com/story/2013/09/obama-business-roundtable-96987.html",
    "feature_id": "531871",
    "feature_name": "Washington",
    "state_alpha": "DC",
    "county_name": "District of Columbia",
    "county_numeric": "001",
    "prim_lat_dec": "38.8951118",
    "prim_long_dec": "-77.0363658",
    "elev_in_m": "7",
    "elev_in_ft": "23",
    "lat": 38.8951118,
    "long": -77.0363658
  },
  {
    "globaleventid": 268306327,
    "sqldate": 20130918,
    "monthyear": 201309,
    "year": 2013,
    "fractiondate": "2013.7068",
    "eventcode": 190,
    "quadclass": 4,
    "nummentions": 2,
    "numsources": 1,
    "numarticles": 2,
    "avgtone": "0.454545454545455",
    "sourceurl": "http://www.wfaa.com/news/tip-leads-dallas-police-to-arrest-in-two-separate-murders-224242001.html",
    "feature_id": "1380944",
    "feature_name": "Dallas",
    "state_alpha": "TX",
    "county_name": "Dallas",
    "county_numeric": "113",
    "prim_lat_dec": "32.7830556",
    "prim_long_dec": "-96.8066667",
    "elev_in_m": "128",
    "elev_in_ft": "420",
    "lat": 32.7830556,
    "long": -96.8066667
  },
  {
    "globaleventid": 268306326,
    "sqldate": 20130918,
    "monthyear": 201309,
    "year": 2013,
    "fractiondate": "2013.7068",
    "eventcode": 190,
    "quadclass": 4,
    "nummentions": 4,
    "numsources": 1,
    "numarticles": 4,
    "avgtone": "0.454545454545455",
    "sourceurl": "http://www.wfaa.com/news/tip-leads-dallas-police-to-arrest-in-two-separate-murders-224242001.html",
    "feature_id": "1380944",
    "feature_name": "Dallas",
    "state_alpha": "TX",
    "county_name": "Dallas",
    "county_numeric": "113",
    "prim_lat_dec": "32.7830556",
    "prim_long_dec": "-96.8066667",
    "elev_in_m": "128",
    "elev_in_ft": "420",
    "lat": 32.7830556,
    "long": -96.8066667
  },
  {
    "globaleventid": 268306294,
    "sqldate": 20130918,
    "monthyear": 201309,
    "year": 2013,
    "fractiondate": "2013.7068",
    "eventcode": 193,
    "quadclass": 4,
    "nummentions": 1,
    "numsources": 1,
    "numarticles": 1,
    "avgtone": "0.0",
    "sourceurl": "http://www.washingtonpost.com/local/white-house-shooter-oscar-ortega-hernandez-pleads-guilty-faces-up-to-27-12-years-in-prison/2013/09/18/c10e0fb6-2074-11e3-b7d1-7153ad47b549_story.html",
    "feature_id": "531871",
    "feature_name": "Washington",
    "state_alpha": "DC",
    "county_name": "District of Columbia",
    "county_numeric": "001",
    "prim_lat_dec": "38.8951118",
    "prim_long_dec": "-77.0363658",
    "elev_in_m": "7",
    "elev_in_ft": "23",
    "lat": 38.8951118,
    "long": -77.0363658
  },
  {
    "globaleventid": 268306293,
    "sqldate": 20130918,
    "monthyear": 201309,
    "year": 2013,
    "fractiondate": "2013.7068",
    "eventcode": 193,
    "quadclass": 4,
    "nummentions": 6,
    "numsources": 1,
    "numarticles": 6,
    "avgtone": "1.69491525423729",
    "sourceurl": "http://www.boston.com/2013/09/18/obama-attend-navy-yard-shooting-memorial-sunday/ktnK5XOOfvxJ1RdORBkBpI/story.html?rss_id=Top+Stories",
    "feature_id": "617565",
    "feature_name": "Boston",
    "state_alpha": "MA",
    "county_name": "Suffolk",
    "county_numeric": "025",
    "prim_lat_dec": "42.3584308",
    "prim_long_dec": "-71.0597732",
    "elev_in_m": "14",
    "elev_in_ft": "46",
    "lat": 42.3584308,
    "long": -71.0597732
  },
  {
    "globaleventid": 268306291,
    "sqldate": 20130918,
    "monthyear": 201309,
    "year": 2013,
    "fractiondate": "2013.7068",
    "eventcode": 193,
    "quadclass": 4,
    "nummentions": 25,
    "numsources": 6,
    "numarticles": 25,
    "avgtone": "1.26335913575734",
    "sourceurl": "http://www.globalpost.com/dispatch/news/thomson-reuters/130918/idaho-man-who-fired-eight-shots-at-white-house-pleads-guilty",
    "feature_id": "531871",
    "feature_name": "Washington",
    "state_alpha": "DC",
    "county_name": "District of Columbia",
    "county_numeric": "001",
    "prim_lat_dec": "38.8951118",
    "prim_long_dec": "-77.0363658",
    "elev_in_m": "7",
    "elev_in_ft": "23",
    "lat": 38.8951118,
    "long": -77.0363658
  },
  {
    "globaleventid": 268306290,
    "sqldate": 20130918,
    "monthyear": 201309,
    "year": 2013,
    "fractiondate": "2013.7068",
    "eventcode": 193,
    "quadclass": 4,
    "nummentions": 2,
    "numsources": 1,
    "numarticles": 2,
    "avgtone": "1.69491525423729",
    "sourceurl": "http://www.boston.com/2013/09/18/obama-attend-navy-yard-shooting-memorial-sunday/ktnK5XOOfvxJ1RdORBkBpI/story.html?rss_id=Top+Stories",
    "feature_id": "617565",
    "feature_name": "Boston",
    "state_alpha": "MA",
    "county_name": "Suffolk",
    "county_numeric": "025",
    "prim_lat_dec": "42.3584308",
    "prim_long_dec": "-71.0597732",
    "elev_in_m": "14",
    "elev_in_ft": "46",
    "lat": 42.3584308,
    "long": -71.0597732
  },
  {
    "globaleventid": 268306288,
    "sqldate": 20130918,
    "monthyear": 201309,
    "year": 2013,
    "fractiondate": "2013.7068",
    "eventcode": 193,
    "quadclass": 4,
    "nummentions": 115,
    "numsources": 17,
    "numarticles": 115,
    "avgtone": "0.894379389916611",
    "sourceurl": "http://www.texasguardian.com/index.php/sid/217163568/scat/42acbe017a594c30",
    "feature_id": "531871",
    "feature_name": "Washington",
    "state_alpha": "DC",
    "county_name": "District of Columbia",
    "county_numeric": "001",
    "prim_lat_dec": "38.8951118",
    "prim_long_dec": "-77.0363658",
    "elev_in_m": "7",
    "elev_in_ft": "23",
    "lat": 38.8951118,
    "long": -77.0363658
  },
  {
    "globaleventid": 268306286,
    "sqldate": 20130918,
    "monthyear": 201309,
    "year": 2013,
    "fractiondate": "2013.7068",
    "eventcode": 193,
    "quadclass": 4,
    "nummentions": 2,
    "numsources": 1,
    "numarticles": 2,
    "avgtone": "0.81008100810081",
    "sourceurl": "http://oneidadispatch.com/articles/2013/09/18/news/doc52374eb201826126152690.txt",
    "feature_id": "531871",
    "feature_name": "Washington",
    "state_alpha": "DC",
    "county_name": "District of Columbia",
    "county_numeric": "001",
    "prim_lat_dec": "38.8951118",
    "prim_long_dec": "-77.0363658",
    "elev_in_m": "7",
    "elev_in_ft": "23",
    "lat": 38.8951118,
    "long": -77.0363658
  },
  {
    "globaleventid": 268306284,
    "sqldate": 20130918,
    "monthyear": 201309,
    "year": 2013,
    "fractiondate": "2013.7068",
    "eventcode": 193,
    "quadclass": 4,
    "nummentions": 2,
    "numsources": 1,
    "numarticles": 2,
    "avgtone": "1.32450331125828",
    "sourceurl": "http://www.kltv.com/story/23466088/obama-to-attend-navy-yard-shooting-memorial-sunday",
    "feature_id": "1374716",
    "feature_name": "Longview",
    "state_alpha": "TX",
    "county_name": "Gregg",
    "county_numeric": "183",
    "prim_lat_dec": "32.5007038",
    "prim_long_dec": "-94.7404891",
    "elev_in_m": "113",
    "elev_in_ft": "371",
    "lat": 32.5007038,
    "long": -94.7404891
  },
  {
    "globaleventid": 268306282,
    "sqldate": 20130918,
    "monthyear": 201309,
    "year": 2013,
    "fractiondate": "2013.7068",
    "eventcode": 193,
    "quadclass": 4,
    "nummentions": 1,
    "numsources": 1,
    "numarticles": 1,
    "avgtone": "0.574712643678161",
    "sourceurl": "http://www.phoenixherald.com/index.php/sid/217167994/scat/caf48823f1822eb3",
    "feature_id": "44784",
    "feature_name": "Phoenix",
    "state_alpha": "AZ",
    "county_name": "Maricopa",
    "county_numeric": "013",
    "prim_lat_dec": "33.4483771",
    "prim_long_dec": "-112.0740373",
    "elev_in_m": "331",
    "elev_in_ft": "1086",
    "lat": 33.4483771,
    "long": -112.0740373
  },
  {
    "globaleventid": 268306280,
    "sqldate": 20130918,
    "monthyear": 201309,
    "year": 2013,
    "fractiondate": "2013.7068",
    "eventcode": 193,
    "quadclass": 4,
    "nummentions": 3,
    "numsources": 1,
    "numarticles": 3,
    "avgtone": "2.25303292894281",
    "sourceurl": "http://usnews.nbcnews.com/_news/2013/09/17/20547441-obama-orders-security-review-after-dc-shooting-defense-department-report",
    "feature_id": "1497660",
    "feature_name": "Indian",
    "state_alpha": "VA",
    "county_name": "Tazewell",
    "county_numeric": "185",
    "prim_lat_dec": "37.0876141",
    "prim_long_dec": "-81.7581697",
    "elev_in_m": "596",
    "elev_in_ft": "1955",
    "lat": 37.0876141,
    "long": -81.7581697
  },
  {
    "globaleventid": 268306279,
    "sqldate": 20130918,
    "monthyear": 201309,
    "year": 2013,
    "fractiondate": "2013.7068",
    "eventcode": 193,
    "quadclass": 4,
    "nummentions": 1,
    "numsources": 1,
    "numarticles": 1,
    "avgtone": "1.32450331125828",
    "sourceurl": "http://www.kltv.com/story/23466088/obama-to-attend-navy-yard-shooting-memorial-sunday",
    "feature_id": "1374716",
    "feature_name": "Longview",
    "state_alpha": "TX",
    "county_name": "Gregg",
    "county_numeric": "183",
    "prim_lat_dec": "32.5007038",
    "prim_long_dec": "-94.7404891",
    "elev_in_m": "113",
    "elev_in_ft": "371",
    "lat": 32.5007038,
    "long": -94.7404891
  },
  {
    "globaleventid": 268306278,
    "sqldate": 20130918,
    "monthyear": 201309,
    "year": 2013,
    "fractiondate": "2013.7068",
    "eventcode": 193,
    "quadclass": 4,
    "nummentions": 5,
    "numsources": 1,
    "numarticles": 5,
    "avgtone": "1.32450331125828",
    "sourceurl": "http://www.kltv.com/story/23466088/obama-to-attend-navy-yard-shooting-memorial-sunday",
    "feature_id": "1374716",
    "feature_name": "Longview",
    "state_alpha": "TX",
    "county_name": "Gregg",
    "county_numeric": "183",
    "prim_lat_dec": "32.5007038",
    "prim_long_dec": "-94.7404891",
    "elev_in_m": "113",
    "elev_in_ft": "371",
    "lat": 32.5007038,
    "long": -94.7404891
  },
  {
    "globaleventid": 268306263,
    "sqldate": 20130918,
    "monthyear": 201309,
    "year": 2013,
    "fractiondate": "2013.7068",
    "eventcode": 190,
    "quadclass": 4,
    "nummentions": 1,
    "numsources": 1,
    "numarticles": 1,
    "avgtone": "0.240963855421687",
    "sourceurl": "http://www.nhregister.com/general-news/20130918/ginos-steakhouse-in-west-haven-a-total-loss-after-3-alarm-fire",
    "feature_id": "617565",
    "feature_name": "Boston",
    "state_alpha": "MA",
    "county_name": "Suffolk",
    "county_numeric": "025",
    "prim_lat_dec": "42.3584308",
    "prim_long_dec": "-71.0597732",
    "elev_in_m": "14",
    "elev_in_ft": "46",
    "lat": 42.3584308,
    "long": -71.0597732
  },
  {
    "globaleventid": 268306262,
    "sqldate": 20130918,
    "monthyear": 201309,
    "year": 2013,
    "fractiondate": "2013.7068",
    "eventcode": 190,
    "quadclass": 4,
    "nummentions": 6,
    "numsources": 1,
    "numarticles": 6,
    "avgtone": "2.70491803278689",
    "sourceurl": "http://www.washingtonpost.com/blogs/plum-line/wp/2013/09/18/the-morning-plum-are-dems-turning-on-obama-yes-does-it-matter-not-much/",
    "feature_id": "531871",
    "feature_name": "Washington",
    "state_alpha": "DC",
    "county_name": "District of Columbia",
    "county_numeric": "001",
    "prim_lat_dec": "38.8951118",
    "prim_long_dec": "-77.0363658",
    "elev_in_m": "7",
    "elev_in_ft": "23",
    "lat": 38.8951118,
    "long": -77.0363658
  },
  {
    "globaleventid": 268306261,
    "sqldate": 20130918,
    "monthyear": 201309,
    "year": 2013,
    "fractiondate": "2013.7068",
    "eventcode": 190,
    "quadclass": 4,
    "nummentions": 33,
    "numsources": 6,
    "numarticles": 33,
    "avgtone": "2.79370196240891",
    "sourceurl": "http://www.scsun-news.com/ci_24089882.html",
    "feature_id": "531871",
    "feature_name": "Washington",
    "state_alpha": "DC",
    "county_name": "District of Columbia",
    "county_numeric": "001",
    "prim_lat_dec": "38.8951118",
    "prim_long_dec": "-77.0363658",
    "elev_in_m": "7",
    "elev_in_ft": "23",
    "lat": 38.8951118,
    "long": -77.0363658
  },
  {
    "globaleventid": 268306260,
    "sqldate": 20130918,
    "monthyear": 201309,
    "year": 2013,
    "fractiondate": "2013.7068",
    "eventcode": 190,
    "quadclass": 4,
    "nummentions": 2,
    "numsources": 1,
    "numarticles": 2,
    "avgtone": "1.76056338028169",
    "sourceurl": "http://www.reedleyexponent.com/articles/2013/09/18/news/doc5231f0303e383985290256.txt",
    "feature_id": "1659495",
    "feature_name": "Reedley",
    "state_alpha": "CA",
    "county_name": "Fresno",
    "county_numeric": "019",
    "prim_lat_dec": "36.5963395",
    "prim_long_dec": "-119.4504029",
    "elev_in_m": "106",
    "elev_in_ft": "348",
    "lat": 36.5963395,
    "long": -119.4504029
  },
  {
    "globaleventid": 268306259,
    "sqldate": 20130918,
    "monthyear": 201309,
    "year": 2013,
    "fractiondate": "2013.7068",
    "eventcode": 190,
    "quadclass": 4,
    "nummentions": 8,
    "numsources": 1,
    "numarticles": 8,
    "avgtone": "0.613496932515337",
    "sourceurl": "http://www.oklahomastar.com/index.php/sid/217153873/scat/84aeba5e9b6e1230",
    "feature_id": "1100962",
    "feature_name": "Tulsa",
    "state_alpha": "OK",
    "county_name": "Tulsa",
    "county_numeric": "143",
    "prim_lat_dec": "36.1539816",
    "prim_long_dec": "-95.992775",
    "elev_in_m": "220",
    "elev_in_ft": "722",
    "lat": 36.1539816,
    "long": -95.992775
  },
  {
    "globaleventid": 268306258,
    "sqldate": 20130918,
    "monthyear": 201309,
    "year": 2013,
    "fractiondate": "2013.7068",
    "eventcode": 180,
    "quadclass": 4,
    "nummentions": 5,
    "numsources": 1,
    "numarticles": 5,
    "avgtone": "1.43240823634736",
    "sourceurl": "http://communities.washingtontimes.com/neighborhood/its-all-smoke-and-whiskey/2013/sep/18/president-obama-attacks-second-amendment-while-arm/",
    "feature_id": "531871",
    "feature_name": "Washington",
    "state_alpha": "DC",
    "county_name": "District of Columbia",
    "county_numeric": "001",
    "prim_lat_dec": "38.8951118",
    "prim_long_dec": "-77.0363658",
    "elev_in_m": "7",
    "elev_in_ft": "23",
    "lat": 38.8951118,
    "long": -77.0363658
  },
  {
    "globaleventid": 268306252,
    "sqldate": 20130918,
    "monthyear": 201309,
    "year": 2013,
    "fractiondate": "2013.7068",
    "eventcode": 173,
    "quadclass": 4,
    "nummentions": 5,
    "numsources": 4,
    "numarticles": 5,
    "avgtone": "1.4854064881651",
    "sourceurl": "http://www.rediff.com/news/report/white-house-shooter-pleads-guilty-faces-27-years-in-prison/20130919.htm",
    "feature_id": "531871",
    "feature_name": "Washington",
    "state_alpha": "DC",
    "county_name": "District of Columbia",
    "county_numeric": "001",
    "prim_lat_dec": "38.8951118",
    "prim_long_dec": "-77.0363658",
    "elev_in_m": "7",
    "elev_in_ft": "23",
    "lat": 38.8951118,
    "long": -77.0363658
  },
  {
    "globaleventid": 268306249,
    "sqldate": 20130918,
    "monthyear": 201309,
    "year": 2013,
    "fractiondate": "2013.7068",
    "eventcode": 173,
    "quadclass": 4,
    "nummentions": 1,
    "numsources": 1,
    "numarticles": 1,
    "avgtone": "1.64473684210526",
    "sourceurl": "http://www.reuters.com/article/2013/09/18/us-usa-security-whitehouse-idUSBRE98H0T320130918?feedType=RSS&feedName=domesticNews",
    "feature_id": "531871",
    "feature_name": "Washington",
    "state_alpha": "DC",
    "county_name": "District of Columbia",
    "county_numeric": "001",
    "prim_lat_dec": "38.8951118",
    "prim_long_dec": "-77.0363658",
    "elev_in_m": "7",
    "elev_in_ft": "23",
    "lat": 38.8951118,
    "long": -77.0363658
  },
  {
    "globaleventid": 268306246,
    "sqldate": 20130918,
    "monthyear": 201309,
    "year": 2013,
    "fractiondate": "2013.7068",
    "eventcode": 173,
    "quadclass": 4,
    "nummentions": 2,
    "numsources": 2,
    "numarticles": 2,
    "avgtone": "1.55245822622108",
    "sourceurl": "http://www.lowellsun.com/local/ci_24126461/plea-agreement-rejected-tyngsboro-armed-robbery-suspect",
    "feature_id": "611510",
    "feature_name": "Tyngsboro",
    "state_alpha": "MA",
    "county_name": "Middlesex",
    "county_numeric": "017",
    "prim_lat_dec": "42.6767568",
    "prim_long_dec": "-71.4245085",
    "elev_in_m": "42",
    "elev_in_ft": "138",
    "lat": 42.6767568,
    "long": -71.4245085
  },
  {
    "globaleventid": 268306242,
    "sqldate": 20130918,
    "monthyear": 201309,
    "year": 2013,
    "fractiondate": "2013.7068",
    "eventcode": 173,
    "quadclass": 4,
    "nummentions": 13,
    "numsources": 5,
    "numarticles": 13,
    "avgtone": "1.58377939907121",
    "sourceurl": "http://www.globalpost.com/dispatch/news/thomson-reuters/130918/idaho-man-who-fired-eight-shots-at-white-house-pleads-guilty",
    "feature_id": "531871",
    "feature_name": "Washington",
    "state_alpha": "DC",
    "county_name": "District of Columbia",
    "county_numeric": "001",
    "prim_lat_dec": "38.8951118",
    "prim_long_dec": "-77.0363658",
    "elev_in_m": "7",
    "elev_in_ft": "23",
    "lat": 38.8951118,
    "long": -77.0363658
  },
  {
    "globaleventid": 268306235,
    "sqldate": 20130918,
    "monthyear": 201309,
    "year": 2013,
    "fractiondate": "2013.7068",
    "eventcode": 172,
    "quadclass": 4,
    "nummentions": 8,
    "numsources": 1,
    "numarticles": 8,
    "avgtone": "0.0",
    "sourceurl": "http://www.katc.com/news/dequincy-mayor-responds-to-fake-twerking-ban/",
    "feature_id": "554198",
    "feature_name": "DeQuincy",
    "state_alpha": "LA",
    "county_name": "Calcasieu",
    "county_numeric": "019",
    "prim_lat_dec": "30.4504779",
    "prim_long_dec": "-93.4332189",
    "elev_in_m": "24",
    "elev_in_ft": "79",
    "lat": 30.4504779,
    "long": -93.4332189
  },
  {
    "globaleventid": 268306234,
    "sqldate": 20130918,
    "monthyear": 201309,
    "year": 2013,
    "fractiondate": "2013.7068",
    "eventcode": 1712,
    "quadclass": 4,
    "nummentions": 4,
    "numsources": 1,
    "numarticles": 4,
    "avgtone": "4.35897435897436",
    "sourceurl": "http://www.prweb.com/releases/2013/9/prweb11124520.htm",
    "feature_id": "1662328",
    "feature_name": "Los Angeles",
    "state_alpha": "CA",
    "county_name": "Los Angeles",
    "county_numeric": "037",
    "prim_lat_dec": "34.0522342",
    "prim_long_dec": "-118.2436849",
    "elev_in_m": "89",
    "elev_in_ft": "292",
    "lat": 34.0522342,
    "long": -118.2436849
  },
  {
    "globaleventid": 268306232,
    "sqldate": 20130918,
    "monthyear": 201309,
    "year": 2013,
    "fractiondate": "2013.7068",
    "eventcode": 164,
    "quadclass": 4,
    "nummentions": 2,
    "numsources": 1,
    "numarticles": 2,
    "avgtone": "1.6260162601626",
    "sourceurl": "http://www.dnaindia.com/world/1890637/report-white-house-confirms-brazilian-president-s-cancellation-of-visit-to-us-over-spying-issue",
    "feature_id": "531871",
    "feature_name": "Washington",
    "state_alpha": "DC",
    "county_name": "District of Columbia",
    "county_numeric": "001",
    "prim_lat_dec": "38.8951118",
    "prim_long_dec": "-77.0363658",
    "elev_in_m": "7",
    "elev_in_ft": "23",
    "lat": 38.8951118,
    "long": -77.0363658
  },
  {
    "globaleventid": 268306228,
    "sqldate": 20130918,
    "monthyear": 201309,
    "year": 2013,
    "fractiondate": "2013.7068",
    "eventcode": 161,
    "quadclass": 4,
    "nummentions": 2,
    "numsources": 1,
    "numarticles": 2,
    "avgtone": "1.77514792899408",
    "sourceurl": "http://www.truthdig.com/eartotheground/item/brazil_cancels_state_visit_over_nsa_spying_20130917/?ln",
    "feature_id": "531871",
    "feature_name": "Washington",
    "state_alpha": "DC",
    "county_name": "District of Columbia",
    "county_numeric": "001",
    "prim_lat_dec": "38.8951118",
    "prim_long_dec": "-77.0363658",
    "elev_in_m": "7",
    "elev_in_ft": "23",
    "lat": 38.8951118,
    "long": -77.0363658
  },
  {
    "globaleventid": 268306227,
    "sqldate": 20130918,
    "monthyear": 201309,
    "year": 2013,
    "fractiondate": "2013.7068",
    "eventcode": 154,
    "quadclass": 4,
    "nummentions": 5,
    "numsources": 1,
    "numarticles": 5,
    "avgtone": "2.10454854039375",
    "sourceurl": "http://windowintopalestine.blogspot.com/2013/09/obama-with-israel-and-against-world.html?utm_source=feedburner&utm_medium=feed&utm_campaign=Feed%3A+blogspot%2FLkRU+%28Window+Into+Palestine%29",
    "feature_id": "531871",
    "feature_name": "Washington",
    "state_alpha": "DC",
    "county_name": "District of Columbia",
    "county_numeric": "001",
    "prim_lat_dec": "38.8951118",
    "prim_long_dec": "-77.0363658",
    "elev_in_m": "7",
    "elev_in_ft": "23",
    "lat": 38.8951118,
    "long": -77.0363658
  },
  {
    "globaleventid": 268306224,
    "sqldate": 20130918,
    "monthyear": 201309,
    "year": 2013,
    "fractiondate": "2013.7068",
    "eventcode": 141,
    "quadclass": 3,
    "nummentions": 4,
    "numsources": 1,
    "numarticles": 2,
    "avgtone": "2.54022015241321",
    "sourceurl": "http://www.pjstar.com/opinion/columns/x1343098565/Will-From-Bay-of-Pigs-to-Syria-U-S-cant-get-it-right",
    "feature_id": "531871",
    "feature_name": "Washington",
    "state_alpha": "DC",
    "county_name": "District of Columbia",
    "county_numeric": "001",
    "prim_lat_dec": "38.8951118",
    "prim_long_dec": "-77.0363658",
    "elev_in_m": "7",
    "elev_in_ft": "23",
    "lat": 38.8951118,
    "long": -77.0363658
  },
  {
    "globaleventid": 268306221,
    "sqldate": 20130918,
    "monthyear": 201309,
    "year": 2013,
    "fractiondate": "2013.7068",
    "eventcode": 138,
    "quadclass": 3,
    "nummentions": 8,
    "numsources": 2,
    "numarticles": 8,
    "avgtone": "1.7333087522362",
    "sourceurl": "http://www.reuters.com/article/2013/09/18/usa-economy-obama-idUSL2N0HE0Z020130918?feedType=RSS&feedName=bondsNews",
    "feature_id": "531871",
    "feature_name": "Washington",
    "state_alpha": "DC",
    "county_name": "District of Columbia",
    "county_numeric": "001",
    "prim_lat_dec": "38.8951118",
    "prim_long_dec": "-77.0363658",
    "elev_in_m": "7",
    "elev_in_ft": "23",
    "lat": 38.8951118,
    "long": -77.0363658
  },
  {
    "globaleventid": 268306220,
    "sqldate": 20130918,
    "monthyear": 201309,
    "year": 2013,
    "fractiondate": "2013.7068",
    "eventcode": 134,
    "quadclass": 3,
    "nummentions": 4,
    "numsources": 1,
    "numarticles": 4,
    "avgtone": "2.29591836734694",
    "sourceurl": "http://www.politico.com/story/2013/09/house-gop-debt-limit-increase-96982.html",
    "feature_id": "531871",
    "feature_name": "Washington",
    "state_alpha": "DC",
    "county_name": "District of Columbia",
    "county_numeric": "001",
    "prim_lat_dec": "38.8951118",
    "prim_long_dec": "-77.0363658",
    "elev_in_m": "7",
    "elev_in_ft": "23",
    "lat": 38.8951118,
    "long": -77.0363658
  },
  {
    "globaleventid": 268306218,
    "sqldate": 20130918,
    "monthyear": 201309,
    "year": 2013,
    "fractiondate": "2013.7068",
    "eventcode": 131,
    "quadclass": 3,
    "nummentions": 12,
    "numsources": 3,
    "numarticles": 12,
    "avgtone": "2.17345302799196",
    "sourceurl": "http://www.reuters.com/article/2013/09/18/usa-obama-food-idUSL2N0HE2LL20130918?feedType=RSS&feedName=marketsNews",
    "feature_id": "531871",
    "feature_name": "Washington",
    "state_alpha": "DC",
    "county_name": "District of Columbia",
    "county_numeric": "001",
    "prim_lat_dec": "38.8951118",
    "prim_long_dec": "-77.0363658",
    "elev_in_m": "7",
    "elev_in_ft": "23",
    "lat": 38.8951118,
    "long": -77.0363658
  },
  {
    "globaleventid": 268306217,
    "sqldate": 20130918,
    "monthyear": 201309,
    "year": 2013,
    "fractiondate": "2013.7068",
    "eventcode": 131,
    "quadclass": 3,
    "nummentions": 2,
    "numsources": 1,
    "numarticles": 2,
    "avgtone": "2.80898876404494",
    "sourceurl": "http://portlandtribune.com/sl/195188-obama-threatens-to-veto-bill-to-spur-logging-of-oregons-o-and-c-timber-lands-",
    "feature_id": "1136388",
    "feature_name": "Hood River",
    "state_alpha": "OR",
    "county_name": "Hood River",
    "county_numeric": "027",
    "prim_lat_dec": "45.7053966",
    "prim_long_dec": "-121.5214623",
    "elev_in_m": "126",
    "elev_in_ft": "413",
    "lat": 45.7053966,
    "long": -121.5214623
  },
  {
    "globaleventid": 268306216,
    "sqldate": 20130918,
    "monthyear": 201309,
    "year": 2013,
    "fractiondate": "2013.7068",
    "eventcode": 131,
    "quadclass": 3,
    "nummentions": 8,
    "numsources": 1,
    "numarticles": 8,
    "avgtone": "2.80898876404494",
    "sourceurl": "http://portlandtribune.com/sl/195188-obama-threatens-to-veto-bill-to-spur-logging-of-oregons-o-and-c-timber-lands-",
    "feature_id": "1136388",
    "feature_name": "Hood River",
    "state_alpha": "OR",
    "county_name": "Hood River",
    "county_numeric": "027",
    "prim_lat_dec": "45.7053966",
    "prim_long_dec": "-121.5214623",
    "elev_in_m": "126",
    "elev_in_ft": "413",
    "lat": 45.7053966,
    "long": -121.5214623
  },
  {
    "globaleventid": 268306213,
    "sqldate": 20130918,
    "monthyear": 201309,
    "year": 2013,
    "fractiondate": "2013.7068",
    "eventcode": 130,
    "quadclass": 3,
    "nummentions": 26,
    "numsources": 4,
    "numarticles": 26,
    "avgtone": "0.95147402777785",
    "sourceurl": "http://www.cbc.ca/news/business/obama-warns-that-locked-up-washington-could-hurt-economy-1.1858865",
    "feature_id": "531871",
    "feature_name": "Washington",
    "state_alpha": "DC",
    "county_name": "District of Columbia",
    "county_numeric": "001",
    "prim_lat_dec": "38.8951118",
    "prim_long_dec": "-77.0363658",
    "elev_in_m": "7",
    "elev_in_ft": "23",
    "lat": 38.8951118,
    "long": -77.0363658
  },
  {
    "globaleventid": 268306212,
    "sqldate": 20130918,
    "monthyear": 201309,
    "year": 2013,
    "fractiondate": "2013.7068",
    "eventcode": 130,
    "quadclass": 3,
    "nummentions": 8,
    "numsources": 1,
    "numarticles": 4,
    "avgtone": "0.467836257309942",
    "sourceurl": "http://www.newbernsj.com/opinion/editorials/editorial-don-t-make-issue-of-publicity-stunt-1.204418",
    "feature_id": "282874",
    "feature_name": "Gainesville",
    "state_alpha": "FL",
    "county_name": "Alachua",
    "county_numeric": "001",
    "prim_lat_dec": "29.6516344",
    "prim_long_dec": "-82.3248262",
    "elev_in_m": "54",
    "elev_in_ft": "177",
    "lat": 29.6516344,
    "long": -82.3248262
  },
  {
    "globaleventid": 268306209,
    "sqldate": 20130918,
    "monthyear": 201309,
    "year": 2013,
    "fractiondate": "2013.7068",
    "eventcode": 130,
    "quadclass": 3,
    "nummentions": 3,
    "numsources": 1,
    "numarticles": 3,
    "avgtone": "3.71660859465738",
    "sourceurl": "http://smmercury.com/2013/09/18/bartee-haile-san-antonio-a-hotbed-of-mexican-exile-intrigue/",
    "feature_id": "1336252",
    "feature_name": "Friendswood",
    "state_alpha": "TX",
    "county_name": "Galveston",
    "county_numeric": "167",
    "prim_lat_dec": "29.5293998",
    "prim_long_dec": "-95.2010447",
    "elev_in_m": "9",
    "elev_in_ft": "30",
    "lat": 29.5293998,
    "long": -95.2010447
  },
  {
    "globaleventid": 268306207,
    "sqldate": 20130918,
    "monthyear": 201309,
    "year": 2013,
    "fractiondate": "2013.7068",
    "eventcode": 129,
    "quadclass": 3,
    "nummentions": 12,
    "numsources": 3,
    "numarticles": 12,
    "avgtone": "2.17345302799196",
    "sourceurl": "http://www.reuters.com/article/2013/09/18/usa-obama-food-idUSL2N0HE2LL20130918?feedType=RSS&feedName=marketsNews",
    "feature_id": "531871",
    "feature_name": "Washington",
    "state_alpha": "DC",
    "county_name": "District of Columbia",
    "county_numeric": "001",
    "prim_lat_dec": "38.8951118",
    "prim_long_dec": "-77.0363658",
    "elev_in_m": "7",
    "elev_in_ft": "23",
    "lat": 38.8951118,
    "long": -77.0363658
  },
  {
    "globaleventid": 268306206,
    "sqldate": 20130918,
    "monthyear": 201309,
    "year": 2013,
    "fractiondate": "2013.7068",
    "eventcode": 129,
    "quadclass": 3,
    "nummentions": 10,
    "numsources": 1,
    "numarticles": 10,
    "avgtone": "2.71041369472183",
    "sourceurl": "http://www.katu.com/politics/Obama-administration-threatens-veto-on-OC-bill-224315441.html",
    "feature_id": "1136645",
    "feature_name": "Portland",
    "state_alpha": "OR",
    "county_name": "Multnomah",
    "county_numeric": "051",
    "prim_lat_dec": "45.5234515",
    "prim_long_dec": "-122.6762071",
    "elev_in_m": "10",
    "elev_in_ft": "33",
    "lat": 45.5234515,
    "long": -122.6762071
  },
  {
    "globaleventid": 268306199,
    "sqldate": 20130918,
    "monthyear": 201309,
    "year": 2013,
    "fractiondate": "2013.7068",
    "eventcode": 120,
    "quadclass": 3,
    "nummentions": 1,
    "numsources": 1,
    "numarticles": 1,
    "avgtone": "0.340136054421769",
    "sourceurl": "http://www.hngn.com/articles/12708/20130918/oscar-ramiro-ortega-hernandez-oscar-ramiro-ortega-hernandez-sentenced-oscar-ramiro-ortega-hernandez-obama.htm",
    "feature_id": "531871",
    "feature_name": "Washington",
    "state_alpha": "DC",
    "county_name": "District of Columbia",
    "county_numeric": "001",
    "prim_lat_dec": "38.8951118",
    "prim_long_dec": "-77.0363658",
    "elev_in_m": "7",
    "elev_in_ft": "23",
    "lat": 38.8951118,
    "long": -77.0363658
  },
  {
    "globaleventid": 268306198,
    "sqldate": 20130918,
    "monthyear": 201309,
    "year": 2013,
    "fractiondate": "2013.7068",
    "eventcode": 120,
    "quadclass": 3,
    "nummentions": 2,
    "numsources": 1,
    "numarticles": 2,
    "avgtone": "0.340136054421769",
    "sourceurl": "http://www.hngn.com/articles/12708/20130918/oscar-ramiro-ortega-hernandez-oscar-ramiro-ortega-hernandez-sentenced-oscar-ramiro-ortega-hernandez-obama.htm",
    "feature_id": "531871",
    "feature_name": "Washington",
    "state_alpha": "DC",
    "county_name": "District of Columbia",
    "county_numeric": "001",
    "prim_lat_dec": "38.8951118",
    "prim_long_dec": "-77.0363658",
    "elev_in_m": "7",
    "elev_in_ft": "23",
    "lat": 38.8951118,
    "long": -77.0363658
  },
  {
    "globaleventid": 268306196,
    "sqldate": 20130918,
    "monthyear": 201309,
    "year": 2013,
    "fractiondate": "2013.7068",
    "eventcode": 120,
    "quadclass": 3,
    "nummentions": 186,
    "numsources": 31,
    "numarticles": 186,
    "avgtone": "1.8491888015128",
    "sourceurl": "http://www.wtop.com/628/3456064/Obama-Locked-up-Washington-could-hurt-economy",
    "feature_id": "531871",
    "feature_name": "Washington",
    "state_alpha": "DC",
    "county_name": "District of Columbia",
    "county_numeric": "001",
    "prim_lat_dec": "38.8951118",
    "prim_long_dec": "-77.0363658",
    "elev_in_m": "7",
    "elev_in_ft": "23",
    "lat": 38.8951118,
    "long": -77.0363658
  },
  {
    "globaleventid": 268306194,
    "sqldate": 20130918,
    "monthyear": 201309,
    "year": 2013,
    "fractiondate": "2013.7068",
    "eventcode": 115,
    "quadclass": 3,
    "nummentions": 6,
    "numsources": 1,
    "numarticles": 6,
    "avgtone": "3.37620578778135",
    "sourceurl": "http://washington.cbslocal.com/2013/09/18/mcauliffe-cuccinelli-address-higher-ed-business/",
    "feature_id": "531871",
    "feature_name": "Washington",
    "state_alpha": "DC",
    "county_name": "District of Columbia",
    "county_numeric": "001",
    "prim_lat_dec": "38.8951118",
    "prim_long_dec": "-77.0363658",
    "elev_in_m": "7",
    "elev_in_ft": "23",
    "lat": 38.8951118,
    "long": -77.0363658
  },
  {
    "globaleventid": 268306192,
    "sqldate": 20130918,
    "monthyear": 201309,
    "year": 2013,
    "fractiondate": "2013.7068",
    "eventcode": 114,
    "quadclass": 3,
    "nummentions": 8,
    "numsources": 1,
    "numarticles": 8,
    "avgtone": "0.515463917525773",
    "sourceurl": "http://gantdaily.com/2013/09/18/obama-rousseff-meeting-cancelled-amid-spying-controversy/",
    "feature_id": "531871",
    "feature_name": "Washington",
    "state_alpha": "DC",
    "county_name": "District of Columbia",
    "county_numeric": "001",
    "prim_lat_dec": "38.8951118",
    "prim_long_dec": "-77.0363658",
    "elev_in_m": "7",
    "elev_in_ft": "23",
    "lat": 38.8951118,
    "long": -77.0363658
  },
  {
    "globaleventid": 268306183,
    "sqldate": 20130918,
    "monthyear": 201309,
    "year": 2013,
    "fractiondate": "2013.7068",
    "eventcode": 112,
    "quadclass": 3,
    "nummentions": 4,
    "numsources": 1,
    "numarticles": 4,
    "avgtone": "2.77777777777778",
    "sourceurl": "http://articles.baltimoresun.com/2013-09-17/news/bal-nine-baltimore-store-owners-charged-in-7-million-food-stamp-fraud-20130917_1_food-stamp-store-owners-west-baltimore",
    "feature_id": "598234",
    "feature_name": "West Baltimore",
    "state_alpha": "MD",
    "county_name": "Baltimore (city)",
    "county_numeric": "510",
    "prim_lat_dec": "39.2559403",
    "prim_long_dec": "-76.6588575",
    "elev_in_m": "26",
    "elev_in_ft": "85",
    "lat": 39.2559403,
    "long": -76.6588575
  },
  {
    "globaleventid": 268306182,
    "sqldate": 20130918,
    "monthyear": 201309,
    "year": 2013,
    "fractiondate": "2013.7068",
    "eventcode": 112,
    "quadclass": 3,
    "nummentions": 574,
    "numsources": 34,
    "numarticles": 574,
    "avgtone": "1.91282994398408",
    "sourceurl": "http://www.reuters.com/article/2013/09/19/usa-fiscal-idUSL2N0HE2WQ20130919?feedType=RSS&feedName=rbssEnergyNews",
    "feature_id": "531871",
    "feature_name": "Washington",
    "state_alpha": "DC",
    "county_name": "District of Columbia",
    "county_numeric": "001",
    "prim_lat_dec": "38.8951118",
    "prim_long_dec": "-77.0363658",
    "elev_in_m": "7",
    "elev_in_ft": "23",
    "lat": 38.8951118,
    "long": -77.0363658
  },
  {
    "globaleventid": 268306181,
    "sqldate": 20130918,
    "monthyear": 201309,
    "year": 2013,
    "fractiondate": "2013.7068",
    "eventcode": 112,
    "quadclass": 3,
    "nummentions": 2,
    "numsources": 1,
    "numarticles": 2,
    "avgtone": "2.54886630179828",
    "sourceurl": "http://www.610kvnu.com/politics/54ee88e9c5081caa6e4042e5db774734&c=pbBFmpUARh5qMP7JoAe8-hXbuOVwgr96zQ-D35uo8Wg&mkt=en-us",
    "feature_id": "531871",
    "feature_name": "Washington",
    "state_alpha": "DC",
    "county_name": "District of Columbia",
    "county_numeric": "001",
    "prim_lat_dec": "38.8951118",
    "prim_long_dec": "-77.0363658",
    "elev_in_m": "7",
    "elev_in_ft": "23",
    "lat": 38.8951118,
    "long": -77.0363658
  },
  {
    "globaleventid": 268306180,
    "sqldate": 20130918,
    "monthyear": 201309,
    "year": 2013,
    "fractiondate": "2013.7068",
    "eventcode": 112,
    "quadclass": 3,
    "nummentions": 2,
    "numsources": 1,
    "numarticles": 2,
    "avgtone": "2.54886630179828",
    "sourceurl": "http://www.610kvnu.com/politics/54ee88e9c5081caa6e4042e5db774734&c=pbBFmpUARh5qMP7JoAe8-hXbuOVwgr96zQ-D35uo8Wg&mkt=en-us",
    "feature_id": "529313",
    "feature_name": "Capitol Hill",
    "state_alpha": "DC",
    "county_name": "District of Columbia",
    "county_numeric": "001",
    "prim_lat_dec": "38.8890009",
    "prim_long_dec": "-77.0002537",
    "elev_in_m": "28",
    "elev_in_ft": "92",
    "lat": 38.8890009,
    "long": -77.0002537
  },
  {
    "globaleventid": 268306178,
    "sqldate": 20130918,
    "monthyear": 201309,
    "year": 2013,
    "fractiondate": "2013.7068",
    "eventcode": 112,
    "quadclass": 3,
    "nummentions": 2,
    "numsources": 1,
    "numarticles": 2,
    "avgtone": "0.0",
    "sourceurl": "http://daily-journal.com/archives/dj/display.php?id=512084",
    "feature_id": "415733",
    "feature_name": "Piper City",
    "state_alpha": "IL",
    "county_name": "Ford",
    "county_numeric": "053",
    "prim_lat_dec": "40.756702",
    "prim_long_dec": "-88.191158",
    "elev_in_m": "205",
    "elev_in_ft": "673",
    "lat": 40.756702,
    "long": -88.191158
  },
  {
    "globaleventid": 268306177,
    "sqldate": 20130918,
    "monthyear": 201309,
    "year": 2013,
    "fractiondate": "2013.7068",
    "eventcode": 112,
    "quadclass": 3,
    "nummentions": 2,
    "numsources": 1,
    "numarticles": 2,
    "avgtone": "1.93236714975845",
    "sourceurl": "http://www.bnd.com/2013/09/18/2804009/lightning-may-have-sparked-piper.html",
    "feature_id": "415733",
    "feature_name": "Piper City",
    "state_alpha": "IL",
    "county_name": "Ford",
    "county_numeric": "053",
    "prim_lat_dec": "40.756702",
    "prim_long_dec": "-88.191158",
    "elev_in_m": "205",
    "elev_in_ft": "673",
    "lat": 40.756702,
    "long": -88.191158
  },
  {
    "globaleventid": 268306169,
    "sqldate": 20130918,
    "monthyear": 201309,
    "year": 2013,
    "fractiondate": "2013.7068",
    "eventcode": 111,
    "quadclass": 3,
    "nummentions": 12,
    "numsources": 3,
    "numarticles": 12,
    "avgtone": "3.04194724484776",
    "sourceurl": "http://www.realclearpolitics.com/articles/2013/09/18/the_return_of_anti-americanism_119974.html",
    "feature_id": "531871",
    "feature_name": "Washington",
    "state_alpha": "DC",
    "county_name": "District of Columbia",
    "county_numeric": "001",
    "prim_lat_dec": "38.8951118",
    "prim_long_dec": "-77.0363658",
    "elev_in_m": "7",
    "elev_in_ft": "23",
    "lat": 38.8951118,
    "long": -77.0363658
  },
  {
    "globaleventid": 268306163,
    "sqldate": 20130918,
    "monthyear": 201309,
    "year": 2013,
    "fractiondate": "2013.7068",
    "eventcode": 110,
    "quadclass": 3,
    "nummentions": 16,
    "numsources": 1,
    "numarticles": 16,
    "avgtone": "2.17842323651452",
    "sourceurl": "http://www.foxnews.com/politics/2013/09/18/navy-yard-shooting-reopens-push-for-stronger-mental-health-laws/&c=n32j2MDi6uf8rR_yglRLEQ7hZdWlX6SWPr4Y35n8aeg&mkt=en-us",
    "feature_id": "531871",
    "feature_name": "Washington",
    "state_alpha": "DC",
    "county_name": "District of Columbia",
    "county_numeric": "001",
    "prim_lat_dec": "38.8951118",
    "prim_long_dec": "-77.0363658",
    "elev_in_m": "7",
    "elev_in_ft": "23",
    "lat": 38.8951118,
    "long": -77.0363658
  },
  {
    "globaleventid": 268306162,
    "sqldate": 20130918,
    "monthyear": 201309,
    "year": 2013,
    "fractiondate": "2013.7068",
    "eventcode": 110,
    "quadclass": 3,
    "nummentions": 16,
    "numsources": 1,
    "numarticles": 16,
    "avgtone": "2.17842323651452",
    "sourceurl": "http://www.foxnews.com/politics/2013/09/18/navy-yard-shooting-reopens-push-for-stronger-mental-health-laws/&c=n32j2MDi6uf8rR_yglRLEQ7hZdWlX6SWPr4Y35n8aeg&mkt=en-us",
    "feature_id": "531871",
    "feature_name": "Washington",
    "state_alpha": "DC",
    "county_name": "District of Columbia",
    "county_numeric": "001",
    "prim_lat_dec": "38.8951118",
    "prim_long_dec": "-77.0363658",
    "elev_in_m": "7",
    "elev_in_ft": "23",
    "lat": 38.8951118,
    "long": -77.0363658
  },
  {
    "globaleventid": 268306152,
    "sqldate": 20130918,
    "monthyear": 201309,
    "year": 2013,
    "fractiondate": "2013.7068",
    "eventcode": 110,
    "quadclass": 3,
    "nummentions": 2,
    "numsources": 1,
    "numarticles": 2,
    "avgtone": "3.125",
    "sourceurl": "http://www.washingtontimes.com/news/2013/sep/17/cuccinelli-camp-disavows-jewish-joke-rally/",
    "feature_id": "531871",
    "feature_name": "Washington",
    "state_alpha": "DC",
    "county_name": "District of Columbia",
    "county_numeric": "001",
    "prim_lat_dec": "38.8951118",
    "prim_long_dec": "-77.0363658",
    "elev_in_m": "7",
    "elev_in_ft": "23",
    "lat": 38.8951118,
    "long": -77.0363658
  },
  {
    "globaleventid": 268306150,
    "sqldate": 20130918,
    "monthyear": 201309,
    "year": 2013,
    "fractiondate": "2013.7068",
    "eventcode": 110,
    "quadclass": 3,
    "nummentions": 26,
    "numsources": 4,
    "numarticles": 26,
    "avgtone": "2.56852912027814",
    "sourceurl": "http://washington.cbslocal.com/2013/09/18/mcauliffe-cuccinelli-address-higher-ed-business/",
    "feature_id": "531871",
    "feature_name": "Washington",
    "state_alpha": "DC",
    "county_name": "District of Columbia",
    "county_numeric": "001",
    "prim_lat_dec": "38.8951118",
    "prim_long_dec": "-77.0363658",
    "elev_in_m": "7",
    "elev_in_ft": "23",
    "lat": 38.8951118,
    "long": -77.0363658
  },
  {
    "globaleventid": 268306147,
    "sqldate": 20130918,
    "monthyear": 201309,
    "year": 2013,
    "fractiondate": "2013.7068",
    "eventcode": 110,
    "quadclass": 3,
    "nummentions": 2,
    "numsources": 2,
    "numarticles": 2,
    "avgtone": "1.59764353948116",
    "sourceurl": "http://politicsinminnesota.com/2013/09/illinois-lawmakers-sue-for-withheld-paychecks/",
    "feature_id": "423587",
    "feature_name": "Chicago",
    "state_alpha": "IL",
    "county_name": "Cook",
    "county_numeric": "031",
    "prim_lat_dec": "41.850033",
    "prim_long_dec": "-87.6500523",
    "elev_in_m": "179",
    "elev_in_ft": "587",
    "lat": 41.850033,
    "long": -87.6500523
  },
  {
    "globaleventid": 268306145,
    "sqldate": 20130918,
    "monthyear": 201309,
    "year": 2013,
    "fractiondate": "2013.7068",
    "eventcode": 110,
    "quadclass": 3,
    "nummentions": 1,
    "numsources": 1,
    "numarticles": 1,
    "avgtone": "1.53139356814701",
    "sourceurl": "http://www.bloomberg.com/news/2013-09-18/illinois-top-lawmakers-seek-paychecks-amid-pension-fight.html",
    "feature_id": "423587",
    "feature_name": "Chicago",
    "state_alpha": "IL",
    "county_name": "Cook",
    "county_numeric": "031",
    "prim_lat_dec": "41.850033",
    "prim_long_dec": "-87.6500523",
    "elev_in_m": "179",
    "elev_in_ft": "587",
    "lat": 41.850033,
    "long": -87.6500523
  },
  {
    "globaleventid": 268306132,
    "sqldate": 20130918,
    "monthyear": 201309,
    "year": 2013,
    "fractiondate": "2013.7068",
    "eventcode": 100,
    "quadclass": 3,
    "nummentions": 20,
    "numsources": 3,
    "numarticles": 20,
    "avgtone": "1.80392816523559",
    "sourceurl": "http://abcnews.go.com/blogs/politics/2013/09/more-of-the-same-for-gun-control-advocates-frustrating-the-note/",
    "feature_id": "531871",
    "feature_name": "Washington",
    "state_alpha": "DC",
    "county_name": "District of Columbia",
    "county_numeric": "001",
    "prim_lat_dec": "38.8951118",
    "prim_long_dec": "-77.0363658",
    "elev_in_m": "7",
    "elev_in_ft": "23",
    "lat": 38.8951118,
    "long": -77.0363658
  },
  {
    "globaleventid": 268306129,
    "sqldate": 20130918,
    "monthyear": 201309,
    "year": 2013,
    "fractiondate": "2013.7068",
    "eventcode": 100,
    "quadclass": 3,
    "nummentions": 2,
    "numsources": 1,
    "numarticles": 2,
    "avgtone": "2.8391167192429",
    "sourceurl": "http://www.sunherald.com/2013/09/18/4962408/bnsf-ceo-says-company-can-keep.html",
    "feature_id": "1029197",
    "feature_name": "Grand Forks",
    "state_alpha": "ND",
    "county_name": "Grand Forks",
    "county_numeric": "035",
    "prim_lat_dec": "47.9252568",
    "prim_long_dec": "-97.0328547",
    "elev_in_m": "253",
    "elev_in_ft": "830",
    "lat": 47.9252568,
    "long": -97.0328547
  },
  {
    "globaleventid": 268305450,
    "sqldate": 20130918,
    "monthyear": 201309,
    "year": 2013,
    "fractiondate": "2013.7068",
    "eventcode": 100,
    "quadclass": 3,
    "nummentions": 5,
    "numsources": 1,
    "numarticles": 5,
    "avgtone": "2.5065274151436",
    "sourceurl": "http://mondoweiss.net/2013/09/an-israeli-settler-explains-that-the-status-quo-is-sustainable.html",
    "feature_id": "531871",
    "feature_name": "Washington",
    "state_alpha": "DC",
    "county_name": "District of Columbia",
    "county_numeric": "001",
    "prim_lat_dec": "38.8951118",
    "prim_long_dec": "-77.0363658",
    "elev_in_m": "7",
    "elev_in_ft": "23",
    "lat": 38.8951118,
    "long": -77.0363658
  },
  {
    "globaleventid": 268305429,
    "sqldate": 20130918,
    "monthyear": 201309,
    "year": 2013,
    "fractiondate": "2013.7068",
    "eventcode": 161,
    "quadclass": 4,
    "nummentions": 22,
    "numsources": 18,
    "numarticles": 22,
    "avgtone": "1.83136552011951",
    "sourceurl": "http://www.chron.com/news/politics/article/For-Obama-Brazil-decision-compounds-rough-stretch-4823426.php",
    "feature_id": "531871",
    "feature_name": "Washington",
    "state_alpha": "DC",
    "county_name": "District of Columbia",
    "county_numeric": "001",
    "prim_lat_dec": "38.8951118",
    "prim_long_dec": "-77.0363658",
    "elev_in_m": "7",
    "elev_in_ft": "23",
    "lat": 38.8951118,
    "long": -77.0363658
  },
  {
    "globaleventid": 268305335,
    "sqldate": 20130918,
    "monthyear": 201309,
    "year": 2013,
    "fractiondate": "2013.7068",
    "eventcode": 193,
    "quadclass": 4,
    "nummentions": 10,
    "numsources": 1,
    "numarticles": 10,
    "avgtone": "0.675675675675676",
    "sourceurl": "http://www.philippinetimes.com/index.php/sid/217148932/scat/2411cd3571b4f088",
    "feature_id": "531871",
    "feature_name": "Washington",
    "state_alpha": "DC",
    "county_name": "District of Columbia",
    "county_numeric": "001",
    "prim_lat_dec": "38.8951118",
    "prim_long_dec": "-77.0363658",
    "elev_in_m": "7",
    "elev_in_ft": "23",
    "lat": 38.8951118,
    "long": -77.0363658
  },
  {
    "globaleventid": 268305334,
    "sqldate": 20130918,
    "monthyear": 201309,
    "year": 2013,
    "fractiondate": "2013.7068",
    "eventcode": 192,
    "quadclass": 4,
    "nummentions": 10,
    "numsources": 1,
    "numarticles": 10,
    "avgtone": "0.515463917525773",
    "sourceurl": "http://www.philippinetimes.com/index.php/sid/217147922/scat/2411cd3571b4f088",
    "feature_id": "531871",
    "feature_name": "Washington",
    "state_alpha": "DC",
    "county_name": "District of Columbia",
    "county_numeric": "001",
    "prim_lat_dec": "38.8951118",
    "prim_long_dec": "-77.0363658",
    "elev_in_m": "7",
    "elev_in_ft": "23",
    "lat": 38.8951118,
    "long": -77.0363658
  },
  {
    "globaleventid": 268305278,
    "sqldate": 20130918,
    "monthyear": 201309,
    "year": 2013,
    "fractiondate": "2013.7068",
    "eventcode": 173,
    "quadclass": 4,
    "nummentions": 2,
    "numsources": 1,
    "numarticles": 2,
    "avgtone": "4.05405405405405",
    "sourceurl": "http://www.dailynewsegypt.com/2013/09/18/state-department-opposes-politicised-arrests-in-egypt/",
    "feature_id": "531871",
    "feature_name": "Washington",
    "state_alpha": "DC",
    "county_name": "District of Columbia",
    "county_numeric": "001",
    "prim_lat_dec": "38.8951118",
    "prim_long_dec": "-77.0363658",
    "elev_in_m": "7",
    "elev_in_ft": "23",
    "lat": 38.8951118,
    "long": -77.0363658
  },
  {
    "globaleventid": 268305256,
    "sqldate": 20130918,
    "monthyear": 201309,
    "year": 2013,
    "fractiondate": "2013.7068",
    "eventcode": 193,
    "quadclass": 4,
    "nummentions": 102,
    "numsources": 10,
    "numarticles": 92,
    "avgtone": "0.787026029027232",
    "sourceurl": "http://washingtonexaminer.com/biden-meets-with-navy-yard-victims/article/2536044",
    "feature_id": "531871",
    "feature_name": "Washington",
    "state_alpha": "DC",
    "county_name": "District of Columbia",
    "county_numeric": "001",
    "prim_lat_dec": "38.8951118",
    "prim_long_dec": "-77.0363658",
    "elev_in_m": "7",
    "elev_in_ft": "23",
    "lat": 38.8951118,
    "long": -77.0363658
  },
  {
    "globaleventid": 268305247,
    "sqldate": 20130918,
    "monthyear": 201309,
    "year": 2013,
    "fractiondate": "2013.7068",
    "eventcode": 190,
    "quadclass": 4,
    "nummentions": 15,
    "numsources": 2,
    "numarticles": 15,
    "avgtone": "1.29772476000217",
    "sourceurl": "http://www.politico.com/politico44/2013/09/obama-to-attend-navy-yard-memorial-service-172949.html",
    "feature_id": "531871",
    "feature_name": "Washington",
    "state_alpha": "DC",
    "county_name": "District of Columbia",
    "county_numeric": "001",
    "prim_lat_dec": "38.8951118",
    "prim_long_dec": "-77.0363658",
    "elev_in_m": "7",
    "elev_in_ft": "23",
    "lat": 38.8951118,
    "long": -77.0363658
  },
  {
    "globaleventid": 268305234,
    "sqldate": 20130918,
    "monthyear": 201309,
    "year": 2013,
    "fractiondate": "2013.7068",
    "eventcode": 130,
    "quadclass": 3,
    "nummentions": 2,
    "numsources": 1,
    "numarticles": 2,
    "avgtone": "3.30578512396694",
    "sourceurl": "http://www.dailytarheel.com/article/2013/09/navy-yard-0918",
    "feature_id": "1492474",
    "feature_name": "Annandale",
    "state_alpha": "VA",
    "county_name": "Fairfax",
    "county_numeric": "059",
    "prim_lat_dec": "38.8303905",
    "prim_long_dec": "-77.1963703",
    "elev_in_m": "110",
    "elev_in_ft": "361",
    "lat": 38.8303905,
    "long": -77.1963703
  },
  {
    "globaleventid": 268305232,
    "sqldate": 20130918,
    "monthyear": 201309,
    "year": 2013,
    "fractiondate": "2013.7068",
    "eventcode": 111,
    "quadclass": 3,
    "nummentions": 20,
    "numsources": 2,
    "numarticles": 20,
    "avgtone": "0.673408307636495",
    "sourceurl": "http://www.irishsun.com/index.php/sid/217148932/scat/2411cd3571b4f088",
    "feature_id": "531871",
    "feature_name": "Washington",
    "state_alpha": "DC",
    "county_name": "District of Columbia",
    "county_numeric": "001",
    "prim_lat_dec": "38.8951118",
    "prim_long_dec": "-77.0363658",
    "elev_in_m": "7",
    "elev_in_ft": "23",
    "lat": 38.8951118,
    "long": -77.0363658
  },
  {
    "globaleventid": 268305231,
    "sqldate": 20130918,
    "monthyear": 201309,
    "year": 2013,
    "fractiondate": "2013.7068",
    "eventcode": 110,
    "quadclass": 3,
    "nummentions": 2,
    "numsources": 1,
    "numarticles": 2,
    "avgtone": "2.63022176379577",
    "sourceurl": "http://www.frontline.in/world-affairs/drums-of-war/article5134123.ece?homepage=true",
    "feature_id": "531871",
    "feature_name": "Washington",
    "state_alpha": "DC",
    "county_name": "District of Columbia",
    "county_numeric": "001",
    "prim_lat_dec": "38.8951118",
    "prim_long_dec": "-77.0363658",
    "elev_in_m": "7",
    "elev_in_ft": "23",
    "lat": 38.8951118,
    "long": -77.0363658
  },
  {
    "globaleventid": 268305151,
    "sqldate": 20130918,
    "monthyear": 201309,
    "year": 2013,
    "fractiondate": "2013.7068",
    "eventcode": 193,
    "quadclass": 4,
    "nummentions": 11,
    "numsources": 3,
    "numarticles": 11,
    "avgtone": "1.94918376932279",
    "sourceurl": "http://www.news24.com/World/News/Support-lacking-as-Obama-urges-new-gun-laws-20130918",
    "feature_id": "531871",
    "feature_name": "Washington",
    "state_alpha": "DC",
    "county_name": "District of Columbia",
    "county_numeric": "001",
    "prim_lat_dec": "38.8951118",
    "prim_long_dec": "-77.0363658",
    "elev_in_m": "7",
    "elev_in_ft": "23",
    "lat": 38.8951118,
    "long": -77.0363658
  },
  {
    "globaleventid": 268305143,
    "sqldate": 20130918,
    "monthyear": 201309,
    "year": 2013,
    "fractiondate": "2013.7068",
    "eventcode": 1121,
    "quadclass": 3,
    "nummentions": 6,
    "numsources": 1,
    "numarticles": 6,
    "avgtone": "1.15718418514947",
    "sourceurl": "http://www.upi.com/Top_News/US/2013/09/18/Navy-Yard-shooters-mother-heartbroken-over-sons-actions/UPI-58931379482693/?spt=hs&or=tn",
    "feature_id": "531871",
    "feature_name": "Washington",
    "state_alpha": "DC",
    "county_name": "District of Columbia",
    "county_numeric": "001",
    "prim_lat_dec": "38.8951118",
    "prim_long_dec": "-77.0363658",
    "elev_in_m": "7",
    "elev_in_ft": "23",
    "lat": 38.8951118,
    "long": -77.0363658
  },
  {
    "globaleventid": 268305140,
    "sqldate": 20130918,
    "monthyear": 201309,
    "year": 2013,
    "fractiondate": "2013.7068",
    "eventcode": 112,
    "quadclass": 3,
    "nummentions": 22,
    "numsources": 3,
    "numarticles": 22,
    "avgtone": "3.09402592728277",
    "sourceurl": "http://www.click2houston.com/news/Politics/Obama-Let-s-avoid-apocalypse/-/2574696/21999366/-/3hyf6c/-/index.html",
    "feature_id": "531871",
    "feature_name": "Washington",
    "state_alpha": "DC",
    "county_name": "District of Columbia",
    "county_numeric": "001",
    "prim_lat_dec": "38.8951118",
    "prim_long_dec": "-77.0363658",
    "elev_in_m": "7",
    "elev_in_ft": "23",
    "lat": 38.8951118,
    "long": -77.0363658
  },
  {
    "globaleventid": 268305139,
    "sqldate": 20130918,
    "monthyear": 201309,
    "year": 2013,
    "fractiondate": "2013.7068",
    "eventcode": 112,
    "quadclass": 3,
    "nummentions": 10,
    "numsources": 1,
    "numarticles": 10,
    "avgtone": "2.53807106598985",
    "sourceurl": "http://politicalticker.blogs.cnn.com/2013/09/18/cnns-gut-check-for-september-18-2013/",
    "feature_id": "1380944",
    "feature_name": "Dallas",
    "state_alpha": "TX",
    "county_name": "Dallas",
    "county_numeric": "113",
    "prim_lat_dec": "32.7830556",
    "prim_long_dec": "-96.8066667",
    "elev_in_m": "128",
    "elev_in_ft": "420",
    "lat": 32.7830556,
    "long": -96.8066667
  },
  {
    "globaleventid": 268305137,
    "sqldate": 20130918,
    "monthyear": 201309,
    "year": 2013,
    "fractiondate": "2013.7068",
    "eventcode": 110,
    "quadclass": 3,
    "nummentions": 3,
    "numsources": 1,
    "numarticles": 3,
    "avgtone": "1.84581976112921",
    "sourceurl": "http://www.ogfj.com/articles/print/volume-10/issue-9/departments/editor-s-comment/syria-worries-won-t-have-lasting.html",
    "feature_id": "531871",
    "feature_name": "Washington",
    "state_alpha": "DC",
    "county_name": "District of Columbia",
    "county_numeric": "001",
    "prim_lat_dec": "38.8951118",
    "prim_long_dec": "-77.0363658",
    "elev_in_m": "7",
    "elev_in_ft": "23",
    "lat": 38.8951118,
    "long": -77.0363658
  },
  {
    "globaleventid": 268305135,
    "sqldate": 20130918,
    "monthyear": 201309,
    "year": 2013,
    "fractiondate": "2013.7068",
    "eventcode": 100,
    "quadclass": 3,
    "nummentions": 83,
    "numsources": 7,
    "numarticles": 83,
    "avgtone": "1.58289652165428",
    "sourceurl": "http://www.reuters.com/article/2013/09/18/usa-obama-food-idUSL2N0HE2LL20130918?feedType=RSS&feedName=marketsNews",
    "feature_id": "531871",
    "feature_name": "Washington",
    "state_alpha": "DC",
    "county_name": "District of Columbia",
    "county_numeric": "001",
    "prim_lat_dec": "38.8951118",
    "prim_long_dec": "-77.0363658",
    "elev_in_m": "7",
    "elev_in_ft": "23",
    "lat": 38.8951118,
    "long": -77.0363658
  },
  {
    "globaleventid": 268305074,
    "sqldate": 20130918,
    "monthyear": 201309,
    "year": 2013,
    "fractiondate": "2013.7068",
    "eventcode": 193,
    "quadclass": 4,
    "nummentions": 24,
    "numsources": 1,
    "numarticles": 24,
    "avgtone": "1.36057078637225",
    "sourceurl": "http://www.dailymail.co.uk/news/article-2424459/Obama-faces-backlash-decision-attack-Republicans-federal-workers-gunned-down.html?ITO=1490&ns_mchannel=rss&ns_campaign=1490",
    "feature_id": "531871",
    "feature_name": "Washington",
    "state_alpha": "DC",
    "county_name": "District of Columbia",
    "county_numeric": "001",
    "prim_lat_dec": "38.8951118",
    "prim_long_dec": "-77.0363658",
    "elev_in_m": "7",
    "elev_in_ft": "23",
    "lat": 38.8951118,
    "long": -77.0363658
  },
  {
    "globaleventid": 268305072,
    "sqldate": 20130918,
    "monthyear": 201309,
    "year": 2013,
    "fractiondate": "2013.7068",
    "eventcode": 130,
    "quadclass": 3,
    "nummentions": 2,
    "numsources": 1,
    "numarticles": 2,
    "avgtone": "3.80818053596615",
    "sourceurl": "http://www.conservativeblog.org/amyridenour/2013/9/18/health-care-odds-ends-exchanges-exchangesand-some-good-news.html",
    "feature_id": "1662328",
    "feature_name": "Los Angeles",
    "state_alpha": "CA",
    "county_name": "Los Angeles",
    "county_numeric": "037",
    "prim_lat_dec": "34.0522342",
    "prim_long_dec": "-118.2436849",
    "elev_in_m": "89",
    "elev_in_ft": "292",
    "lat": 34.0522342,
    "long": -118.2436849
  },
  {
    "globaleventid": 268305062,
    "sqldate": 20130918,
    "monthyear": 201309,
    "year": 2013,
    "fractiondate": "2013.7068",
    "eventcode": 193,
    "quadclass": 4,
    "nummentions": 2,
    "numsources": 1,
    "numarticles": 2,
    "avgtone": "0.92378752886836",
    "sourceurl": "http://www.sfgate.com/news/crime/article/Man-acknowledges-shooting-at-White-House-in-2011-4823418.php&c=jWw8ALBur7p_wnbRZONfsBnOdAeFfbzIlv0Wk7wMj6w&mkt=en-us",
    "feature_id": "531871",
    "feature_name": "Washington",
    "state_alpha": "DC",
    "county_name": "District of Columbia",
    "county_numeric": "001",
    "prim_lat_dec": "38.8951118",
    "prim_long_dec": "-77.0363658",
    "elev_in_m": "7",
    "elev_in_ft": "23",
    "lat": 38.8951118,
    "long": -77.0363658
  },
  {
    "globaleventid": 268305043,
    "sqldate": 20130918,
    "monthyear": 201309,
    "year": 2013,
    "fractiondate": "2013.7068",
    "eventcode": 125,
    "quadclass": 3,
    "nummentions": 15,
    "numsources": 3,
    "numarticles": 15,
    "avgtone": "2.61102693974353",
    "sourceurl": "http://www.bloomberg.com/news/2013-09-19/iran-won-t-seek-nuclear-weapons-rohani-says-in-interview.html",
    "feature_id": "531871",
    "feature_name": "Washington",
    "state_alpha": "DC",
    "county_name": "District of Columbia",
    "county_numeric": "001",
    "prim_lat_dec": "38.8951118",
    "prim_long_dec": "-77.0363658",
    "elev_in_m": "7",
    "elev_in_ft": "23",
    "lat": 38.8951118,
    "long": -77.0363658
  },
  {
    "globaleventid": 268304936,
    "sqldate": 20130918,
    "monthyear": 201309,
    "year": 2013,
    "fractiondate": "2013.7068",
    "eventcode": 130,
    "quadclass": 3,
    "nummentions": 2,
    "numsources": 1,
    "numarticles": 2,
    "avgtone": "4.47227191413238",
    "sourceurl": "http://dawn.com/news/1043653/khamenei-touts-flexibility-ahead-of-talks",
    "feature_id": "531871",
    "feature_name": "Washington",
    "state_alpha": "DC",
    "county_name": "District of Columbia",
    "county_numeric": "001",
    "prim_lat_dec": "38.8951118",
    "prim_long_dec": "-77.0363658",
    "elev_in_m": "7",
    "elev_in_ft": "23",
    "lat": 38.8951118,
    "long": -77.0363658
  },
  {
    "globaleventid": 268304833,
    "sqldate": 20130918,
    "monthyear": 201309,
    "year": 2013,
    "fractiondate": "2013.7068",
    "eventcode": 190,
    "quadclass": 4,
    "nummentions": 5,
    "numsources": 1,
    "numarticles": 5,
    "avgtone": "2.84629981024668",
    "sourceurl": "http://www.scsun-news.com/ci_24089882.html",
    "feature_id": "531871",
    "feature_name": "Washington",
    "state_alpha": "DC",
    "county_name": "District of Columbia",
    "county_numeric": "001",
    "prim_lat_dec": "38.8951118",
    "prim_long_dec": "-77.0363658",
    "elev_in_m": "7",
    "elev_in_ft": "23",
    "lat": 38.8951118,
    "long": -77.0363658
  },
  {
    "globaleventid": 268304815,
    "sqldate": 20130918,
    "monthyear": 201309,
    "year": 2013,
    "fractiondate": "2013.7068",
    "eventcode": 112,
    "quadclass": 3,
    "nummentions": 2,
    "numsources": 1,
    "numarticles": 2,
    "avgtone": "2.54886630179828",
    "sourceurl": "http://www.610kvnu.com/politics/54ee88e9c5081caa6e4042e5db774734&c=pbBFmpUARh5qMP7JoAe8-hXbuOVwgr96zQ-D35uo8Wg&mkt=en-us",
    "feature_id": "529313",
    "feature_name": "Capitol Hill",
    "state_alpha": "DC",
    "county_name": "District of Columbia",
    "county_numeric": "001",
    "prim_lat_dec": "38.8890009",
    "prim_long_dec": "-77.0002537",
    "elev_in_m": "28",
    "elev_in_ft": "92",
    "lat": 38.8890009,
    "long": -77.0002537
  },
  {
    "globaleventid": 268304787,
    "sqldate": 20130918,
    "monthyear": 201309,
    "year": 2013,
    "fractiondate": "2013.7068",
    "eventcode": 193,
    "quadclass": 4,
    "nummentions": 3,
    "numsources": 1,
    "numarticles": 3,
    "avgtone": "2.25303292894281",
    "sourceurl": "http://usnews.nbcnews.com/_news/2013/09/17/20547441-obama-orders-security-review-after-dc-shooting-defense-department-report",
    "feature_id": "1497660",
    "feature_name": "Indian",
    "state_alpha": "VA",
    "county_name": "Tazewell",
    "county_numeric": "185",
    "prim_lat_dec": "37.0876141",
    "prim_long_dec": "-81.7581697",
    "elev_in_m": "596",
    "elev_in_ft": "1955",
    "lat": 37.0876141,
    "long": -81.7581697
  },
  {
    "globaleventid": 268304780,
    "sqldate": 20130918,
    "monthyear": 201309,
    "year": 2013,
    "fractiondate": "2013.7068",
    "eventcode": 193,
    "quadclass": 4,
    "nummentions": 3,
    "numsources": 1,
    "numarticles": 3,
    "avgtone": "1.08024691358025",
    "sourceurl": "http://www.washingtonpost.com/local/white-house-shooter-oscar-ortega-hernandez-pleads-guilty-faces-up-to-27-12-years-in-prison/2013/09/18/c10e0fb6-2074-11e3-b7d1-7153ad47b549_story.html?wprss=rss_crime",
    "feature_id": "531871",
    "feature_name": "Washington",
    "state_alpha": "DC",
    "county_name": "District of Columbia",
    "county_numeric": "001",
    "prim_lat_dec": "38.8951118",
    "prim_long_dec": "-77.0363658",
    "elev_in_m": "7",
    "elev_in_ft": "23",
    "lat": 38.8951118,
    "long": -77.0363658
  },
  {
    "globaleventid": 268304778,
    "sqldate": 20130918,
    "monthyear": 201309,
    "year": 2013,
    "fractiondate": "2013.7068",
    "eventcode": 181,
    "quadclass": 4,
    "nummentions": 10,
    "numsources": 1,
    "numarticles": 10,
    "avgtone": "3.54330708661417",
    "sourceurl": "http://www.news-medical.net/news/20130918/GOP-lawmakers-contemplate-daunting-budgetary-choices-Defund-health-law-Avoid-govt-shutdown-Raise-debt-ceiling.aspx",
    "feature_id": "531871",
    "feature_name": "Washington",
    "state_alpha": "DC",
    "county_name": "District of Columbia",
    "county_numeric": "001",
    "prim_lat_dec": "38.8951118",
    "prim_long_dec": "-77.0363658",
    "elev_in_m": "7",
    "elev_in_ft": "23",
    "lat": 38.8951118,
    "long": -77.0363658
  },
  {
    "globaleventid": 268304777,
    "sqldate": 20130918,
    "monthyear": 201309,
    "year": 2013,
    "fractiondate": "2013.7068",
    "eventcode": 173,
    "quadclass": 4,
    "nummentions": 5,
    "numsources": 1,
    "numarticles": 5,
    "avgtone": "3.34728033472803",
    "sourceurl": "http://www.reviewjournal.com/news/government/las-vegas-council-draws-heat-over-delaying-marijuana-dispensary-rules",
    "feature_id": "847388",
    "feature_name": "Las Vegas",
    "state_alpha": "NV",
    "county_name": "Clark",
    "county_numeric": "003",
    "prim_lat_dec": "36.1749705",
    "prim_long_dec": "-115.137223",
    "elev_in_m": "610",
    "elev_in_ft": "2001",
    "lat": 36.1749705,
    "long": -115.137223
  },
  {
    "globaleventid": 268304772,
    "sqldate": 20130918,
    "monthyear": 201309,
    "year": 2013,
    "fractiondate": "2013.7068",
    "eventcode": 130,
    "quadclass": 3,
    "nummentions": 154,
    "numsources": 22,
    "numarticles": 131,
    "avgtone": "1.61677131754776",
    "sourceurl": "http://www.wtop.com/628/3456064/Obama-Locked-up-Washington-could-hurt-economy",
    "feature_id": "531871",
    "feature_name": "Washington",
    "state_alpha": "DC",
    "county_name": "District of Columbia",
    "county_numeric": "001",
    "prim_lat_dec": "38.8951118",
    "prim_long_dec": "-77.0363658",
    "elev_in_m": "7",
    "elev_in_ft": "23",
    "lat": 38.8951118,
    "long": -77.0363658
  },
  {
    "globaleventid": 268304771,
    "sqldate": 20130918,
    "monthyear": 201309,
    "year": 2013,
    "fractiondate": "2013.7068",
    "eventcode": 130,
    "quadclass": 3,
    "nummentions": 1,
    "numsources": 1,
    "numarticles": 1,
    "avgtone": "2.63157894736842",
    "sourceurl": "http://neighbors.denverpost.com/viewtopic.php?p=3159876",
    "feature_id": "531871",
    "feature_name": "Washington",
    "state_alpha": "DC",
    "county_name": "District of Columbia",
    "county_numeric": "001",
    "prim_lat_dec": "38.8951118",
    "prim_long_dec": "-77.0363658",
    "elev_in_m": "7",
    "elev_in_ft": "23",
    "lat": 38.8951118,
    "long": -77.0363658
  },
  {
    "globaleventid": 268304769,
    "sqldate": 20130918,
    "monthyear": 201309,
    "year": 2013,
    "fractiondate": "2013.7068",
    "eventcode": 120,
    "quadclass": 3,
    "nummentions": 4,
    "numsources": 1,
    "numarticles": 4,
    "avgtone": "1.06635071090047",
    "sourceurl": "http://www.satnews.com/story.php?number=839843955",
    "feature_id": "201738",
    "feature_name": "Denver",
    "state_alpha": "CO",
    "county_name": "Denver",
    "county_numeric": "031",
    "prim_lat_dec": "39.7391536",
    "prim_long_dec": "-104.9847034",
    "elev_in_m": "1609",
    "elev_in_ft": "5279",
    "lat": 39.7391536,
    "long": -104.9847034
  },
  {
    "globaleventid": 268304768,
    "sqldate": 20130918,
    "monthyear": 201309,
    "year": 2013,
    "fractiondate": "2013.7068",
    "eventcode": 120,
    "quadclass": 3,
    "nummentions": 2,
    "numsources": 1,
    "numarticles": 2,
    "avgtone": "2.92825768667643",
    "sourceurl": "http://womensenews.org/story/economyeconomic-policy/130917/pensioners-face-betrayal-in-detroits-bankruptcy-push",
    "feature_id": "620133",
    "feature_name": "Ann Arbor",
    "state_alpha": "MI",
    "county_name": "Washtenaw",
    "county_numeric": "161",
    "prim_lat_dec": "42.2708716",
    "prim_long_dec": "-83.7263294",
    "elev_in_m": "268",
    "elev_in_ft": "879",
    "lat": 42.2708716,
    "long": -83.7263294
  },
  {
    "globaleventid": 268304767,
    "sqldate": 20130918,
    "monthyear": 201309,
    "year": 2013,
    "fractiondate": "2013.7068",
    "eventcode": 120,
    "quadclass": 3,
    "nummentions": 4,
    "numsources": 1,
    "numarticles": 4,
    "avgtone": "2.92825768667643",
    "sourceurl": "http://womensenews.org/story/economyeconomic-policy/130917/pensioners-face-betrayal-in-detroits-bankruptcy-push",
    "feature_id": "1617959",
    "feature_name": "Detroit",
    "state_alpha": "MI",
    "county_name": "Wayne",
    "county_numeric": "163",
    "prim_lat_dec": "42.331427",
    "prim_long_dec": "-83.0457538",
    "elev_in_m": "182",
    "elev_in_ft": "597",
    "lat": 42.331427,
    "long": -83.0457538
  },