[
  {
    "globaleventid": 270699133,
    "sqldate": 20131008,
    "monthyear": 201310,
    "year": 2013,
    "fractiondate": "2013.7616",
    "eventcode": 120,
    "quadclass": 3,
    "nummentions": 6,
    "numsources": 1,
    "numarticles": 6,
    "avgtone": "2.84090909090909",
    "sourceurl": "http://consortiumnews.com/2013/10/08/surveillance-state-takes-offense/",
    "feature_id": "201738",
    "feature_name": "Denver",
    "state_alpha": "CO",
    "county_name": "Denver",
    "county_numeric": "031",
    "prim_lat_dec": "39.7391536",
    "prim_long_dec": "-104.9847034",
    "elev_in_m": "1609",
    "elev_in_ft": "5279",
    "lat": 39.7391536,
    "long": -104.9847034
  },
  {
    "globaleventid": 270698462,
    "sqldate": 20131008,
    "monthyear": 201310,
    "year": 2013,
    "fractiondate": "2013.7616",
    "eventcode": 190,
    "quadclass": 4,
    "nummentions": 2,
    "numsources": 1,
    "numarticles": 2,
    "avgtone": "2.39043824701195",
    "sourceurl": "http://newyork.cbslocal.com/2013/10/08/new-york-court-weighs-intoxication-defense-in-deadly-crashes/",
    "feature_id": "972786",
    "feature_name": "Meadowbrook",
    "state_alpha": "NY",
    "county_name": "Orange",
    "county_numeric": "071",
    "prim_lat_dec": "41.4453716",
    "prim_long_dec": "-74.0809765",
    "elev_in_m": "103",
    "elev_in_ft": "338",
    "lat": 41.4453716,
    "long": -74.0809765
  },
  {
    "globaleventid": 270698461,
    "sqldate": 20131008,
    "monthyear": 201310,
    "year": 2013,
    "fractiondate": "2013.7616",
    "eventcode": 190,
    "quadclass": 4,
    "nummentions": 2,
    "numsources": 1,
    "numarticles": 2,
    "avgtone": "2.39043824701195",
    "sourceurl": "http://newyork.cbslocal.com/2013/10/08/new-york-court-weighs-intoxication-defense-in-deadly-crashes/",
    "feature_id": "972786",
    "feature_name": "Meadowbrook",
    "state_alpha": "NY",
    "county_name": "Orange",
    "county_numeric": "071",
    "prim_lat_dec": "41.4453716",
    "prim_long_dec": "-74.0809765",
    "elev_in_m": "103",
    "elev_in_ft": "338",
    "lat": 41.4453716,
    "long": -74.0809765
  },
  {
    "globaleventid": 270698460,
    "sqldate": 20131008,
    "monthyear": 201310,
    "year": 2013,
    "fractiondate": "2013.7616",
    "eventcode": 173,
    "quadclass": 4,
    "nummentions": 2,
    "numsources": 1,
    "numarticles": 2,
    "avgtone": "2.39043824701195",
    "sourceurl": "http://newyork.cbslocal.com/2013/10/08/new-york-court-weighs-intoxication-defense-in-deadly-crashes/",
    "feature_id": "972786",
    "feature_name": "Meadowbrook",
    "state_alpha": "NY",
    "county_name": "Orange",
    "county_numeric": "071",
    "prim_lat_dec": "41.4453716",
    "prim_long_dec": "-74.0809765",
    "elev_in_m": "103",
    "elev_in_ft": "338",
    "lat": 41.4453716,
    "long": -74.0809765
  },
  {
    "globaleventid": 270698459,
    "sqldate": 20131008,
    "monthyear": 201310,
    "year": 2013,
    "fractiondate": "2013.7616",
    "eventcode": 173,
    "quadclass": 4,
    "nummentions": 2,
    "numsources": 1,
    "numarticles": 2,
    "avgtone": "2.39043824701195",
    "sourceurl": "http://newyork.cbslocal.com/2013/10/08/new-york-court-weighs-intoxication-defense-in-deadly-crashes/",
    "feature_id": "972786",
    "feature_name": "Meadowbrook",
    "state_alpha": "NY",
    "county_name": "Orange",
    "county_numeric": "071",
    "prim_lat_dec": "41.4453716",
    "prim_long_dec": "-74.0809765",
    "elev_in_m": "103",
    "elev_in_ft": "338",
    "lat": 41.4453716,
    "long": -74.0809765
  },
  {
    "globaleventid": 270698438,
    "sqldate": 20131008,
    "monthyear": 201310,
    "year": 2013,
    "fractiondate": "2013.7616",
    "eventcode": 172,
    "quadclass": 4,
    "nummentions": 1,
    "numsources": 1,
    "numarticles": 1,
    "avgtone": "1.60427807486631",
    "sourceurl": "http://www.nbcphiladelphia.com/news/local/Report-of-Shots-Fired-at-Princeton-University-226996271.html",
    "feature_id": "1184421",
    "feature_name": "Princeton",
    "state_alpha": "PA",
    "county_name": "Lawrence",
    "county_numeric": "073",
    "prim_lat_dec": "40.963951",
    "prim_long_dec": "-80.2314505",
    "elev_in_m": "407",
    "elev_in_ft": "1335",
    "lat": 40.963951,
    "long": -80.2314505
  },
  {
    "globaleventid": 270696893,
    "sqldate": 20131008,
    "monthyear": 201310,
    "year": 2013,
    "fractiondate": "2013.7616",
    "eventcode": 128,
    "quadclass": 3,
    "nummentions": 2,
    "numsources": 1,
    "numarticles": 2,
    "avgtone": "2.53890253890254",
    "sourceurl": "http://www.victoriaadvocate.com/news/2013/oct/08/bedbuget_gop_100913_221964/?news",
    "feature_id": "531871",
    "feature_name": "Washington",
    "state_alpha": "DC",
    "county_name": "District of Columbia",
    "county_numeric": "001",
    "prim_lat_dec": "38.8951118",
    "prim_long_dec": "-77.0363658",
    "elev_in_m": "7",
    "elev_in_ft": "23",
    "lat": 38.8951118,
    "long": -77.0363658
  },
  {
    "globaleventid": 270696639,
    "sqldate": 20131008,
    "monthyear": 201310,
    "year": 2013,
    "fractiondate": "2013.7616",
    "eventcode": 173,
    "quadclass": 4,
    "nummentions": 40,
    "numsources": 5,
    "numarticles": 40,
    "avgtone": "0.198019801980198",
    "sourceurl": "http://www.northwestohio.com/news/story.aspx?id=956154",
    "feature_id": "280565",
    "feature_name": "Cleveland",
    "state_alpha": "FL",
    "county_name": "Charlotte",
    "county_numeric": "015",
    "prim_lat_dec": "26.9617265",
    "prim_long_dec": "-81.983976",
    "elev_in_m": "2",
    "elev_in_ft": "7",
    "lat": 26.9617265,
    "long": -81.983976
  },
  {
    "globaleventid": 270696638,
    "sqldate": 20131008,
    "monthyear": 201310,
    "year": 2013,
    "fractiondate": "2013.7616",
    "eventcode": 173,
    "quadclass": 4,
    "nummentions": 8,
    "numsources": 1,
    "numarticles": 8,
    "avgtone": "0.636942675159236",
    "sourceurl": "http://newsok.com/ohio-witness-100m-scam-suspect-resisted-queries/article/feed/601332",
    "feature_id": "1091455",
    "feature_name": "Cleveland",
    "state_alpha": "OK",
    "county_name": "Pawnee",
    "county_numeric": "117",
    "prim_lat_dec": "36.3100688",
    "prim_long_dec": "-96.4641886",
    "elev_in_m": "237",
    "elev_in_ft": "778",
    "lat": 36.3100688,
    "long": -96.4641886
  },
  {
    "globaleventid": 270696637,
    "sqldate": 20131008,
    "monthyear": 201310,
    "year": 2013,
    "fractiondate": "2013.7616",
    "eventcode": 173,
    "quadclass": 4,
    "nummentions": 48,
    "numsources": 6,
    "numarticles": 48,
    "avgtone": "0.116550116550117",
    "sourceurl": "http://www.tribtoday.com/page/content.detail/id/387923/Ohio-witness---100M-scam-suspect-resisted-queries.html?isap=1&nav=5029&c=RHNqpsxtsgUdNbKKKX3ljMfCO73pvGOuXY0mG-maJgM&mkt=en-us",
    "feature_id": "1066654",
    "feature_name": "Cleveland",
    "state_alpha": "OH",
    "county_name": "Cuyahoga",
    "county_numeric": "035",
    "prim_lat_dec": "41.4994954",
    "prim_long_dec": "-81.6954088",
    "elev_in_m": "199",
    "elev_in_ft": "653",
    "lat": 41.4994954,
    "long": -81.6954088
  },
  {
    "globaleventid": 270696634,
    "sqldate": 20131008,
    "monthyear": 201310,
    "year": 2013,
    "fractiondate": "2013.7616",
    "eventcode": 1121,
    "quadclass": 3,
    "nummentions": 2,
    "numsources": 1,
    "numarticles": 2,
    "avgtone": "2.13903743315508",
    "sourceurl": "http://www.ctpost.com/news/crime/article/Man-incarcerated-in-Iowa-charged-in-Illinois-death-4879307.php",
    "feature_id": "456760",
    "feature_name": "Freeport",
    "state_alpha": "IA",
    "county_name": "Winneshiek",
    "county_numeric": "191",
    "prim_lat_dec": "43.3021951",
    "prim_long_dec": "-91.7434849",
    "elev_in_m": "258",
    "elev_in_ft": "846",
    "lat": 43.3021951,
    "long": -91.7434849
  },
  {
    "globaleventid": 270696633,
    "sqldate": 20131008,
    "monthyear": 201310,
    "year": 2013,
    "fractiondate": "2013.7616",
    "eventcode": 112,
    "quadclass": 3,
    "nummentions": 2,
    "numsources": 1,
    "numarticles": 2,
    "avgtone": "2.54777070063694",
    "sourceurl": "http://www.wifr.com/home/headlines/172922071.html",
    "feature_id": "456760",
    "feature_name": "Freeport",
    "state_alpha": "IA",
    "county_name": "Winneshiek",
    "county_numeric": "191",
    "prim_lat_dec": "43.3021951",
    "prim_long_dec": "-91.7434849",
    "elev_in_m": "258",
    "elev_in_ft": "846",
    "lat": 43.3021951,
    "long": -91.7434849
  },
  {
    "globaleventid": 270696348,
    "sqldate": 20131008,
    "monthyear": 201310,
    "year": 2013,
    "fractiondate": "2013.7616",
    "eventcode": 173,
    "quadclass": 4,
    "nummentions": 2,
    "numsources": 1,
    "numarticles": 2,
    "avgtone": "2.70833333333333",
    "sourceurl": "http://www.skynews.com.au/world/article.aspx?id=913476",
    "feature_id": "531871",
    "feature_name": "Washington",
    "state_alpha": "DC",
    "county_name": "District of Columbia",
    "county_numeric": "001",
    "prim_lat_dec": "38.8951118",
    "prim_long_dec": "-77.0363658",
    "elev_in_m": "7",
    "elev_in_ft": "23",
    "lat": 38.8951118,
    "long": -77.0363658
  },
  {
    "globaleventid": 270696254,
    "sqldate": 20131008,
    "monthyear": 201310,
    "year": 2013,
    "fractiondate": "2013.7616",
    "eventcode": 125,
    "quadclass": 3,
    "nummentions": 4,
    "numsources": 1,
    "numarticles": 4,
    "avgtone": "1.40845070422535",
    "sourceurl": "http://www.nst.com.my/latest/obama-s-missed-opportunity-as-china-flexes-muscles-1.371897?localLinksEnabled=false",
    "feature_id": "531871",
    "feature_name": "Washington",
    "state_alpha": "DC",
    "county_name": "District of Columbia",
    "county_numeric": "001",
    "prim_lat_dec": "38.8951118",
    "prim_long_dec": "-77.0363658",
    "elev_in_m": "7",
    "elev_in_ft": "23",
    "lat": 38.8951118,
    "long": -77.0363658
  },
  {
    "globaleventid": 270696038,
    "sqldate": 20131008,
    "monthyear": 201310,
    "year": 2013,
    "fractiondate": "2013.7616",
    "eventcode": 190,
    "quadclass": 4,
    "nummentions": 4,
    "numsources": 1,
    "numarticles": 4,
    "avgtone": "5.08474576271187",
    "sourceurl": "http://fox13now.com/2013/10/08/benefit-concert-held-in-honor-of-fallen-draper-sgt-derek-johnson/",
    "feature_id": "1452542",
    "feature_name": "Johnsons",
    "state_alpha": "UT",
    "county_name": "Salt Lake",
    "county_numeric": "035",
    "prim_lat_dec": "40.622448",
    "prim_long_dec": "-111.8118772",
    "elev_in_m": "1462",
    "elev_in_ft": "4797",
    "lat": 40.622448,
    "long": -111.8118772
  },
  {
    "globaleventid": 270694850,
    "sqldate": 20131008,
    "monthyear": 201310,
    "year": 2013,
    "fractiondate": "2013.7616",
    "eventcode": 160,
    "quadclass": 4,
    "nummentions": 2,
    "numsources": 1,
    "numarticles": 2,
    "avgtone": "0.264550264550265",
    "sourceurl": "http://www.wptv.com/dpp/news/region_c_palm_beach_county/argentine-tegu-lizard-invading-florida-wildlife-crews-working-to-stop-spread-of-non-native-species?hpt=us_bn8&c=r2Xs81h8wSfwufbTlvf25vb4RZvNVcLi2Bs-lY3dPG4&mkt=en-us",
    "feature_id": "285292",
    "feature_name": "Lake Worth",
    "state_alpha": "FL",
    "county_name": "Palm Beach",
    "county_numeric": "099",
    "prim_lat_dec": "26.6159015",
    "prim_long_dec": "-80.056986",
    "elev_in_m": "5",
    "elev_in_ft": "16",
    "lat": 26.6159015,
    "long": -80.056986
  },
  {
    "globaleventid": 270694660,
    "sqldate": 20131008,
    "monthyear": 201310,
    "year": 2013,
    "fractiondate": "2013.7616",
    "eventcode": 173,
    "quadclass": 4,
    "nummentions": 1,
    "numsources": 1,
    "numarticles": 1,
    "avgtone": "0.0",
    "sourceurl": "http://www.sify.com/news/charges-fall-against-or-man-who-claimed-torture-news-offbeat-nkiqJFadihc.html",
    "feature_id": "1661377",
    "feature_name": "San Diego",
    "state_alpha": "CA",
    "county_name": "San Diego",
    "county_numeric": "073",
    "prim_lat_dec": "32.7153292",
    "prim_long_dec": "-117.1572551",
    "elev_in_m": "19",
    "elev_in_ft": "62",
    "lat": 32.7153292,
    "long": -117.1572551
  },
  {
    "globaleventid": 270694403,
    "sqldate": 20131008,
    "monthyear": 201310,
    "year": 2013,
    "fractiondate": "2013.7616",
    "eventcode": 190,
    "quadclass": 4,
    "nummentions": 4,
    "numsources": 1,
    "numarticles": 4,
    "avgtone": "1.35983263598326",
    "sourceurl": "http://theblacksheartimes.com/articles/2013/10/08/news/doc4f05ba1e6d99f132623840.txt",
    "feature_id": "354859",
    "feature_name": "Bristol",
    "state_alpha": "GA",
    "county_name": "Pierce",
    "county_numeric": "229",
    "prim_lat_dec": "31.4485465",
    "prim_long_dec": "-82.2145665",
    "elev_in_m": "43",
    "elev_in_ft": "141",
    "lat": 31.4485465,
    "long": -82.2145665
  },
  {
    "globaleventid": 270694364,
    "sqldate": 20131008,
    "monthyear": 201310,
    "year": 2013,
    "fractiondate": "2013.7616",
    "eventcode": 129,
    "quadclass": 3,
    "nummentions": 1,
    "numsources": 1,
    "numarticles": 1,
    "avgtone": "3.2171581769437",
    "sourceurl": "http://www.journalnow.com/opinion/editorials/article_24e21ede-3041-11e3-965e-001a4bcf6878.html",
    "feature_id": "1005554",
    "feature_name": "Carolina",
    "state_alpha": "NC",
    "county_name": "Gaston",
    "county_numeric": "071",
    "prim_lat_dec": "35.3884665",
    "prim_long_dec": "-81.3714737",
    "elev_in_m": "284",
    "elev_in_ft": "932",
    "lat": 35.3884665,
    "long": -81.3714737
  },
  {
    "globaleventid": 270694343,
    "sqldate": 20131008,
    "monthyear": 201310,
    "year": 2013,
    "fractiondate": "2013.7616",
    "eventcode": 190,
    "quadclass": 4,
    "nummentions": 5,
    "numsources": 1,
    "numarticles": 5,
    "avgtone": "1.85341196293176",
    "sourceurl": "http://www.kingmandailyminer.com/main.asp?SectionID=1&SubsectionID=1&ArticleID=58277",
    "feature_id": "26377",
    "feature_name": "Black Canyon City",
    "state_alpha": "AZ",
    "county_name": "Yavapai",
    "county_numeric": "025",
    "prim_lat_dec": "34.0708665",
    "prim_long_dec": "-112.1507149",
    "elev_in_m": "602",
    "elev_in_ft": "1975",
    "lat": 34.0708665,
    "long": -112.1507149
  },
  {
    "globaleventid": 270694229,
    "sqldate": 20131008,
    "monthyear": 201310,
    "year": 2013,
    "fractiondate": "2013.7616",
    "eventcode": 172,
    "quadclass": 4,
    "nummentions": 1,
    "numsources": 1,
    "numarticles": 1,
    "avgtone": "1.26404494382022",
    "sourceurl": "http://www.nola.com/politics/index.ssf/2013/10/united_nations_torture_angola.html",
    "feature_id": "1629914",
    "feature_name": "Baton Rouge",
    "state_alpha": "LA",
    "county_name": "East Baton Rouge",
    "county_numeric": "033",
    "prim_lat_dec": "30.4507462",
    "prim_long_dec": "-91.154551",
    "elev_in_m": "14",
    "elev_in_ft": "46",
    "lat": 30.4507462,
    "long": -91.154551
  },
  {
    "globaleventid": 270693168,
    "sqldate": 20131008,
    "monthyear": 201310,
    "year": 2013,
    "fractiondate": "2013.7616",
    "eventcode": 111,
    "quadclass": 3,
    "nummentions": 3,
    "numsources": 1,
    "numarticles": 3,
    "avgtone": "3.11111111111111",
    "sourceurl": "http://www.plenglish.com//index.php?option=com_content&task=view&id=1933941&Itemid=1",
    "feature_id": "531871",
    "feature_name": "Washington",
    "state_alpha": "DC",
    "county_name": "District of Columbia",
    "county_numeric": "001",
    "prim_lat_dec": "38.8951118",
    "prim_long_dec": "-77.0363658",
    "elev_in_m": "7",
    "elev_in_ft": "23",
    "lat": 38.8951118,
    "long": -77.0363658
  },
  {
    "globaleventid": 270693115,
    "sqldate": 20131008,
    "monthyear": 201310,
    "year": 2013,
    "fractiondate": "2013.7616",
    "eventcode": 193,
    "quadclass": 4,
    "nummentions": 2,
    "numsources": 1,
    "numarticles": 2,
    "avgtone": "2.68528464017186",
    "sourceurl": "http://www.sltrib.com/sltrib/world/56975269-68/pakistan-yousafzai-taliban-malala.html.csp",
    "feature_id": "531871",
    "feature_name": "Washington",
    "state_alpha": "DC",
    "county_name": "District of Columbia",
    "county_numeric": "001",
    "prim_lat_dec": "38.8951118",
    "prim_long_dec": "-77.0363658",
    "elev_in_m": "7",
    "elev_in_ft": "23",
    "lat": 38.8951118,
    "long": -77.0363658
  },
  {
    "globaleventid": 270692886,
    "sqldate": 20131008,
    "monthyear": 201310,
    "year": 2013,
    "fractiondate": "2013.7616",
    "eventcode": 193,
    "quadclass": 4,
    "nummentions": 16,
    "numsources": 2,
    "numarticles": 16,
    "avgtone": "1.61733483202198",
    "sourceurl": "http://www.kare11.com/news/article/1041712/396/Minn-native-injured-in-Afghanistan",
    "feature_id": "647438",
    "feature_name": "Mankato",
    "state_alpha": "MN",
    "county_name": "Blue Earth",
    "county_numeric": "013",
    "prim_lat_dec": "44.1635775",
    "prim_long_dec": "-93.9993996",
    "elev_in_m": "253",
    "elev_in_ft": "830",
    "lat": 44.1635775,
    "long": -93.9993996
  },
  {
    "globaleventid": 270692872,
    "sqldate": 20131008,
    "monthyear": 201310,
    "year": 2013,
    "fractiondate": "2013.7616",
    "eventcode": 190,
    "quadclass": 4,
    "nummentions": 2,
    "numsources": 1,
    "numarticles": 2,
    "avgtone": "0.0",
    "sourceurl": "http://www.ctpost.com/news/article/Carlisle-man-among-4-soldiers-dead-in-IED-attack-4878724.php",
    "feature_id": "735864",
    "feature_name": "Springfield",
    "state_alpha": "MO",
    "county_name": "Greene",
    "county_numeric": "077",
    "prim_lat_dec": "37.215326",
    "prim_long_dec": "-93.2982436",
    "elev_in_m": "396",
    "elev_in_ft": "1299",
    "lat": 37.215326,
    "long": -93.2982436
  },
  {
    "globaleventid": 270692871,
    "sqldate": 20131008,
    "monthyear": 201310,
    "year": 2013,
    "fractiondate": "2013.7616",
    "eventcode": 190,
    "quadclass": 4,
    "nummentions": 2,
    "numsources": 1,
    "numarticles": 2,
    "avgtone": "0.0",
    "sourceurl": "http://www.mysanantonio.com/news/article/Carlisle-man-among-4-soldiers-dead-in-IED-attack-4878724.php&c=SxDfvHEhi2HfKtuQIL-JjWTsZLBXUGvR50RrY0nN5Rw&mkt=en-us",
    "feature_id": "1380951",
    "feature_name": "San Antonio",
    "state_alpha": "TX",
    "county_name": "Bexar",
    "county_numeric": "029",
    "prim_lat_dec": "29.4241219",
    "prim_long_dec": "-98.4936282",
    "elev_in_m": "198",
    "elev_in_ft": "650",
    "lat": 29.4241219,
    "long": -98.4936282
  },
  {
    "globaleventid": 270692819,
    "sqldate": 20131008,
    "monthyear": 201310,
    "year": 2013,
    "fractiondate": "2013.7616",
    "eventcode": 190,
    "quadclass": 4,
    "nummentions": 2,
    "numsources": 1,
    "numarticles": 2,
    "avgtone": "0.0",
    "sourceurl": "http://www.utsandiego.com/news/2013/oct/08/fort-benning-soldiers-killed-in-afghanistan-attack/",
    "feature_id": "735864",
    "feature_name": "Springfield",
    "state_alpha": "MO",
    "county_name": "Greene",
    "county_numeric": "077",
    "prim_lat_dec": "37.215326",
    "prim_long_dec": "-93.2982436",
    "elev_in_m": "396",
    "elev_in_ft": "1299",
    "lat": 37.215326,
    "long": -93.2982436
  },
  {
    "globaleventid": 270692817,
    "sqldate": 20131008,
    "monthyear": 201310,
    "year": 2013,
    "fractiondate": "2013.7616",
    "eventcode": 190,
    "quadclass": 4,
    "nummentions": 11,
    "numsources": 3,
    "numarticles": 10,
    "avgtone": "1.99025106920745",
    "sourceurl": "http://www.stltoday.com/news/local/metro/missouri-soldier-killed-in-afghanistan/article_eeb5b85e-da1d-5b7a-a7e6-bf7b2a49a429.html",
    "feature_id": "735864",
    "feature_name": "Springfield",
    "state_alpha": "MO",
    "county_name": "Greene",
    "county_numeric": "077",
    "prim_lat_dec": "37.215326",
    "prim_long_dec": "-93.2982436",
    "elev_in_m": "396",
    "elev_in_ft": "1299",
    "lat": 37.215326,
    "long": -93.2982436
  },
  {
    "globaleventid": 270692815,
    "sqldate": 20131008,
    "monthyear": 201310,
    "year": 2013,
    "fractiondate": "2013.7616",
    "eventcode": 190,
    "quadclass": 4,
    "nummentions": 2,
    "numsources": 1,
    "numarticles": 2,
    "avgtone": "0.0",
    "sourceurl": "http://www.ctpost.com/news/article/Carlisle-man-among-4-soldiers-dead-in-IED-attack-4878724.php",
    "feature_id": "735864",
    "feature_name": "Springfield",
    "state_alpha": "MO",
    "county_name": "Greene",
    "county_numeric": "077",
    "prim_lat_dec": "37.215326",
    "prim_long_dec": "-93.2982436",
    "elev_in_m": "396",
    "elev_in_ft": "1299",
    "lat": 37.215326,
    "long": -93.2982436
  },
  {
    "globaleventid": 270692814,
    "sqldate": 20131008,
    "monthyear": 201310,
    "year": 2013,
    "fractiondate": "2013.7616",
    "eventcode": 190,
    "quadclass": 4,
    "nummentions": 28,
    "numsources": 6,
    "numarticles": 28,
    "avgtone": "2.25354420903425",
    "sourceurl": "http://www.nationaljournal.com/global-security-newswire/america-s-longest-war-20131007",
    "feature_id": "531871",
    "feature_name": "Washington",
    "state_alpha": "DC",
    "county_name": "District of Columbia",
    "county_numeric": "001",
    "prim_lat_dec": "38.8951118",
    "prim_long_dec": "-77.0363658",
    "elev_in_m": "7",
    "elev_in_ft": "23",
    "lat": 38.8951118,
    "long": -77.0363658
  },
  {
    "globaleventid": 270692812,
    "sqldate": 20131008,
    "monthyear": 201310,
    "year": 2013,
    "fractiondate": "2013.7616",
    "eventcode": 190,
    "quadclass": 4,
    "nummentions": 25,
    "numsources": 4,
    "numarticles": 25,
    "avgtone": "0.31331592689295",
    "sourceurl": "http://chronicle.augusta.com/news/metro/2013-10-08/2-fort-benning-soldiers-die-afghanistan-attack",
    "feature_id": "355875",
    "feature_name": "Fort Benning",
    "state_alpha": "GA",
    "county_name": "Chattahoochee",
    "county_numeric": "053",
    "prim_lat_dec": "32.3523691",
    "prim_long_dec": "-84.9688191",
    "elev_in_m": "94",
    "elev_in_ft": "308",
    "lat": 32.3523691,
    "long": -84.9688191
  },
  {
    "globaleventid": 270692811,
    "sqldate": 20131008,
    "monthyear": 201310,
    "year": 2013,
    "fractiondate": "2013.7616",
    "eventcode": 190,
    "quadclass": 4,
    "nummentions": 3,
    "numsources": 2,
    "numarticles": 3,
    "avgtone": "1.50693680105445",
    "sourceurl": "http://www.gazettetimes.com/news/local/philomath-man-among-soldiers-killed-in-iraq/article_8c8010c8-be6b-517f-bd82-214c9fe9bd65.html",
    "feature_id": "332654",
    "feature_name": "Philomath",
    "state_alpha": "GA",
    "county_name": "Oglethorpe",
    "county_numeric": "221",
    "prim_lat_dec": "33.7273466",
    "prim_long_dec": "-82.991261",
    "elev_in_m": "195",
    "elev_in_ft": "640",
    "lat": 33.7273466,
    "long": -82.991261
  },
  {
    "globaleventid": 270692810,
    "sqldate": 20131008,
    "monthyear": 201310,
    "year": 2013,
    "fractiondate": "2013.7616",
    "eventcode": 190,
    "quadclass": 4,
    "nummentions": 1,
    "numsources": 1,
    "numarticles": 1,
    "avgtone": "3.04259634888438",
    "sourceurl": "http://www.buckslocalnews.com/articles/2013/10/08/bristol_pilot/news/doc52459950579b7689358473.txt",
    "feature_id": "203821",
    "feature_name": "Bristol",
    "state_alpha": "CO",
    "county_name": "Prowers",
    "county_numeric": "099",
    "prim_lat_dec": "38.1222316",
    "prim_long_dec": "-102.3115786",
    "elev_in_m": "1085",
    "elev_in_ft": "3560",
    "lat": 38.1222316,
    "long": -102.3115786
  },
  {
    "globaleventid": 270692809,
    "sqldate": 20131008,
    "monthyear": 201310,
    "year": 2013,
    "fractiondate": "2013.7616",
    "eventcode": 190,
    "quadclass": 4,
    "nummentions": 4,
    "numsources": 2,
    "numarticles": 4,
    "avgtone": "0.0",
    "sourceurl": "http://www.morning-times.com/state_news/article_4a61c06a-2c66-58e0-8afb-19b39aeb8327.html",
    "feature_id": "1661377",
    "feature_name": "San Diego",
    "state_alpha": "CA",
    "county_name": "San Diego",
    "county_numeric": "073",
    "prim_lat_dec": "32.7153292",
    "prim_long_dec": "-117.1572551",
    "elev_in_m": "19",
    "elev_in_ft": "62",
    "lat": 32.7153292,
    "long": -117.1572551
  },
  {
    "globaleventid": 270692807,
    "sqldate": 20131008,
    "monthyear": 201310,
    "year": 2013,
    "fractiondate": "2013.7616",
    "eventcode": 190,
    "quadclass": 4,
    "nummentions": 1,
    "numsources": 1,
    "numarticles": 1,
    "avgtone": "0.0",
    "sourceurl": "http://lebanon-express.com/news/state-and-regional/fort-benning-soldiers-killed-in-afghanistan-attack/article_d5aecf09-b8c3-5678-a7dc-a6233f3b3a02.html",
    "feature_id": "1661377",
    "feature_name": "San Diego",
    "state_alpha": "CA",
    "county_name": "San Diego",
    "county_numeric": "073",
    "prim_lat_dec": "32.7153292",
    "prim_long_dec": "-117.1572551",
    "elev_in_m": "19",
    "elev_in_ft": "62",
    "lat": 32.7153292,
    "long": -117.1572551
  },
  {
    "globaleventid": 270692806,
    "sqldate": 20131008,
    "monthyear": 201310,
    "year": 2013,
    "fractiondate": "2013.7616",
    "eventcode": 190,
    "quadclass": 4,
    "nummentions": 13,
    "numsources": 5,
    "numarticles": 13,
    "avgtone": "0.252667040988209",
    "sourceurl": "http://www.41nbc.com/news/state-news/28268-fort-benning-soldiers-killed-in-afghanistan-attack",
    "feature_id": "1661377",
    "feature_name": "San Diego",
    "state_alpha": "CA",
    "county_name": "San Diego",
    "county_numeric": "073",
    "prim_lat_dec": "32.7153292",
    "prim_long_dec": "-117.1572551",
    "elev_in_m": "19",
    "elev_in_ft": "62",
    "lat": 32.7153292,
    "long": -117.1572551
  },
  {
    "globaleventid": 270692805,
    "sqldate": 20131008,
    "monthyear": 201310,
    "year": 2013,
    "fractiondate": "2013.7616",
    "eventcode": 190,
    "quadclass": 4,
    "nummentions": 6,
    "numsources": 3,
    "numarticles": 6,
    "avgtone": "4.0040493588095",
    "sourceurl": "http://www.reflector.com/ap/staten/carlisle-man-among-4-soldiers-dead-ied-attack-2186967",
    "feature_id": "1656027",
    "feature_name": "Fort Bragg",
    "state_alpha": "CA",
    "county_name": "Mendocino",
    "county_numeric": "045",
    "prim_lat_dec": "39.445723",
    "prim_long_dec": "-123.8052935",
    "elev_in_m": "26",
    "elev_in_ft": "85",
    "lat": 39.445723,
    "long": -123.8052935
  },
  {
    "globaleventid": 270692804,
    "sqldate": 20131008,
    "monthyear": 201310,
    "year": 2013,
    "fractiondate": "2013.7616",
    "eventcode": 190,
    "quadclass": 4,
    "nummentions": 8,
    "numsources": 1,
    "numarticles": 8,
    "avgtone": "0.0",
    "sourceurl": "http://www.mysanantonio.com/news/article/Carlisle-man-among-4-soldiers-dead-in-IED-attack-4878724.php&c=SxDfvHEhi2HfKtuQIL-JjWTsZLBXUGvR50RrY0nN5Rw&mkt=en-us",
    "feature_id": "1380951",
    "feature_name": "San Antonio",
    "state_alpha": "TX",
    "county_name": "Bexar",
    "county_numeric": "029",
    "prim_lat_dec": "29.4241219",
    "prim_long_dec": "-98.4936282",
    "elev_in_m": "198",
    "elev_in_ft": "650",
    "lat": 29.4241219,
    "long": -98.4936282
  },
  {
    "globaleventid": 270692803,
    "sqldate": 20131008,
    "monthyear": 201310,
    "year": 2013,
    "fractiondate": "2013.7616",
    "eventcode": 190,
    "quadclass": 4,
    "nummentions": 2,
    "numsources": 1,
    "numarticles": 2,
    "avgtone": "0.0",
    "sourceurl": "http://www.witf.org/news/2013/10/-carlisle-soldier-killed-in-afghanistan.php",
    "feature_id": "1147639",
    "feature_name": "Philomath",
    "state_alpha": "OR",
    "county_name": "Benton",
    "county_numeric": "003",
    "prim_lat_dec": "44.540121",
    "prim_long_dec": "-123.3676014",
    "elev_in_m": "86",
    "elev_in_ft": "282",
    "lat": 44.540121,
    "long": -123.3676014
  },
  {
    "globaleventid": 270692802,
    "sqldate": 20131008,
    "monthyear": 201310,
    "year": 2013,
    "fractiondate": "2013.7616",
    "eventcode": 190,
    "quadclass": 4,
    "nummentions": 2,
    "numsources": 1,
    "numarticles": 2,
    "avgtone": "0.813008130081301",
    "sourceurl": "http://www.wlwt.com/news/local-news/cincinnati/shutdown-affects-grieving-military-families-financially/-/13549970/22343972/-/ekr3f3z/-/index.html",
    "feature_id": "1066650",
    "feature_name": "Cincinnati",
    "state_alpha": "OH",
    "county_name": "Hamilton",
    "county_numeric": "061",
    "prim_lat_dec": "39.1620036",
    "prim_long_dec": "-84.4568863",
    "elev_in_m": "191",
    "elev_in_ft": "627",
    "lat": 39.1620036,
    "long": -84.4568863
  },
  {
    "globaleventid": 270692788,
    "sqldate": 20131008,
    "monthyear": 201310,
    "year": 2013,
    "fractiondate": "2013.7616",
    "eventcode": 140,
    "quadclass": 3,
    "nummentions": 2,
    "numsources": 1,
    "numarticles": 2,
    "avgtone": "2.25442834138486",
    "sourceurl": "http://www.infozine.com/news/stories/op/storiesView/sid/57230/",
    "feature_id": "531871",
    "feature_name": "Washington",
    "state_alpha": "DC",
    "county_name": "District of Columbia",
    "county_numeric": "001",
    "prim_lat_dec": "38.8951118",
    "prim_long_dec": "-77.0363658",
    "elev_in_m": "7",
    "elev_in_ft": "23",
    "lat": 38.8951118,
    "long": -77.0363658
  },
  {
    "globaleventid": 270692647,
    "sqldate": 20131008,
    "monthyear": 201310,
    "year": 2013,
    "fractiondate": "2013.7616",
    "eventcode": 190,
    "quadclass": 4,
    "nummentions": 14,
    "numsources": 4,
    "numarticles": 14,
    "avgtone": "2.95726329232161",
    "sourceurl": "http://www.utsandiego.com/news/2013/oct/08/madigan-army-nurse-killed-in-afghanistan/",
    "feature_id": "1661377",
    "feature_name": "San Diego",
    "state_alpha": "CA",
    "county_name": "San Diego",
    "county_numeric": "073",
    "prim_lat_dec": "32.7153292",
    "prim_long_dec": "-117.1572551",
    "elev_in_m": "19",
    "elev_in_ft": "62",
    "lat": 32.7153292,
    "long": -117.1572551
  },
  {
    "globaleventid": 270692645,
    "sqldate": 20131008,
    "monthyear": 201310,
    "year": 2013,
    "fractiondate": "2013.7616",
    "eventcode": 190,
    "quadclass": 4,
    "nummentions": 10,
    "numsources": 1,
    "numarticles": 10,
    "avgtone": "1.52284263959391",
    "sourceurl": "http://www.ctpost.com/news/article/Madigan-Army-nurse-killed-in-Afghanistan-4878190.php",
    "feature_id": "1147639",
    "feature_name": "Philomath",
    "state_alpha": "OR",
    "county_name": "Benton",
    "county_numeric": "003",
    "prim_lat_dec": "44.540121",
    "prim_long_dec": "-123.3676014",
    "elev_in_m": "86",
    "elev_in_ft": "282",
    "lat": 44.540121,
    "long": -123.3676014
  },
  {
    "globaleventid": 270692625,
    "sqldate": 20131008,
    "monthyear": 201310,
    "year": 2013,
    "fractiondate": "2013.7616",
    "eventcode": 190,
    "quadclass": 4,
    "nummentions": 2,
    "numsources": 1,
    "numarticles": 2,
    "avgtone": "5.06666666666667",
    "sourceurl": "http://www.pennlive.com/midstate/index.ssf/2013/10/military_death_benefits_pennsy.html",
    "feature_id": "531871",
    "feature_name": "Washington",
    "state_alpha": "DC",
    "county_name": "District of Columbia",
    "county_numeric": "001",
    "prim_lat_dec": "38.8951118",
    "prim_long_dec": "-77.0363658",
    "elev_in_m": "7",
    "elev_in_ft": "23",
    "lat": 38.8951118,
    "long": -77.0363658
  },
  {
    "globaleventid": 270692624,
    "sqldate": 20131008,
    "monthyear": 201310,
    "year": 2013,
    "fractiondate": "2013.7616",
    "eventcode": 190,
    "quadclass": 4,
    "nummentions": 2,
    "numsources": 1,
    "numarticles": 2,
    "avgtone": "3.9622641509434",
    "sourceurl": "http://www.pennlive.com/midstate/index.ssf/2013/10/army_ranger_carlisle_killed_af.html",
    "feature_id": "355875",
    "feature_name": "Fort Benning",
    "state_alpha": "GA",
    "county_name": "Chattahoochee",
    "county_numeric": "053",
    "prim_lat_dec": "32.3523691",
    "prim_long_dec": "-84.9688191",
    "elev_in_m": "94",
    "elev_in_ft": "308",
    "lat": 32.3523691,
    "long": -84.9688191
  },
  {
    "globaleventid": 270692622,
    "sqldate": 20131008,
    "monthyear": 201310,
    "year": 2013,
    "fractiondate": "2013.7616",
    "eventcode": 190,
    "quadclass": 4,
    "nummentions": 4,
    "numsources": 1,
    "numarticles": 4,
    "avgtone": "3.9622641509434",
    "sourceurl": "http://www.pennlive.com/midstate/index.ssf/2013/10/army_ranger_carlisle_killed_af.html",
    "feature_id": "355875",
    "feature_name": "Fort Benning",
    "state_alpha": "GA",
    "county_name": "Chattahoochee",
    "county_numeric": "053",
    "prim_lat_dec": "32.3523691",
    "prim_long_dec": "-84.9688191",
    "elev_in_m": "94",
    "elev_in_ft": "308",
    "lat": 32.3523691,
    "long": -84.9688191
  },
  {
    "globaleventid": 270692620,
    "sqldate": 20131008,
    "monthyear": 201310,
    "year": 2013,
    "fractiondate": "2013.7616",
    "eventcode": 190,
    "quadclass": 4,
    "nummentions": 6,
    "numsources": 2,
    "numarticles": 6,
    "avgtone": "0.0",
    "sourceurl": "http://www.mercurynews.com/california/ci_24264426/fort-benning-soldiers-killed-afghanistan-attack&c=6Pr2xlY1p49bH09cQRb9Z6OsfEcohNZiSjyHPH2C0YI&mkt=en-us",
    "feature_id": "1661377",
    "feature_name": "San Diego",
    "state_alpha": "CA",
    "county_name": "San Diego",
    "county_numeric": "073",
    "prim_lat_dec": "32.7153292",
    "prim_long_dec": "-117.1572551",
    "elev_in_m": "19",
    "elev_in_ft": "62",
    "lat": 32.7153292,
    "long": -117.1572551
  },
  {
    "globaleventid": 270692619,
    "sqldate": 20131008,
    "monthyear": 201310,
    "year": 2013,
    "fractiondate": "2013.7616",
    "eventcode": 190,
    "quadclass": 4,
    "nummentions": 4,
    "numsources": 2,
    "numarticles": 4,
    "avgtone": "3.39499319768853",
    "sourceurl": "http://www.wrcbtv.com/story/23641916/i-wont-ever-understand-it-kin-of-fallen-express-grief-anger-over-death-benefits",
    "feature_id": "1661377",
    "feature_name": "San Diego",
    "state_alpha": "CA",
    "county_name": "San Diego",
    "county_numeric": "073",
    "prim_lat_dec": "32.7153292",
    "prim_long_dec": "-117.1572551",
    "elev_in_m": "19",
    "elev_in_ft": "62",
    "lat": 32.7153292,
    "long": -117.1572551
  },
  {
    "globaleventid": 270692618,
    "sqldate": 20131008,
    "monthyear": 201310,
    "year": 2013,
    "fractiondate": "2013.7616",
    "eventcode": 190,
    "quadclass": 4,
    "nummentions": 2,
    "numsources": 1,
    "numarticles": 2,
    "avgtone": "3.27653997378768",
    "sourceurl": "http://usnews.nbcnews.com/_news/2013/10/08/20873039-i-wont-ever-understand-it-kin-of-fallen-express-grief-anger-over-death-benefits?lite",
    "feature_id": "1577901",
    "feature_name": "Milwaukee",
    "state_alpha": "WI",
    "county_name": "Milwaukee",
    "county_numeric": "079",
    "prim_lat_dec": "43.0389025",
    "prim_long_dec": "-87.9064736",
    "elev_in_m": "187",
    "elev_in_ft": "614",
    "lat": 43.0389025,
    "long": -87.9064736
  },
  {
    "globaleventid": 270692580,
    "sqldate": 20131008,
    "monthyear": 201310,
    "year": 2013,
    "fractiondate": "2013.7616",
    "eventcode": 111,
    "quadclass": 3,
    "nummentions": 4,
    "numsources": 1,
    "numarticles": 4,
    "avgtone": "3.11111111111111",
    "sourceurl": "http://www.plenglish.com//index.php?option=com_content&task=view&id=1933941&Itemid=1",
    "feature_id": "531871",
    "feature_name": "Washington",
    "state_alpha": "DC",
    "county_name": "District of Columbia",
    "county_numeric": "001",
    "prim_lat_dec": "38.8951118",
    "prim_long_dec": "-77.0363658",
    "elev_in_m": "7",
    "elev_in_ft": "23",
    "lat": 38.8951118,
    "long": -77.0363658
  },
  {
    "globaleventid": 270692518,
    "sqldate": 20131008,
    "monthyear": 201310,
    "year": 2013,
    "fractiondate": "2013.7616",
    "eventcode": 100,
    "quadclass": 3,
    "nummentions": 2,
    "numsources": 1,
    "numarticles": 2,
    "avgtone": "1.49812734082397",
    "sourceurl": "http://www.socialism.com/drupal-6.8/?q=node/2704",
    "feature_id": "531871",
    "feature_name": "Washington",
    "state_alpha": "DC",
    "county_name": "District of Columbia",
    "county_numeric": "001",
    "prim_lat_dec": "38.8951118",
    "prim_long_dec": "-77.0363658",
    "elev_in_m": "7",
    "elev_in_ft": "23",
    "lat": 38.8951118,
    "long": -77.0363658
  },
  {
    "globaleventid": 270692510,
    "sqldate": 20131008,
    "monthyear": 201310,
    "year": 2013,
    "fractiondate": "2013.7616",
    "eventcode": 190,
    "quadclass": 4,
    "nummentions": 4,
    "numsources": 2,
    "numarticles": 4,
    "avgtone": "2.36149686699137",
    "sourceurl": "http://q13fox.com/2013/10/08/female-nurse-from-jblm-killed-in-afghanistan/",
    "feature_id": "1661377",
    "feature_name": "San Diego",
    "state_alpha": "CA",
    "county_name": "San Diego",
    "county_numeric": "073",
    "prim_lat_dec": "32.7153292",
    "prim_long_dec": "-117.1572551",
    "elev_in_m": "19",
    "elev_in_ft": "62",
    "lat": 32.7153292,
    "long": -117.1572551
  },
  {
    "globaleventid": 270692507,
    "sqldate": 20131008,
    "monthyear": 201310,
    "year": 2013,
    "fractiondate": "2013.7616",
    "eventcode": 190,
    "quadclass": 4,
    "nummentions": 1,
    "numsources": 1,
    "numarticles": 1,
    "avgtone": "3.04259634888438",
    "sourceurl": "http://www.buckslocalnews.com/articles/2013/10/08/bristol_pilot/news/doc52459950579b7689358473.txt",
    "feature_id": "203821",
    "feature_name": "Bristol",
    "state_alpha": "CO",
    "county_name": "Prowers",
    "county_numeric": "099",
    "prim_lat_dec": "38.1222316",
    "prim_long_dec": "-102.3115786",
    "elev_in_m": "1085",
    "elev_in_ft": "3560",
    "lat": 38.1222316,
    "long": -102.3115786
  },
  {
    "globaleventid": 270692506,
    "sqldate": 20131008,
    "monthyear": 201310,
    "year": 2013,
    "fractiondate": "2013.7616",
    "eventcode": 190,
    "quadclass": 4,
    "nummentions": 2,
    "numsources": 1,
    "numarticles": 2,
    "avgtone": "2.63157894736842",
    "sourceurl": "http://www.ctpost.com/news/article/Carlisle-man-among-4-soldiers-dead-in-IED-attack-4879229.php",
    "feature_id": "1656027",
    "feature_name": "Fort Bragg",
    "state_alpha": "CA",
    "county_name": "Mendocino",
    "county_numeric": "045",
    "prim_lat_dec": "39.445723",
    "prim_long_dec": "-123.8052935",
    "elev_in_m": "26",
    "elev_in_ft": "85",
    "lat": 39.445723,
    "long": -123.8052935
  },
  {
    "globaleventid": 270692464,
    "sqldate": 20131008,
    "monthyear": 201310,
    "year": 2013,
    "fractiondate": "2013.7616",
    "eventcode": 190,
    "quadclass": 4,
    "nummentions": 8,
    "numsources": 2,
    "numarticles": 8,
    "avgtone": "8.20744084844694",
    "sourceurl": "http://ca.finance.yahoo.com/news/compass-datacenters-partners-salute-incorporated-115500532.html",
    "feature_id": "1380944",
    "feature_name": "Dallas",
    "state_alpha": "TX",
    "county_name": "Dallas",
    "county_numeric": "113",
    "prim_lat_dec": "32.7830556",
    "prim_long_dec": "-96.8066667",
    "elev_in_m": "128",
    "elev_in_ft": "420",
    "lat": 32.7830556,
    "long": -96.8066667
  },
  {
    "globaleventid": 270823541,
    "sqldate": 20131008,
    "monthyear": 201310,
    "year": 2013,
    "fractiondate": "2013.7616",
    "eventcode": 173,
    "quadclass": 4,
    "nummentions": 1,
    "numsources": 1,
    "numarticles": 1,
    "avgtone": "3.08056872037915",
    "sourceurl": "http://atlantablackstar.com/2013/10/09/rep-lewis-rangel-get-arrested-capital-rallying-immigration-reform/",
    "feature_id": "1380944",
    "feature_name": "Dallas",
    "state_alpha": "TX",
    "county_name": "Dallas",
    "county_numeric": "113",
    "prim_lat_dec": "32.7830556",
    "prim_long_dec": "-96.8066667",
    "elev_in_m": "128",
    "elev_in_ft": "420",
    "lat": 32.7830556,
    "long": -96.8066667
  },
  {
    "globaleventid": 270823280,
    "sqldate": 20131008,
    "monthyear": 201310,
    "year": 2013,
    "fractiondate": "2013.7616",
    "eventcode": 111,
    "quadclass": 3,
    "nummentions": 12,
    "numsources": 1,
    "numarticles": 12,
    "avgtone": "2.12765957446809",
    "sourceurl": "http://ngrguardiannews.com/national-news/135146-why-we-want-to-sell-edo-house-in-lagos-by-oshiomhole&c=ngK8yKRxfqtu1XWgXSVK9K2xwONNbVUxL6I0ji9QBDs&mkt=en-us",
    "feature_id": "531871",
    "feature_name": "Washington",
    "state_alpha": "DC",
    "county_name": "District of Columbia",
    "county_numeric": "001",
    "prim_lat_dec": "38.8951118",
    "prim_long_dec": "-77.0363658",
    "elev_in_m": "7",
    "elev_in_ft": "23",
    "lat": 38.8951118,
    "long": -77.0363658
  },
  {
    "globaleventid": 270823279,
    "sqldate": 20131008,
    "monthyear": 201310,
    "year": 2013,
    "fractiondate": "2013.7616",
    "eventcode": 111,
    "quadclass": 3,
    "nummentions": 18,
    "numsources": 1,
    "numarticles": 18,
    "avgtone": "2.12765957446809",
    "sourceurl": "http://ngrguardiannews.com/national-news/135146-why-we-want-to-sell-edo-house-in-lagos-by-oshiomhole&c=ngK8yKRxfqtu1XWgXSVK9K2xwONNbVUxL6I0ji9QBDs&mkt=en-us",
    "feature_id": "531871",
    "feature_name": "Washington",
    "state_alpha": "DC",
    "county_name": "District of Columbia",
    "county_numeric": "001",
    "prim_lat_dec": "38.8951118",
    "prim_long_dec": "-77.0363658",
    "elev_in_m": "7",
    "elev_in_ft": "23",
    "lat": 38.8951118,
    "long": -77.0363658
  },
  {
    "globaleventid": 270823059,
    "sqldate": 20131008,
    "monthyear": 201310,
    "year": 2013,
    "fractiondate": "2013.7616",
    "eventcode": 120,
    "quadclass": 3,
    "nummentions": 6,
    "numsources": 1,
    "numarticles": 6,
    "avgtone": "4.42477876106195",
    "sourceurl": "http://fcnp.com/2013/10/09/court-dashes-effort-to-block-falls-church-healthcare-suit/",
    "feature_id": "1499957",
    "feature_name": "Richmond",
    "state_alpha": "VA",
    "county_name": "Richmond (city)",
    "county_numeric": "760",
    "prim_lat_dec": "37.5537575",
    "prim_long_dec": "-77.4602617",
    "elev_in_m": "64",
    "elev_in_ft": "210",
    "lat": 37.5537575,
    "long": -77.4602617
  },
  {
    "globaleventid": 270823027,
    "sqldate": 20131008,
    "monthyear": 201310,
    "year": 2013,
    "fractiondate": "2013.7616",
    "eventcode": 173,
    "quadclass": 4,
    "nummentions": 10,
    "numsources": 1,
    "numarticles": 10,
    "avgtone": "3.57142857142857",
    "sourceurl": "http://www.buryfreepress.co.uk/news/local/latest-news/former-speedway-champion-charged-with-rape-1-5562779",
    "feature_id": "617565",
    "feature_name": "Boston",
    "state_alpha": "MA",
    "county_name": "Suffolk",
    "county_numeric": "025",
    "prim_lat_dec": "42.3584308",
    "prim_long_dec": "-71.0597732",
    "elev_in_m": "14",
    "elev_in_ft": "46",
    "lat": 42.3584308,
    "long": -71.0597732
  },
  {
    "globaleventid": 270822835,
    "sqldate": 20131008,
    "monthyear": 201310,
    "year": 2013,
    "fractiondate": "2013.7616",
    "eventcode": 125,
    "quadclass": 3,
    "nummentions": 8,
    "numsources": 1,
    "numarticles": 8,
    "avgtone": "1.93621867881549",
    "sourceurl": "http://www.guardian.co.tt/news/2013-10-09/dr-tim-nightmare-pleasantville-school",
    "feature_id": "214464",
    "feature_name": "Pleasantville",
    "state_alpha": "DE",
    "county_name": "New Castle",
    "county_numeric": "003",
    "prim_lat_dec": "39.6640013",
    "prim_long_dec": "-75.6260388",
    "elev_in_m": "21",
    "elev_in_ft": "69",
    "lat": 39.6640013,
    "long": -75.6260388
  },
  {
    "globaleventid": 270822831,
    "sqldate": 20131008,
    "monthyear": 201310,
    "year": 2013,
    "fractiondate": "2013.7616",
    "eventcode": 125,
    "quadclass": 3,
    "nummentions": 2,
    "numsources": 1,
    "numarticles": 2,
    "avgtone": "1.93621867881549",
    "sourceurl": "http://www.guardian.co.tt/news/2013-10-09/dr-tim-nightmare-pleasantville-school",
    "feature_id": "214464",
    "feature_name": "Pleasantville",
    "state_alpha": "DE",
    "county_name": "New Castle",
    "county_numeric": "003",
    "prim_lat_dec": "39.6640013",
    "prim_long_dec": "-75.6260388",
    "elev_in_m": "21",
    "elev_in_ft": "69",
    "lat": 39.6640013,
    "long": -75.6260388
  },
  {
    "globaleventid": 270822548,
    "sqldate": 20131008,
    "monthyear": 201310,
    "year": 2013,
    "fractiondate": "2013.7616",
    "eventcode": 193,
    "quadclass": 4,
    "nummentions": 4,
    "numsources": 1,
    "numarticles": 4,
    "avgtone": "3.7956204379562",
    "sourceurl": "http://www.belfasttelegraph.co.uk/news/local-national/northern-ireland/new-mi5-chief-andrew-parker-vows-to-beat-northern-irelands-dissident-thugs-and-killers-29644905.html",
    "feature_id": "628449",
    "feature_name": "Hollywood",
    "state_alpha": "MI",
    "county_name": "Berrien",
    "county_numeric": "021",
    "prim_lat_dec": "42.0144877",
    "prim_long_dec": "-86.455853",
    "elev_in_m": "197",
    "elev_in_ft": "646",
    "lat": 42.0144877,
    "long": -86.455853
  },
  {
    "globaleventid": 270822547,
    "sqldate": 20131008,
    "monthyear": 201310,
    "year": 2013,
    "fractiondate": "2013.7616",
    "eventcode": 112,
    "quadclass": 3,
    "nummentions": 4,
    "numsources": 1,
    "numarticles": 4,
    "avgtone": "3.57142857142857",
    "sourceurl": "http://www.buryfreepress.co.uk/news/local/latest-news/former-speedway-champion-charged-with-rape-1-5562779",
    "feature_id": "617565",
    "feature_name": "Boston",
    "state_alpha": "MA",
    "county_name": "Suffolk",
    "county_numeric": "025",
    "prim_lat_dec": "42.3584308",
    "prim_long_dec": "-71.0597732",
    "elev_in_m": "14",
    "elev_in_ft": "46",
    "lat": 42.3584308,
    "long": -71.0597732
  },
  {
    "globaleventid": 270816011,
    "sqldate": 20131008,
    "monthyear": 201310,
    "year": 2013,
    "fractiondate": "2013.7616",
    "eventcode": 112,
    "quadclass": 3,
    "nummentions": 1,
    "numsources": 1,
    "numarticles": 1,
    "avgtone": "0.0",
    "sourceurl": "http://www.tribtown.com/view/story/913b78d4ff424fea8a99a8b807c758f8/NV--Disabled-Discrimination-Nevada-Lawsuit",
    "feature_id": "1852658",
    "feature_name": "Spanish Springs",
    "state_alpha": "NV",
    "county_name": "Washoe",
    "county_numeric": "031",
    "prim_lat_dec": "39.649077",
    "prim_long_dec": "-119.7074096",
    "elev_in_m": "1377",
    "elev_in_ft": "4518",
    "lat": 39.649077,
    "long": -119.7074096
  },
  {
    "globaleventid": 270816010,
    "sqldate": 20131008,
    "monthyear": 201310,
    "year": 2013,
    "fractiondate": "2013.7616",
    "eventcode": 193,
    "quadclass": 4,
    "nummentions": 1,
    "numsources": 1,
    "numarticles": 1,
    "avgtone": "4.36681222707424",
    "sourceurl": "http://www.mynews4.com/news/local/story/Washoe-County-Senior-Services-offers-free-flu/1pkWAs5Y70-6AYsRWSgRiQ.cspx",
    "feature_id": "861100",
    "feature_name": "Reno",
    "state_alpha": "NV",
    "county_name": "Washoe",
    "county_numeric": "031",
    "prim_lat_dec": "39.5296329",
    "prim_long_dec": "-119.8138027",
    "elev_in_m": "1373",
    "elev_in_ft": "4505",
    "lat": 39.5296329,
    "long": -119.8138027
  },
  {
    "globaleventid": 270816009,
    "sqldate": 20131008,
    "monthyear": 201310,
    "year": 2013,
    "fractiondate": "2013.7616",
    "eventcode": 173,
    "quadclass": 4,
    "nummentions": 1,
    "numsources": 1,
    "numarticles": 1,
    "avgtone": "1.29032258064516",
    "sourceurl": "http://blogs.sacbee.com/crime/archives/2013/10/suspect-in-lake-tahoe-area-bank-robberies-arrested-in-reno.html",
    "feature_id": "1659564",
    "feature_name": "Sacramento",
    "state_alpha": "CA",
    "county_name": "Sacramento",
    "county_numeric": "067",
    "prim_lat_dec": "38.5815719",
    "prim_long_dec": "-121.4943996",
    "elev_in_m": "8",
    "elev_in_ft": "26",
    "lat": 38.5815719,
    "long": -121.4943996
  },
  {
    "globaleventid": 270815692,
    "sqldate": 20131008,
    "monthyear": 201310,
    "year": 2013,
    "fractiondate": "2013.7616",
    "eventcode": 193,
    "quadclass": 4,
    "nummentions": 4,
    "numsources": 1,
    "numarticles": 4,
    "avgtone": "3.92156862745098",
    "sourceurl": "http://www.bizjournals.com/albuquerque/news/2013/10/08/navajo-end-horse-roundup-slaughter.html?s=article_search",
    "feature_id": "928679",
    "feature_name": "Albuquerque",
    "state_alpha": "NM",
    "county_name": "Bernalillo",
    "county_numeric": "001",
    "prim_lat_dec": "35.0844909",
    "prim_long_dec": "-106.6511367",
    "elev_in_m": "1510",
    "elev_in_ft": "4954",
    "lat": 35.0844909,
    "long": -106.6511367
  },
  {
    "globaleventid": 270815684,
    "sqldate": 20131008,
    "monthyear": 201310,
    "year": 2013,
    "fractiondate": "2013.7616",
    "eventcode": 193,
    "quadclass": 4,
    "nummentions": 2,
    "numsources": 1,
    "numarticles": 2,
    "avgtone": "3.92156862745098",
    "sourceurl": "http://www.bizjournals.com/albuquerque/news/2013/10/08/navajo-end-horse-roundup-slaughter.html?s=article_search",
    "feature_id": "928679",
    "feature_name": "Albuquerque",
    "state_alpha": "NM",
    "county_name": "Bernalillo",
    "county_numeric": "001",
    "prim_lat_dec": "35.0844909",
    "prim_long_dec": "-106.6511367",
    "elev_in_m": "1510",
    "elev_in_ft": "4954",
    "lat": 35.0844909,
    "long": -106.6511367
  },
  {
    "globaleventid": 270815677,
    "sqldate": 20131008,
    "monthyear": 201310,
    "year": 2013,
    "fractiondate": "2013.7616",
    "eventcode": 190,
    "quadclass": 4,
    "nummentions": 1,
    "numsources": 1,
    "numarticles": 1,
    "avgtone": "2.1437578814628",
    "sourceurl": "http://www.victoriaadvocate.com/news/2013/oct/08/barbado_ew_100913_221937/",
    "feature_id": "1365595",
    "feature_name": "Port Lavaca",
    "state_alpha": "TX",
    "county_name": "Calhoun",
    "county_numeric": "057",
    "prim_lat_dec": "28.6149968",
    "prim_long_dec": "-96.6260892",
    "elev_in_m": "6",
    "elev_in_ft": "20",
    "lat": 28.6149968,
    "long": -96.6260892
  },
  {
    "globaleventid": 270815473,
    "sqldate": 20131008,
    "monthyear": 201310,
    "year": 2013,
    "fractiondate": "2013.7616",
    "eventcode": 173,
    "quadclass": 4,
    "nummentions": 4,
    "numsources": 1,
    "numarticles": 4,
    "avgtone": "0.617283950617284",
    "sourceurl": "http://www.ksfy.com/story/23637846/sioux-falls-man-arrested-for-kidnapping-woman-from-gas-station",
    "feature_id": "1267670",
    "feature_name": "Sioux Falls",
    "state_alpha": "SD",
    "county_name": "Minnehaha",
    "county_numeric": "099",
    "prim_lat_dec": "43.5499749",
    "prim_long_dec": "-96.700327",
    "elev_in_m": "449",
    "elev_in_ft": "1473",
    "lat": 43.5499749,
    "long": -96.700327
  },
  {
    "globaleventid": 270815472,
    "sqldate": 20131008,
    "monthyear": 201310,
    "year": 2013,
    "fractiondate": "2013.7616",
    "eventcode": 112,
    "quadclass": 3,
    "nummentions": 2,
    "numsources": 1,
    "numarticles": 2,
    "avgtone": "0.720288115246098",
    "sourceurl": "http://www.ktiv.com/story/23635655/parents-of-malnourished-boys-make-court-appearance",
    "feature_id": "201738",
    "feature_name": "Denver",
    "state_alpha": "CO",
    "county_name": "Denver",
    "county_numeric": "031",
    "prim_lat_dec": "39.7391536",
    "prim_long_dec": "-104.9847034",
    "elev_in_m": "1609",
    "elev_in_ft": "5279",
    "lat": 39.7391536,
    "long": -104.9847034
  },
  {
    "globaleventid": 270815399,
    "sqldate": 20131008,
    "monthyear": 201310,
    "year": 2013,
    "fractiondate": "2013.7616",
    "eventcode": 112,
    "quadclass": 3,
    "nummentions": 1,
    "numsources": 1,
    "numarticles": 1,
    "avgtone": "1.78837555886736",
    "sourceurl": "http://www.channelafrica.org/portal/site/ChannelAfrica/menuitem.0440eb803775db47ee41ee41674daeb9/?vgnextoid=e56ab4f646291410VgnVCM10000077d4ea9bRCRD&vgnextfmt=default",
    "feature_id": "531871",
    "feature_name": "Washington",
    "state_alpha": "DC",
    "county_name": "District of Columbia",
    "county_numeric": "001",
    "prim_lat_dec": "38.8951118",
    "prim_long_dec": "-77.0363658",
    "elev_in_m": "7",
    "elev_in_ft": "23",
    "lat": 38.8951118,
    "long": -77.0363658
  },
  {
    "globaleventid": 270814422,
    "sqldate": 20131008,
    "monthyear": 201310,
    "year": 2013,
    "fractiondate": "2013.7616",
    "eventcode": 190,
    "quadclass": 4,
    "nummentions": 1,
    "numsources": 1,
    "numarticles": 1,
    "avgtone": "2.00250312891114",
    "sourceurl": "http://articles.philly.com/2013-10-07/news/42766255_1_somber-homecoming-laos-plane",
    "feature_id": "529947",
    "feature_name": "Westchester",
    "state_alpha": "DC",
    "county_name": "District of Columbia",
    "county_numeric": "001",
    "prim_lat_dec": "38.9259445",
    "prim_long_dec": "-77.0797001",
    "elev_in_m": "79",
    "elev_in_ft": "259",
    "lat": 38.9259445,
    "long": -77.0797001
  },
  {
    "globaleventid": 270814239,
    "sqldate": 20131008,
    "monthyear": 201310,
    "year": 2013,
    "fractiondate": "2013.7616",
    "eventcode": 173,
    "quadclass": 4,
    "nummentions": 70,
    "numsources": 6,
    "numarticles": 70,
    "avgtone": "2.11902458963268",
    "sourceurl": "http://www.marshallindependent.com/page/content.detail/id/387798/Vietnam-lets-churches-thrive--but-keeps-control.html?isap=1&nav=5046&c=8JkG_KJzYtfC8a0GqlAh3oMZXSXcCpmOs8aRLKqEGUM&mkt=en-us",
    "feature_id": "531871",
    "feature_name": "Washington",
    "state_alpha": "DC",
    "county_name": "District of Columbia",
    "county_numeric": "001",
    "prim_lat_dec": "38.8951118",
    "prim_long_dec": "-77.0363658",
    "elev_in_m": "7",
    "elev_in_ft": "23",
    "lat": 38.8951118,
    "long": -77.0363658
  },
  {
    "globaleventid": 270814238,
    "sqldate": 20131008,
    "monthyear": 201310,
    "year": 2013,
    "fractiondate": "2013.7616",
    "eventcode": 173,
    "quadclass": 4,
    "nummentions": 9,
    "numsources": 1,
    "numarticles": 9,
    "avgtone": "2.20537560303239",
    "sourceurl": "http://www.charlotteobserver.com/2013/10/08/4373141/vietnam-lets-churches-thrive-but.html",
    "feature_id": "1019610",
    "feature_name": "Charlotte",
    "state_alpha": "NC",
    "county_name": "Mecklenburg",
    "county_numeric": "119",
    "prim_lat_dec": "35.2270869",
    "prim_long_dec": "-80.8431268",
    "elev_in_m": "232",
    "elev_in_ft": "761",
    "lat": 35.2270869,
    "long": -80.8431268
  },
  {
    "globaleventid": 270814064,
    "sqldate": 20131008,
    "monthyear": 201310,
    "year": 2013,
    "fractiondate": "2013.7616",
    "eventcode": 161,
    "quadclass": 4,
    "nummentions": 8,
    "numsources": 1,
    "numarticles": 8,
    "avgtone": "1.63339382940109",
    "sourceurl": "http://www.globalpost.com/dispatch/news/thomson-reuters/130930/venezuela-says-it-expelling-three-us-diplomats-stirring-violenc",
    "feature_id": "531871",
    "feature_name": "Washington",
    "state_alpha": "DC",
    "county_name": "District of Columbia",
    "county_numeric": "001",
    "prim_lat_dec": "38.8951118",
    "prim_long_dec": "-77.0363658",
    "elev_in_m": "7",
    "elev_in_ft": "23",
    "lat": 38.8951118,
    "long": -77.0363658
  },
  {
    "globaleventid": 270814056,
    "sqldate": 20131008,
    "monthyear": 201310,
    "year": 2013,
    "fractiondate": "2013.7616",
    "eventcode": 111,
    "quadclass": 3,
    "nummentions": 3,
    "numsources": 1,
    "numarticles": 3,
    "avgtone": "3.88349514563107",
    "sourceurl": "http://www.timesargus.com/article/20131008/NEWS03/710089916/0/SEARCH",
    "feature_id": "1456556",
    "feature_name": "Brattleboro",
    "state_alpha": "VT",
    "county_name": "Windham",
    "county_numeric": "025",
    "prim_lat_dec": "42.8509152",
    "prim_long_dec": "-72.5578678",
    "elev_in_m": "73",
    "elev_in_ft": "239",
    "lat": 42.8509152,
    "long": -72.5578678
  },
  {
    "globaleventid": 270814021,
    "sqldate": 20131008,
    "monthyear": 201310,
    "year": 2013,
    "fractiondate": "2013.7616",
    "eventcode": 161,
    "quadclass": 4,
    "nummentions": 10,
    "numsources": 1,
    "numarticles": 10,
    "avgtone": "1.71821305841924",
    "sourceurl": "http://www.euronews.com/newswires/2141346-venezuela-says-it-expelling-three-us-diplomats-for-stirring-violence/",
    "feature_id": "531871",
    "feature_name": "Washington",
    "state_alpha": "DC",
    "county_name": "District of Columbia",
    "county_numeric": "001",
    "prim_lat_dec": "38.8951118",
    "prim_long_dec": "-77.0363658",
    "elev_in_m": "7",
    "elev_in_ft": "23",
    "lat": 38.8951118,
    "long": -77.0363658
  },
  {
    "globaleventid": 270813898,
    "sqldate": 20131008,
    "monthyear": 201310,
    "year": 2013,
    "fractiondate": "2013.7616",
    "eventcode": 150,
    "quadclass": 4,
    "nummentions": 4,
    "numsources": 1,
    "numarticles": 4,
    "avgtone": "1.41548709408826",
    "sourceurl": "http://www.charlotteobserver.com/2013/10/07/4372993/pentagon-identifies-target-of.html",
    "feature_id": "946412",
    "feature_name": "Charlotte",
    "state_alpha": "NY",
    "county_name": "Monroe",
    "county_numeric": "055",
    "prim_lat_dec": "43.2550618",
    "prim_long_dec": "-77.6169467",
    "elev_in_m": "82",
    "elev_in_ft": "269",
    "lat": 43.2550618,
    "long": -77.6169467
  },
  {
    "globaleventid": 270813897,
    "sqldate": 20131008,
    "monthyear": 201310,
    "year": 2013,
    "fractiondate": "2013.7616",
    "eventcode": 150,
    "quadclass": 4,
    "nummentions": 4,
    "numsources": 2,
    "numarticles": 4,
    "avgtone": "1.46052304856689",
    "sourceurl": "http://www.mcclatchydc.com/2013/10/07/204646/pentagon-identifies-target-of.html",
    "feature_id": "531871",
    "feature_name": "Washington",
    "state_alpha": "DC",
    "county_name": "District of Columbia",
    "county_numeric": "001",
    "prim_lat_dec": "38.8951118",
    "prim_long_dec": "-77.0363658",
    "elev_in_m": "7",
    "elev_in_ft": "23",
    "lat": 38.8951118,
    "long": -77.0363658
  },
  {
    "globaleventid": 270813768,
    "sqldate": 20131008,
    "monthyear": 201310,
    "year": 2013,
    "fractiondate": "2013.7616",
    "eventcode": 173,
    "quadclass": 4,
    "nummentions": 1,
    "numsources": 1,
    "numarticles": 1,
    "avgtone": "1.4832162373146",
    "sourceurl": "http://www.mcclatchydc.com/2013/10/08/204765/among-thorny-legal-questions-of.html",
    "feature_id": "531871",
    "feature_name": "Washington",
    "state_alpha": "DC",
    "county_name": "District of Columbia",
    "county_numeric": "001",
    "prim_lat_dec": "38.8951118",
    "prim_long_dec": "-77.0363658",
    "elev_in_m": "7",
    "elev_in_ft": "23",
    "lat": 38.8951118,
    "long": -77.0363658
  },
  {
    "globaleventid": 270813767,
    "sqldate": 20131008,
    "monthyear": 201310,
    "year": 2013,
    "fractiondate": "2013.7616",
    "eventcode": 173,
    "quadclass": 4,
    "nummentions": 1,
    "numsources": 1,
    "numarticles": 1,
    "avgtone": "1.19760479041916",
    "sourceurl": "http://www.miamiherald.com/2013/10/08/3678109/among-thorny-legal-questions-of.html",
    "feature_id": "531871",
    "feature_name": "Washington",
    "state_alpha": "DC",
    "county_name": "District of Columbia",
    "county_numeric": "001",
    "prim_lat_dec": "38.8951118",
    "prim_long_dec": "-77.0363658",
    "elev_in_m": "7",
    "elev_in_ft": "23",
    "lat": 38.8951118,
    "long": -77.0363658
  },
  {
    "globaleventid": 270813766,
    "sqldate": 20131008,
    "monthyear": 201310,
    "year": 2013,
    "fractiondate": "2013.7616",
    "eventcode": 173,
    "quadclass": 4,
    "nummentions": 1,
    "numsources": 1,
    "numarticles": 1,
    "avgtone": "2.00826934435913",
    "sourceurl": "http://www.kansascity.com/2013/10/08/4540412/among-thorny-legal-questions-of.html",
    "feature_id": "478635",
    "feature_name": "Kansas City",
    "state_alpha": "KS",
    "county_name": "Wyandotte",
    "county_numeric": "209",
    "prim_lat_dec": "39.1141708",
    "prim_long_dec": "-94.627457",
    "elev_in_m": "265",
    "elev_in_ft": "869",
    "lat": 39.1141708,
    "long": -94.627457
  },
  {
    "globaleventid": 270813750,
    "sqldate": 20131008,
    "monthyear": 201310,
    "year": 2013,
    "fractiondate": "2013.7616",
    "eventcode": 193,
    "quadclass": 4,
    "nummentions": 7,
    "numsources": 3,
    "numarticles": 7,
    "avgtone": "1.22699386503067",
    "sourceurl": "http://www.theage.com.au/comment/black-youth-gun-deaths-exceed-us-lynchings-20131008-2v64v.html",
    "feature_id": "531871",
    "feature_name": "Washington",
    "state_alpha": "DC",
    "county_name": "District of Columbia",
    "county_numeric": "001",
    "prim_lat_dec": "38.8951118",
    "prim_long_dec": "-77.0363658",
    "elev_in_m": "7",
    "elev_in_ft": "23",
    "lat": 38.8951118,
    "long": -77.0363658
  },
  {
    "globaleventid": 270813748,
    "sqldate": 20131008,
    "monthyear": 201310,
    "year": 2013,
    "fractiondate": "2013.7616",
    "eventcode": 193,
    "quadclass": 4,
    "nummentions": 2,
    "numsources": 1,
    "numarticles": 2,
    "avgtone": "2.54777070063694",
    "sourceurl": "http://www.ctpost.com/news/crime/article/NC-Special-Forces-soldier-shot-killed-in-home-4878469.php",
    "feature_id": "1020226",
    "feature_name": "Fayetteville",
    "state_alpha": "NC",
    "county_name": "Cumberland",
    "county_numeric": "051",
    "prim_lat_dec": "35.0526641",
    "prim_long_dec": "-78.8783585",
    "elev_in_m": "31",
    "elev_in_ft": "102",
    "lat": 35.0526641,
    "long": -78.8783585
  },
  {
    "globaleventid": 270813742,
    "sqldate": 20131008,
    "monthyear": 201310,
    "year": 2013,
    "fractiondate": "2013.7616",
    "eventcode": 190,
    "quadclass": 4,
    "nummentions": 65,
    "numsources": 7,
    "numarticles": 65,
    "avgtone": "1.26892503898828",
    "sourceurl": "http://www.washingtonpost.com/world/middle_east/militant-backlash-against-western-interest-feared-after-us-snatched-al-qaida-militant-in-libya/2013/10/07/2b63c732-2f95-11e3-9ddd-bdd3022f66ee_story.html",
    "feature_id": "531871",
    "feature_name": "Washington",
    "state_alpha": "DC",
    "county_name": "District of Columbia",
    "county_numeric": "001",
    "prim_lat_dec": "38.8951118",
    "prim_long_dec": "-77.0363658",
    "elev_in_m": "7",
    "elev_in_ft": "23",
    "lat": 38.8951118,
    "long": -77.0363658
  },
  {
    "globaleventid": 270813735,
    "sqldate": 20131008,
    "monthyear": 201310,
    "year": 2013,
    "fractiondate": "2013.7616",
    "eventcode": 173,
    "quadclass": 4,
    "nummentions": 1,
    "numsources": 1,
    "numarticles": 1,
    "avgtone": "3.00632911392405",
    "sourceurl": "http://www.mlive.com/news/jackson/index.ssf/2013/10/neighborhood_where_joel_krutsc.html",
    "feature_id": "590672",
    "feature_name": "Linthicum Heights",
    "state_alpha": "MD",
    "county_name": "Anne Arundel",
    "county_numeric": "003",
    "prim_lat_dec": "39.203441",
    "prim_long_dec": "-76.6621904",
    "elev_in_m": "53",
    "elev_in_ft": "174",
    "lat": 39.203441,
    "long": -76.6621904
  },
  {
    "globaleventid": 270813734,
    "sqldate": 20131008,
    "monthyear": 201310,
    "year": 2013,
    "fractiondate": "2013.7616",
    "eventcode": 173,
    "quadclass": 4,
    "nummentions": 1,
    "numsources": 1,
    "numarticles": 1,
    "avgtone": "3.00632911392405",
    "sourceurl": "http://www.mlive.com/news/jackson/index.ssf/2013/10/neighborhood_where_joel_krutsc.html",
    "feature_id": "590672",
    "feature_name": "Linthicum Heights",
    "state_alpha": "MD",
    "county_name": "Anne Arundel",
    "county_numeric": "003",
    "prim_lat_dec": "39.203441",
    "prim_long_dec": "-76.6621904",
    "elev_in_m": "53",
    "elev_in_ft": "174",
    "lat": 39.203441,
    "long": -76.6621904
  },
  {
    "globaleventid": 270813733,
    "sqldate": 20131008,
    "monthyear": 201310,
    "year": 2013,
    "fractiondate": "2013.7616",
    "eventcode": 173,
    "quadclass": 4,
    "nummentions": 293,
    "numsources": 49,
    "numarticles": 293,
    "avgtone": "2.0678571837585",
    "sourceurl": "http://www.whbf.com/story/23634636/libya-prime-minister-says-us-raid-wont-hurt-ties",
    "feature_id": "531871",
    "feature_name": "Washington",
    "state_alpha": "DC",
    "county_name": "District of Columbia",
    "county_numeric": "001",
    "prim_lat_dec": "38.8951118",
    "prim_long_dec": "-77.0363658",
    "elev_in_m": "7",
    "elev_in_ft": "23",
    "lat": 38.8951118,
    "long": -77.0363658
  },
  {
    "globaleventid": 270813730,
    "sqldate": 20131008,
    "monthyear": 201310,
    "year": 2013,
    "fractiondate": "2013.7616",
    "eventcode": 173,
    "quadclass": 4,
    "nummentions": 2,
    "numsources": 1,
    "numarticles": 2,
    "avgtone": "1.45423438836612",
    "sourceurl": "http://www.rep-am.com/articles/2013/10/08/news/national/755527.txt",
    "feature_id": "1380951",
    "feature_name": "San Antonio",
    "state_alpha": "TX",
    "county_name": "Bexar",
    "county_numeric": "029",
    "prim_lat_dec": "29.4241219",
    "prim_long_dec": "-98.4936282",
    "elev_in_m": "198",
    "elev_in_ft": "650",
    "lat": 29.4241219,
    "long": -98.4936282
  },
  {
    "globaleventid": 270813729,
    "sqldate": 20131008,
    "monthyear": 201310,
    "year": 2013,
    "fractiondate": "2013.7616",
    "eventcode": 173,
    "quadclass": 4,
    "nummentions": 2,
    "numsources": 1,
    "numarticles": 2,
    "avgtone": "1.45423438836612",
    "sourceurl": "http://www.rep-am.com/articles/2013/10/08/news/national/755527.txt",
    "feature_id": "1380951",
    "feature_name": "San Antonio",
    "state_alpha": "TX",
    "county_name": "Bexar",
    "county_numeric": "029",
    "prim_lat_dec": "29.4241219",
    "prim_long_dec": "-98.4936282",
    "elev_in_m": "198",
    "elev_in_ft": "650",
    "lat": 29.4241219,
    "long": -98.4936282
  },
  {
    "globaleventid": 270813728,
    "sqldate": 20131008,
    "monthyear": 201310,
    "year": 2013,
    "fractiondate": "2013.7616",
    "eventcode": 173,
    "quadclass": 4,
    "nummentions": 1,
    "numsources": 1,
    "numarticles": 1,
    "avgtone": "1.63727959697733",
    "sourceurl": "http://www.lakewyliepilot.com/2013/10/05/2104021/pentagon-confirms-us-troops-snatched.html",
    "feature_id": "1233775",
    "feature_name": "Lake Wylie",
    "state_alpha": "SC",
    "county_name": "York",
    "county_numeric": "091",
    "prim_lat_dec": "35.108476",
    "prim_long_dec": "-81.0428538",
    "elev_in_m": "179",
    "elev_in_ft": "587",
    "lat": 35.108476,
    "long": -81.0428538
  },
  {
    "globaleventid": 270813723,
    "sqldate": 20131008,
    "monthyear": 201310,
    "year": 2013,
    "fractiondate": "2013.7616",
    "eventcode": 160,
    "quadclass": 4,
    "nummentions": 20,
    "numsources": 1,
    "numarticles": 20,
    "avgtone": "2.59009009009009",
    "sourceurl": "http://www.abs-cbnnews.com/nation/regions/10/08/13/eco-groups-oppose-increased-us-military-presence",
    "feature_id": "531871",
    "feature_name": "Washington",
    "state_alpha": "DC",
    "county_name": "District of Columbia",
    "county_numeric": "001",
    "prim_lat_dec": "38.8951118",
    "prim_long_dec": "-77.0363658",
    "elev_in_m": "7",
    "elev_in_ft": "23",
    "lat": 38.8951118,
    "long": -77.0363658
  },
  {
    "globaleventid": 270813716,
    "sqldate": 20131008,
    "monthyear": 201310,
    "year": 2013,
    "fractiondate": "2013.7616",
    "eventcode": 112,
    "quadclass": 3,
    "nummentions": 8,
    "numsources": 1,
    "numarticles": 8,
    "avgtone": "1.31578947368421",
    "sourceurl": "http://www.wkyc.com/news/article/317143/3/100M-charity-fraud-case-begins",
    "feature_id": "1066654",
    "feature_name": "Cleveland",
    "state_alpha": "OH",
    "county_name": "Cuyahoga",
    "county_numeric": "035",
    "prim_lat_dec": "41.4994954",
    "prim_long_dec": "-81.6954088",
    "elev_in_m": "199",
    "elev_in_ft": "653",
    "lat": 41.4994954,
    "long": -81.6954088
  },
  {
    "globaleventid": 270813663,
    "sqldate": 20131008,
    "monthyear": 201310,
    "year": 2013,
    "fractiondate": "2013.7616",
    "eventcode": 190,
    "quadclass": 4,
    "nummentions": 2,
    "numsources": 1,
    "numarticles": 2,
    "avgtone": "4.3956043956044",
    "sourceurl": "http://www.mountainhome.af.mil/news/story.asp?id=123366197&c=Q00zAt5u0VppPc-_TXxBTcF__fbVzmEe_uaT7yN1HZ4&mkt=en-us",
    "feature_id": "374044",
    "feature_name": "Mountain Home",
    "state_alpha": "ID",
    "county_name": "Elmore",
    "county_numeric": "039",
    "prim_lat_dec": "43.1329504",
    "prim_long_dec": "-115.6911975",
    "elev_in_m": "959",
    "elev_in_ft": "3146",
    "lat": 43.1329504,
    "long": -115.6911975
  },
  {
    "globaleventid": 270813660,
    "sqldate": 20131008,
    "monthyear": 201310,
    "year": 2013,
    "fractiondate": "2013.7616",
    "eventcode": 173,
    "quadclass": 4,
    "nummentions": 16,
    "numsources": 1,
    "numarticles": 16,
    "avgtone": "1.47058823529412",
    "sourceurl": "http://www.thefrontierpost.com/article/46744/",
    "feature_id": "1422736",
    "feature_name": "Indian",
    "state_alpha": "AK",
    "county_name": "Anchorage",
    "county_numeric": "020",
    "prim_lat_dec": "60.9872222",
    "prim_long_dec": "-149.5136111",
    "elev_in_m": "18",
    "elev_in_ft": "59",
    "lat": 60.9872222,
    "long": -149.5136111
  },
  {
    "globaleventid": 270813631,
    "sqldate": 20131008,
    "monthyear": 201310,
    "year": 2013,
    "fractiondate": "2013.7616",
    "eventcode": 173,
    "quadclass": 4,
    "nummentions": 36,
    "numsources": 6,
    "numarticles": 36,
    "avgtone": "1.22987765567916",
    "sourceurl": "http://www.washingtonpost.com/world/middle_east/militant-backlash-against-western-interest-feared-after-us-snatched-al-qaida-militant-in-libya/2013/10/07/2b63c732-2f95-11e3-9ddd-bdd3022f66ee_story.html",
    "feature_id": "531871",
    "feature_name": "Washington",
    "state_alpha": "DC",
    "county_name": "District of Columbia",
    "county_numeric": "001",
    "prim_lat_dec": "38.8951118",
    "prim_long_dec": "-77.0363658",
    "elev_in_m": "7",
    "elev_in_ft": "23",
    "lat": 38.8951118,
    "long": -77.0363658
  },
  {
    "globaleventid": 270813630,
    "sqldate": 20131008,
    "monthyear": 201310,
    "year": 2013,
    "fractiondate": "2013.7616",
    "eventcode": 173,
    "quadclass": 4,
    "nummentions": 6,
    "numsources": 1,
    "numarticles": 6,
    "avgtone": "1.45423438836612",
    "sourceurl": "http://www.rep-am.com/articles/2013/10/08/news/national/755527.txt",
    "feature_id": "1380951",
    "feature_name": "San Antonio",
    "state_alpha": "TX",
    "county_name": "Bexar",
    "county_numeric": "029",
    "prim_lat_dec": "29.4241219",
    "prim_long_dec": "-98.4936282",
    "elev_in_m": "198",
    "elev_in_ft": "650",
    "lat": 29.4241219,
    "long": -98.4936282
  },
  {
    "globaleventid": 270813629,
    "sqldate": 20131008,
    "monthyear": 201310,
    "year": 2013,
    "fractiondate": "2013.7616",
    "eventcode": 110,
    "quadclass": 3,
    "nummentions": 10,
    "numsources": 2,
    "numarticles": 10,
    "avgtone": "3.77411955829832",
    "sourceurl": "http://www.dailyfinance.com/2013/10/08/are-t-mobile-and-sprint-preparing-for-a-combinatio/",
    "feature_id": "1380944",
    "feature_name": "Dallas",
    "state_alpha": "TX",
    "county_name": "Dallas",
    "county_numeric": "113",
    "prim_lat_dec": "32.7830556",
    "prim_long_dec": "-96.8066667",
    "elev_in_m": "128",
    "elev_in_ft": "420",
    "lat": 32.7830556,
    "long": -96.8066667
  },
  {
    "globaleventid": 270813601,
    "sqldate": 20131008,
    "monthyear": 201310,
    "year": 2013,
    "fractiondate": "2013.7616",
    "eventcode": 173,
    "quadclass": 4,
    "nummentions": 2,
    "numsources": 1,
    "numarticles": 2,
    "avgtone": "1.74174174174174",
    "sourceurl": "http://www.pbs.org/newshour/bb/terrorism/july-dec13/terrorism_10-08.html",
    "feature_id": "531871",
    "feature_name": "Washington",
    "state_alpha": "DC",
    "county_name": "District of Columbia",
    "county_numeric": "001",
    "prim_lat_dec": "38.8951118",
    "prim_long_dec": "-77.0363658",
    "elev_in_m": "7",
    "elev_in_ft": "23",
    "lat": 38.8951118,
    "long": -77.0363658
  },
  {
    "globaleventid": 270813592,
    "sqldate": 20131008,
    "monthyear": 201310,
    "year": 2013,
    "fractiondate": "2013.7616",
    "eventcode": 173,
    "quadclass": 4,
    "nummentions": 1,
    "numsources": 1,
    "numarticles": 1,
    "avgtone": "1.4832162373146",
    "sourceurl": "http://www.mcclatchydc.com/2013/10/08/204765/among-thorny-legal-questions-of.html",
    "feature_id": "531871",
    "feature_name": "Washington",
    "state_alpha": "DC",
    "county_name": "District of Columbia",
    "county_numeric": "001",
    "prim_lat_dec": "38.8951118",
    "prim_long_dec": "-77.0363658",
    "elev_in_m": "7",
    "elev_in_ft": "23",
    "lat": 38.8951118,
    "long": -77.0363658
  },
  {
    "globaleventid": 270813591,
    "sqldate": 20131008,
    "monthyear": 201310,
    "year": 2013,
    "fractiondate": "2013.7616",
    "eventcode": 173,
    "quadclass": 4,
    "nummentions": 2,
    "numsources": 2,
    "numarticles": 2,
    "avgtone": "1.20608984460229",
    "sourceurl": "http://www.stripes.com/news/law-experts-groups-question-legality-of-us-seizure-of-al-qaida-suspect-1.245964",
    "feature_id": "531871",
    "feature_name": "Washington",
    "state_alpha": "DC",
    "county_name": "District of Columbia",
    "county_numeric": "001",
    "prim_lat_dec": "38.8951118",
    "prim_long_dec": "-77.0363658",
    "elev_in_m": "7",
    "elev_in_ft": "23",
    "lat": 38.8951118,
    "long": -77.0363658
  },
  {
    "globaleventid": 270813588,
    "sqldate": 20131008,
    "monthyear": 201310,
    "year": 2013,
    "fractiondate": "2013.7616",
    "eventcode": 173,
    "quadclass": 4,
    "nummentions": 1,
    "numsources": 1,
    "numarticles": 1,
    "avgtone": "2.00826934435913",
    "sourceurl": "http://www.kansascity.com/2013/10/08/4540412/among-thorny-legal-questions-of.html",
    "feature_id": "478635",
    "feature_name": "Kansas City",
    "state_alpha": "KS",
    "county_name": "Wyandotte",
    "county_numeric": "209",
    "prim_lat_dec": "39.1141708",
    "prim_long_dec": "-94.627457",
    "elev_in_m": "265",
    "elev_in_ft": "869",
    "lat": 39.1141708,
    "long": -94.627457
  },
  {
    "globaleventid": 270813555,
    "sqldate": 20131008,
    "monthyear": 201310,
    "year": 2013,
    "fractiondate": "2013.7616",
    "eventcode": 190,
    "quadclass": 4,
    "nummentions": 10,
    "numsources": 2,
    "numarticles": 10,
    "avgtone": "1.48930369127517",
    "sourceurl": "http://www.eurasiareview.com/08102013-us-moves-marines-italy-situation-libya-becomes-tense/",
    "feature_id": "1380951",
    "feature_name": "San Antonio",
    "state_alpha": "TX",
    "county_name": "Bexar",
    "county_numeric": "029",
    "prim_lat_dec": "29.4241219",
    "prim_long_dec": "-98.4936282",
    "elev_in_m": "198",
    "elev_in_ft": "650",
    "lat": 29.4241219,
    "long": -98.4936282
  },
  {
    "globaleventid": 270813548,
    "sqldate": 20131008,
    "monthyear": 201310,
    "year": 2013,
    "fractiondate": "2013.7616",
    "eventcode": 190,
    "quadclass": 4,
    "nummentions": 2,
    "numsources": 1,
    "numarticles": 2,
    "avgtone": "3.24324324324324",
    "sourceurl": "http://www.miamiherald.com/2013/10/08/3677636/gop-to-obama-send-libyan-suspect.html",
    "feature_id": "529313",
    "feature_name": "Capitol Hill",
    "state_alpha": "DC",
    "county_name": "District of Columbia",
    "county_numeric": "001",
    "prim_lat_dec": "38.8890009",
    "prim_long_dec": "-77.0002537",
    "elev_in_m": "28",
    "elev_in_ft": "92",
    "lat": 38.8890009,
    "long": -77.0002537
  },
  {
    "globaleventid": 270813547,
    "sqldate": 20131008,
    "monthyear": 201310,
    "year": 2013,
    "fractiondate": "2013.7616",
    "eventcode": 173,
    "quadclass": 4,
    "nummentions": 10,
    "numsources": 1,
    "numarticles": 10,
    "avgtone": "3.71621621621622",
    "sourceurl": "http://www.sify.com/news/10-things-to-know-for-monday-news-others-nkiiJjiihhh.html",
    "feature_id": "617565",
    "feature_name": "Boston",
    "state_alpha": "MA",
    "county_name": "Suffolk",
    "county_numeric": "025",
    "prim_lat_dec": "42.3584308",
    "prim_long_dec": "-71.0597732",
    "elev_in_m": "14",
    "elev_in_ft": "46",
    "lat": 42.3584308,
    "long": -71.0597732
  },
  {
    "globaleventid": 270813504,
    "sqldate": 20131008,
    "monthyear": 201310,
    "year": 2013,
    "fractiondate": "2013.7616",
    "eventcode": 190,
    "quadclass": 4,
    "nummentions": 10,
    "numsources": 1,
    "numarticles": 10,
    "avgtone": "0.99009900990099",
    "sourceurl": "http://www.tulsaworld.com/news/libya-bristles-at-u-s-raid-that-captured-militant/article_a6a0a5cf-b8e1-58e5-9587-8def14da68c3.html",
    "feature_id": "531871",
    "feature_name": "Washington",
    "state_alpha": "DC",
    "county_name": "District of Columbia",
    "county_numeric": "001",
    "prim_lat_dec": "38.8951118",
    "prim_long_dec": "-77.0363658",
    "elev_in_m": "7",
    "elev_in_ft": "23",
    "lat": 38.8951118,
    "long": -77.0363658
  },
  {
    "globaleventid": 270813436,
    "sqldate": 20131008,
    "monthyear": 201310,
    "year": 2013,
    "fractiondate": "2013.7616",
    "eventcode": 130,
    "quadclass": 3,
    "nummentions": 34,
    "numsources": 3,
    "numarticles": 34,
    "avgtone": "1.19841905213836",
    "sourceurl": "http://www.reuters.com/article/2013/10/08/us-usa-fiscal-obama-idUSBRE9970VA20131008",
    "feature_id": "531871",
    "feature_name": "Washington",
    "state_alpha": "DC",
    "county_name": "District of Columbia",
    "county_numeric": "001",
    "prim_lat_dec": "38.8951118",
    "prim_long_dec": "-77.0363658",
    "elev_in_m": "7",
    "elev_in_ft": "23",
    "lat": 38.8951118,
    "long": -77.0363658
  },
  {
    "globaleventid": 270813430,
    "sqldate": 20131008,
    "monthyear": 201310,
    "year": 2013,
    "fractiondate": "2013.7616",
    "eventcode": 145,
    "quadclass": 3,
    "nummentions": 14,
    "numsources": 1,
    "numarticles": 14,
    "avgtone": "0.497512437810945",
    "sourceurl": "http://www.reuters.com/article/2013/10/08/us-usa-selfimmolation-idUSBRE9970E520131008",
    "feature_id": "531871",
    "feature_name": "Washington",
    "state_alpha": "DC",
    "county_name": "District of Columbia",
    "county_numeric": "001",
    "prim_lat_dec": "38.8951118",
    "prim_long_dec": "-77.0363658",
    "elev_in_m": "7",
    "elev_in_ft": "23",
    "lat": 38.8951118,
    "long": -77.0363658
  },
  {
    "globaleventid": 270813364,
    "sqldate": 20131008,
    "monthyear": 201310,
    "year": 2013,
    "fractiondate": "2013.7616",
    "eventcode": 173,
    "quadclass": 4,
    "nummentions": 6,
    "numsources": 1,
    "numarticles": 6,
    "avgtone": "0.873362445414847",
    "sourceurl": "http://www.vision.org/visionmedia/visionvideos.aspx?id=74943",
    "feature_id": "531871",
    "feature_name": "Washington",
    "state_alpha": "DC",
    "county_name": "District of Columbia",
    "county_numeric": "001",
    "prim_lat_dec": "38.8951118",
    "prim_long_dec": "-77.0363658",
    "elev_in_m": "7",
    "elev_in_ft": "23",
    "lat": 38.8951118,
    "long": -77.0363658
  },
  {
    "globaleventid": 270813363,
    "sqldate": 20131008,
    "monthyear": 201310,
    "year": 2013,
    "fractiondate": "2013.7616",
    "eventcode": 173,
    "quadclass": 4,
    "nummentions": 10,
    "numsources": 1,
    "numarticles": 10,
    "avgtone": "1.83150183150183",
    "sourceurl": "http://uk.reuters.com/article/2013/10/08/oukoe-uk-usa-crime-jackson-idUKBRE98J0R520131008",
    "feature_id": "423587",
    "feature_name": "Chicago",
    "state_alpha": "IL",
    "county_name": "Cook",
    "county_numeric": "031",
    "prim_lat_dec": "41.850033",
    "prim_long_dec": "-87.6500523",
    "elev_in_m": "179",
    "elev_in_ft": "587",
    "lat": 41.850033,
    "long": -87.6500523
  },
  {
    "globaleventid": 270813362,
    "sqldate": 20131008,
    "monthyear": 201310,
    "year": 2013,
    "fractiondate": "2013.7616",
    "eventcode": 173,
    "quadclass": 4,
    "nummentions": 2,
    "numsources": 1,
    "numarticles": 2,
    "avgtone": "0.0",
    "sourceurl": "http://www.kionrightnow.com/story/23642720/alleged-silk-road-chief-due-in-court-amid-arrests",
    "feature_id": "277593",
    "feature_name": "San Francisco",
    "state_alpha": "CA",
    "county_name": "San Francisco",
    "county_numeric": "075",
    "prim_lat_dec": "37.775",
    "prim_long_dec": "-122.4194444",
    "elev_in_m": "16",
    "elev_in_ft": "52",
    "lat": 37.775,
    "long": -122.4194444
  },
  {
    "globaleventid": 270813356,
    "sqldate": 20131008,
    "monthyear": 201310,
    "year": 2013,
    "fractiondate": "2013.7616",
    "eventcode": 162,
    "quadclass": 4,
    "nummentions": 2,
    "numsources": 1,
    "numarticles": 2,
    "avgtone": "2.02702702702703",
    "sourceurl": "http://www.thedailybeast.com/cheats/2013/10/08/u-s-to-suspend-egypt-aid.html",
    "feature_id": "531871",
    "feature_name": "Washington",
    "state_alpha": "DC",
    "county_name": "District of Columbia",
    "county_numeric": "001",
    "prim_lat_dec": "38.8951118",
    "prim_long_dec": "-77.0363658",
    "elev_in_m": "7",
    "elev_in_ft": "23",
    "lat": 38.8951118,
    "long": -77.0363658
  },
  {
    "globaleventid": 270813352,
    "sqldate": 20131008,
    "monthyear": 201310,
    "year": 2013,
    "fractiondate": "2013.7616",
    "eventcode": 130,
    "quadclass": 3,
    "nummentions": 2,
    "numsources": 1,
    "numarticles": 2,
    "avgtone": "4.8689138576779",
    "sourceurl": "http://www.charismanews.com/us/41289-justice-scalia-devil-at-work-in-us-society",
    "feature_id": "531871",
    "feature_name": "Washington",
    "state_alpha": "DC",
    "county_name": "District of Columbia",
    "county_numeric": "001",
    "prim_lat_dec": "38.8951118",
    "prim_long_dec": "-77.0363658",
    "elev_in_m": "7",
    "elev_in_ft": "23",
    "lat": 38.8951118,
    "long": -77.0363658
  },
  {
    "globaleventid": 270813348,
    "sqldate": 20131008,
    "monthyear": 201310,
    "year": 2013,
    "fractiondate": "2013.7616",
    "eventcode": 112,
    "quadclass": 3,
    "nummentions": 18,
    "numsources": 8,
    "numarticles": 16,
    "avgtone": "0.712291607682361",
    "sourceurl": "http://www.kltv.com/story/23635655/denver-parents-accused-of-keeping-4-boys-in-filth?t=2013-10-08T20:42:57Z",
    "feature_id": "201738",
    "feature_name": "Denver",
    "state_alpha": "CO",
    "county_name": "Denver",
    "county_numeric": "031",
    "prim_lat_dec": "39.7391536",
    "prim_long_dec": "-104.9847034",
    "elev_in_m": "1609",
    "elev_in_ft": "5279",
    "lat": 39.7391536,
    "long": -104.9847034
  },
  {
    "globaleventid": 270813344,
    "sqldate": 20131008,
    "monthyear": 201310,
    "year": 2013,
    "fractiondate": "2013.7616",
    "eventcode": 111,
    "quadclass": 3,
    "nummentions": 2,
    "numsources": 1,
    "numarticles": 2,
    "avgtone": "1.77353342428377",
    "sourceurl": "http://www.bdlive.co.za/world/americas/2013/10/08/feds-fisher-decries-us-flirtation-with-default",
    "feature_id": "1380944",
    "feature_name": "Dallas",
    "state_alpha": "TX",
    "county_name": "Dallas",
    "county_numeric": "113",
    "prim_lat_dec": "32.7830556",
    "prim_long_dec": "-96.8066667",
    "elev_in_m": "128",
    "elev_in_ft": "420",
    "lat": 32.7830556,
    "long": -96.8066667
  },
  {
    "globaleventid": 270813342,
    "sqldate": 20131008,
    "monthyear": 201310,
    "year": 2013,
    "fractiondate": "2013.7616",
    "eventcode": 110,
    "quadclass": 3,
    "nummentions": 106,
    "numsources": 13,
    "numarticles": 106,
    "avgtone": "0.767211150429227",
    "sourceurl": "http://muscatinejournal.com/news/state-and-regional/iowa/iowa-high-school-bans-excessive-cellphone-use/article_779060d7-3822-5e74-bd55-506803e1e321.html",
    "feature_id": "465961",
    "feature_name": "Des Moines",
    "state_alpha": "IA",
    "county_name": "Polk",
    "county_numeric": "153",
    "prim_lat_dec": "41.6005448",
    "prim_long_dec": "-93.6091064",
    "elev_in_m": "266",
    "elev_in_ft": "873",
    "lat": 41.6005448,
    "long": -93.6091064
  },
  {
    "globaleventid": 270813030,
    "sqldate": 20131008,
    "monthyear": 201310,
    "year": 2013,
    "fractiondate": "2013.7616",
    "eventcode": 190,
    "quadclass": 4,
    "nummentions": 1,
    "numsources": 1,
    "numarticles": 1,
    "avgtone": "2.10526315789474",
    "sourceurl": "http://www.duluthnewstribune.com/event/article/id/279993/",
    "feature_id": "1570219",
    "feature_name": "New Holstein",
    "state_alpha": "WI",
    "county_name": "Calumet",
    "county_numeric": "015",
    "prim_lat_dec": "43.9499924",
    "prim_long_dec": "-88.0842642",
    "elev_in_m": "284",
    "elev_in_ft": "932",
    "lat": 43.9499924,
    "long": -88.0842642
  },
  {
    "globaleventid": 270813024,
    "sqldate": 20131008,
    "monthyear": 201310,
    "year": 2013,
    "fractiondate": "2013.7616",
    "eventcode": 190,
    "quadclass": 4,
    "nummentions": 2,
    "numsources": 2,
    "numarticles": 2,
    "avgtone": "1.6206535034073",
    "sourceurl": "http://www.cbsnews.com/8301-201_162-57606543/firefighters-hurt-historic-church-destroyed-in-l.a-fire/",
    "feature_id": "1662328",
    "feature_name": "Los Angeles",
    "state_alpha": "CA",
    "county_name": "Los Angeles",
    "county_numeric": "037",
    "prim_lat_dec": "34.0522342",
    "prim_long_dec": "-118.2436849",
    "elev_in_m": "89",
    "elev_in_ft": "292",
    "lat": 34.0522342,
    "long": -118.2436849
  },
  {
    "globaleventid": 270813023,
    "sqldate": 20131008,
    "monthyear": 201310,
    "year": 2013,
    "fractiondate": "2013.7616",
    "eventcode": 130,
    "quadclass": 3,
    "nummentions": 2,
    "numsources": 1,
    "numarticles": 2,
    "avgtone": "1.77353342428377",
    "sourceurl": "http://www.bdlive.co.za/world/americas/2013/10/08/feds-fisher-decries-us-flirtation-with-default",
    "feature_id": "1380944",
    "feature_name": "Dallas",
    "state_alpha": "TX",
    "county_name": "Dallas",
    "county_numeric": "113",
    "prim_lat_dec": "32.7830556",
    "prim_long_dec": "-96.8066667",
    "elev_in_m": "128",
    "elev_in_ft": "420",
    "lat": 32.7830556,
    "long": -96.8066667
  },
  {
    "globaleventid": 270812949,
    "sqldate": 20131008,
    "monthyear": 201310,
    "year": 2013,
    "fractiondate": "2013.7616",
    "eventcode": 1712,
    "quadclass": 4,
    "nummentions": 2,
    "numsources": 1,
    "numarticles": 2,
    "avgtone": "4.4463818657367",
    "sourceurl": "http://www.telegram.com/article/20131007/NEWS/310079881/1052/rss01",
    "feature_id": "1661377",
    "feature_name": "San Diego",
    "state_alpha": "CA",
    "county_name": "San Diego",
    "county_numeric": "073",
    "prim_lat_dec": "32.7153292",
    "prim_long_dec": "-117.1572551",
    "elev_in_m": "19",
    "elev_in_ft": "62",
    "lat": 32.7153292,
    "long": -117.1572551
  },
  {
    "globaleventid": 270812948,
    "sqldate": 20131008,
    "monthyear": 201310,
    "year": 2013,
    "fractiondate": "2013.7616",
    "eventcode": 1712,
    "quadclass": 4,
    "nummentions": 8,
    "numsources": 1,
    "numarticles": 8,
    "avgtone": "4.4463818657367",
    "sourceurl": "http://www.telegram.com/article/20131007/NEWS/310079881/1052/rss01",
    "feature_id": "1454997",
    "feature_name": "Salt Lake City",
    "state_alpha": "UT",
    "county_name": "Salt Lake",
    "county_numeric": "035",
    "prim_lat_dec": "40.7607794",
    "prim_long_dec": "-111.8910474",
    "elev_in_m": "1300",
    "elev_in_ft": "4265",
    "lat": 40.7607794,
    "long": -111.8910474
  },
  {
    "globaleventid": 270812947,
    "sqldate": 20131008,
    "monthyear": 201310,
    "year": 2013,
    "fractiondate": "2013.7616",
    "eventcode": 181,
    "quadclass": 4,
    "nummentions": 2,
    "numsources": 1,
    "numarticles": 2,
    "avgtone": "0.0",
    "sourceurl": "http://www.policeone.com/corrections/articles/6504256-Couple-who-plotted-to-torture-kill-cops-pleads-not-guilty/",
    "feature_id": "847388",
    "feature_name": "Las Vegas",
    "state_alpha": "NV",
    "county_name": "Clark",
    "county_numeric": "003",
    "prim_lat_dec": "36.1749705",
    "prim_long_dec": "-115.137223",
    "elev_in_m": "610",
    "elev_in_ft": "2001",
    "lat": 36.1749705,
    "long": -115.137223
  },
  {
    "globaleventid": 270812944,
    "sqldate": 20131008,
    "monthyear": 201310,
    "year": 2013,
    "fractiondate": "2013.7616",
    "eventcode": 173,
    "quadclass": 4,
    "nummentions": 6,
    "numsources": 1,
    "numarticles": 6,
    "avgtone": "2.13333333333333",
    "sourceurl": "http://www.onlinesentinel.com/news/South_Portland_psychologist_sentenced_to_eight_months_for_health_fraud_.html",
    "feature_id": "575893",
    "feature_name": "South Portland",
    "state_alpha": "ME",
    "county_name": "Cumberland",
    "county_numeric": "005",
    "prim_lat_dec": "43.6414716",
    "prim_long_dec": "-70.2408811",
    "elev_in_m": "7",
    "elev_in_ft": "23",
    "lat": 43.6414716,
    "long": -70.2408811
  },
  {
    "globaleventid": 270812933,
    "sqldate": 20131008,
    "monthyear": 201310,
    "year": 2013,
    "fractiondate": "2013.7616",
    "eventcode": 173,
    "quadclass": 4,
    "nummentions": 40,
    "numsources": 4,
    "numarticles": 40,
    "avgtone": "2.09913575852494",
    "sourceurl": "http://www.whig.com/story/23632653/vietnam-lets-churches-thrive-but-keeps-control",
    "feature_id": "531871",
    "feature_name": "Washington",
    "state_alpha": "DC",
    "county_name": "District of Columbia",
    "county_numeric": "001",
    "prim_lat_dec": "38.8951118",
    "prim_long_dec": "-77.0363658",
    "elev_in_m": "7",
    "elev_in_ft": "23",
    "lat": 38.8951118,
    "long": -77.0363658
  },
  {
    "globaleventid": 270812695,
    "sqldate": 20131008,
    "monthyear": 201310,
    "year": 2013,
    "fractiondate": "2013.7616",
    "eventcode": 130,
    "quadclass": 3,
    "nummentions": 2,
    "numsources": 1,
    "numarticles": 2,
    "avgtone": "1.84899845916795",
    "sourceurl": "http://rt.com/usa/obama-shutdown-republicans-reopen-903/",
    "feature_id": "531871",
    "feature_name": "Washington",
    "state_alpha": "DC",
    "county_name": "District of Columbia",
    "county_numeric": "001",
    "prim_lat_dec": "38.8951118",
    "prim_long_dec": "-77.0363658",
    "elev_in_m": "7",
    "elev_in_ft": "23",
    "lat": 38.8951118,
    "long": -77.0363658
  },
  {
    "globaleventid": 270812691,
    "sqldate": 20131008,
    "monthyear": 201310,
    "year": 2013,
    "fractiondate": "2013.7616",
    "eventcode": 112,
    "quadclass": 3,
    "nummentions": 2,
    "numsources": 1,
    "numarticles": 2,
    "avgtone": "1.18043844856661",
    "sourceurl": "http://www.dailyprogress.com/starexponent/news/local_news/shutdown-not-affecting-culpeper-human-services-yet/article_19c21284-3055-11e3-888d-001a4bcf6878.html",
    "feature_id": "1100790",
    "feature_name": "Richmond",
    "state_alpha": "OK",
    "county_name": "Woodward",
    "county_numeric": "153",
    "prim_lat_dec": "36.1908732",
    "prim_long_dec": "-99.0523209",
    "elev_in_m": "552",
    "elev_in_ft": "1811",
    "lat": 36.1908732,
    "long": -99.0523209
  },
  {
    "globaleventid": 270812670,
    "sqldate": 20131008,
    "monthyear": 201310,
    "year": 2013,
    "fractiondate": "2013.7616",
    "eventcode": 173,
    "quadclass": 4,
    "nummentions": 18,
    "numsources": 2,
    "numarticles": 18,
    "avgtone": "2.21431519406966",
    "sourceurl": "http://www.news-record.com/news/article_e81e69f6-300b-11e3-a161-001a4bcf6878.html",
    "feature_id": "1024242",
    "feature_name": "Raleigh",
    "state_alpha": "NC",
    "county_name": "Wake",
    "county_numeric": "183",
    "prim_lat_dec": "35.772096",
    "prim_long_dec": "-78.6386145",
    "elev_in_m": "96",
    "elev_in_ft": "315",
    "lat": 35.772096,
    "long": -78.6386145
  },
  {
    "globaleventid": 270812666,
    "sqldate": 20131008,
    "monthyear": 201310,
    "year": 2013,
    "fractiondate": "2013.7616",
    "eventcode": 173,
    "quadclass": 4,
    "nummentions": 2,
    "numsources": 1,
    "numarticles": 1,
    "avgtone": "2.3121387283237",
    "sourceurl": "http://www.news-record.com/news/local_news/article_43e1b584-2f96-11e3-839b-0019bb30f31a.html",
    "feature_id": "1024242",
    "feature_name": "Raleigh",
    "state_alpha": "NC",
    "county_name": "Wake",
    "county_numeric": "183",
    "prim_lat_dec": "35.772096",
    "prim_long_dec": "-78.6386145",
    "elev_in_m": "96",
    "elev_in_ft": "315",
    "lat": 35.772096,
    "long": -78.6386145
  },
  {
    "globaleventid": 270812662,
    "sqldate": 20131008,
    "monthyear": 201310,
    "year": 2013,
    "fractiondate": "2013.7616",
    "eventcode": 173,
    "quadclass": 4,
    "nummentions": 10,
    "numsources": 3,
    "numarticles": 8,
    "avgtone": "2.2389451935735",
    "sourceurl": "http://www.news-record.com/news/article_e81e69f6-300b-11e3-a161-001a4bcf6878.html",
    "feature_id": "1024242",
    "feature_name": "Raleigh",
    "state_alpha": "NC",
    "county_name": "Wake",
    "county_numeric": "183",
    "prim_lat_dec": "35.772096",
    "prim_long_dec": "-78.6386145",
    "elev_in_m": "96",
    "elev_in_ft": "315",
    "lat": 35.772096,
    "long": -78.6386145
  },
  {
    "globaleventid": 270812657,
    "sqldate": 20131008,
    "monthyear": 201310,
    "year": 2013,
    "fractiondate": "2013.7616",
    "eventcode": 120,
    "quadclass": 3,
    "nummentions": 2,
    "numsources": 1,
    "numarticles": 2,
    "avgtone": "1.6829052258636",
    "sourceurl": "http://www.bloomberg.com/news/2013-10-09/boehner-calling-for-talks-on-debt-lacks-republican-groundswell.html",
    "feature_id": "502435",
    "feature_name": "Roxana",
    "state_alpha": "KY",
    "county_name": "Letcher",
    "county_numeric": "133",
    "prim_lat_dec": "37.1112068",
    "prim_long_dec": "-82.9498838",
    "elev_in_m": "326",
    "elev_in_ft": "1070",
    "lat": 37.1112068,
    "long": -82.9498838
  },
  {
    "globaleventid": 270812576,
    "sqldate": 20131008,
    "monthyear": 201310,
    "year": 2013,
    "fractiondate": "2013.7616",
    "eventcode": 190,
    "quadclass": 4,
    "nummentions": 10,
    "numsources": 1,
    "numarticles": 10,
    "avgtone": "1.58371040723982",
    "sourceurl": "http://www.telegraph.co.uk/news/worldnews/africaandindianocean/libya/10363764/Libyan-Islamists-vow-revenge-for-seizure-of-Abu-Anas-al-Libi.html",
    "feature_id": "531871",
    "feature_name": "Washington",
    "state_alpha": "DC",
    "county_name": "District of Columbia",
    "county_numeric": "001",
    "prim_lat_dec": "38.8951118",
    "prim_long_dec": "-77.0363658",
    "elev_in_m": "7",
    "elev_in_ft": "23",
    "lat": 38.8951118,
    "long": -77.0363658
  },
  {
    "globaleventid": 270812460,
    "sqldate": 20131008,
    "monthyear": 201310,
    "year": 2013,
    "fractiondate": "2013.7616",
    "eventcode": 120,
    "quadclass": 3,
    "nummentions": 2,
    "numsources": 1,
    "numarticles": 2,
    "avgtone": "1.4",
    "sourceurl": "http://www.mywesttexas.com/top_stories/article_1f21bcb4-2f8f-11e3-8a74-001a4bcf887a.html",
    "feature_id": "1380948",
    "feature_name": "Houston",
    "state_alpha": "TX",
    "county_name": "Harris",
    "county_numeric": "201",
    "prim_lat_dec": "29.7632836",
    "prim_long_dec": "-95.3632715",
    "elev_in_m": "11",
    "elev_in_ft": "36",
    "lat": 29.7632836,
    "long": -95.3632715
  },
  {
    "globaleventid": 270812459,
    "sqldate": 20131008,
    "monthyear": 201310,
    "year": 2013,
    "fractiondate": "2013.7616",
    "eventcode": 120,
    "quadclass": 3,
    "nummentions": 16,
    "numsources": 2,
    "numarticles": 16,
    "avgtone": "2.32454873646209",
    "sourceurl": "http://www.news-journal.com/news/state/inmate-set-for-execution-loses-federal-appeal/article_32ca4638-daf6-5e2e-9dd0-4ce190cb084e.html",
    "feature_id": "1380948",
    "feature_name": "Houston",
    "state_alpha": "TX",
    "county_name": "Harris",
    "county_numeric": "201",
    "prim_lat_dec": "29.7632836",
    "prim_long_dec": "-95.3632715",
    "elev_in_m": "11",
    "elev_in_ft": "36",
    "lat": 29.7632836,
    "long": -95.3632715
  },
  {
    "globaleventid": 270812458,
    "sqldate": 20131008,
    "monthyear": 201310,
    "year": 2013,
    "fractiondate": "2013.7616",
    "eventcode": 120,
    "quadclass": 3,
    "nummentions": 2,
    "numsources": 1,
    "numarticles": 2,
    "avgtone": "3.24909747292419",
    "sourceurl": "http://www.news-journal.com/news/state/inmate-set-for-execution-loses-federal-appeal/article_32ca4638-daf6-5e2e-9dd0-4ce190cb084e.html",
    "feature_id": "1380948",
    "feature_name": "Houston",
    "state_alpha": "TX",
    "county_name": "Harris",
    "county_numeric": "201",
    "prim_lat_dec": "29.7632836",
    "prim_long_dec": "-95.3632715",
    "elev_in_m": "11",
    "elev_in_ft": "36",
    "lat": 29.7632836,
    "long": -95.3632715
  },
  {
    "globaleventid": 270812448,
    "sqldate": 20131008,
    "monthyear": 201310,
    "year": 2013,
    "fractiondate": "2013.7616",
    "eventcode": 1241,
    "quadclass": 3,
    "nummentions": 6,
    "numsources": 1,
    "numarticles": 6,
    "avgtone": "2.67558528428094",
    "sourceurl": "http://www.opposingviews.com/i/politics/supreme-court-dashes-cuccinelli-s-plan-ban-sodomy-virginia",
    "feature_id": "531871",
    "feature_name": "Washington",
    "state_alpha": "DC",
    "county_name": "District of Columbia",
    "county_numeric": "001",
    "prim_lat_dec": "38.8951118",
    "prim_long_dec": "-77.0363658",
    "elev_in_m": "7",
    "elev_in_ft": "23",
    "lat": 38.8951118,
    "long": -77.0363658
  },
  {
    "globaleventid": 270812445,
    "sqldate": 20131008,
    "monthyear": 201310,
    "year": 2013,
    "fractiondate": "2013.7616",
    "eventcode": 173,
    "quadclass": 4,
    "nummentions": 8,
    "numsources": 1,
    "numarticles": 8,
    "avgtone": "0.917431192660551",
    "sourceurl": "http://triblive.com/news/adminpage/4846477-74/lewis-lojak-alcohol",
    "feature_id": "1182821",
    "feature_name": "Oakland",
    "state_alpha": "PA",
    "county_name": "Cambria",
    "county_numeric": "021",
    "prim_lat_dec": "40.3064636",
    "prim_long_dec": "-78.8875242",
    "elev_in_m": "483",
    "elev_in_ft": "1585",
    "lat": 40.3064636,
    "long": -78.8875242
  },
  {
    "globaleventid": 270812444,
    "sqldate": 20131008,
    "monthyear": 201310,
    "year": 2013,
    "fractiondate": "2013.7616",
    "eventcode": 115,
    "quadclass": 3,
    "nummentions": 4,
    "numsources": 1,
    "numarticles": 4,
    "avgtone": "2.32018561484919",
    "sourceurl": "http://www.denverpost.com/news/ci_24264304/boulder-da-responds-release-indictment-jonbenet-ramsey-john-patsy",
    "feature_id": "178680",
    "feature_name": "Boulder",
    "state_alpha": "CO",
    "county_name": "Boulder",
    "county_numeric": "013",
    "prim_lat_dec": "40.0149856",
    "prim_long_dec": "-105.2705456",
    "elev_in_m": "1624",
    "elev_in_ft": "5328",
    "lat": 40.0149856,
    "long": -105.2705456
  },