[
  {
    "globaleventid": 273713764,
    "sqldate": 20131030,
    "monthyear": 201310,
    "year": 2013,
    "fractiondate": "2013.8219",
    "eventcode": 1712,
    "quadclass": 4,
    "nummentions": 10,
    "numsources": 1,
    "numarticles": 10,
    "avgtone": "0.666666666666667",
    "sourceurl": "http://www.mercurynews.com/sunnyvale/ci_24422049/blotter-toyota-supra-stolen-wildwood-avenue-sunnyvale",
    "feature_id": "1509518",
    "feature_name": "Wildwood",
    "state_alpha": "WA",
    "county_name": "Lewis",
    "county_numeric": "041",
    "prim_lat_dec": "46.45955",
    "prim_long_dec": "-123.0901276",
    "elev_in_m": "104",
    "elev_in_ft": "341",
    "lat": 46.45955,
    "long": -123.0901276
  },
  {
    "globaleventid": 273713730,
    "sqldate": 20131030,
    "monthyear": 201310,
    "year": 2013,
    "fractiondate": "2013.8219",
    "eventcode": 100,
    "quadclass": 3,
    "nummentions": 2,
    "numsources": 1,
    "numarticles": 2,
    "avgtone": "1.93236714975845",
    "sourceurl": "http://www.newsworks.org/index.php/local/item/61354-norristown-police-aid-deportations-as-town-promotes-welcoming-image?linktype=all_feedtop",
    "feature_id": "1213641",
    "feature_name": "Norristown",
    "state_alpha": "PA",
    "county_name": "Montgomery",
    "county_numeric": "091",
    "prim_lat_dec": "40.121497",
    "prim_long_dec": "-75.3399048",
    "elev_in_m": "47",
    "elev_in_ft": "154",
    "lat": 40.121497,
    "long": -75.3399048
  },
  {
    "globaleventid": 273713629,
    "sqldate": 20131030,
    "monthyear": 201310,
    "year": 2013,
    "fractiondate": "2013.8219",
    "eventcode": 113,
    "quadclass": 3,
    "nummentions": 8,
    "numsources": 1,
    "numarticles": 8,
    "avgtone": "2.61058738216099",
    "sourceurl": "http://www.mintpressnews.com/neighbors-of-frac-sand-mine-wait/171486/",
    "feature_id": "654269",
    "feature_name": "Winona",
    "state_alpha": "MN",
    "county_name": "Winona",
    "county_numeric": "169",
    "prim_lat_dec": "44.049963",
    "prim_long_dec": "-91.6393152",
    "elev_in_m": "202",
    "elev_in_ft": "663",
    "lat": 44.049963,
    "long": -91.6393152
  },
  {
    "globaleventid": 273713627,
    "sqldate": 20131030,
    "monthyear": 201310,
    "year": 2013,
    "fractiondate": "2013.8219",
    "eventcode": 112,
    "quadclass": 3,
    "nummentions": 10,
    "numsources": 1,
    "numarticles": 10,
    "avgtone": "2.82555282555283",
    "sourceurl": "http://www.latimes.com/business/la-fi-square-20131031,0,6881022.story?track=rss&utm_source=feedburner&utm_medium=feed&utm_campaign=Feed%3A+latimes%2Fbusiness+%28L.A.+Times+-+Business%29",
    "feature_id": "277593",
    "feature_name": "San Francisco",
    "state_alpha": "CA",
    "county_name": "San Francisco",
    "county_numeric": "075",
    "prim_lat_dec": "37.775",
    "prim_long_dec": "-122.4194444",
    "elev_in_m": "16",
    "elev_in_ft": "52",
    "lat": 37.775,
    "long": -122.4194444
  },
  {
    "globaleventid": 273711760,
    "sqldate": 20131030,
    "monthyear": 201310,
    "year": 2013,
    "fractiondate": "2013.8219",
    "eventcode": 193,
    "quadclass": 4,
    "nummentions": 20,
    "numsources": 5,
    "numarticles": 20,
    "avgtone": "0.181268882175227",
    "sourceurl": "http://www.kotaradio.com/news.asp?eid=5002&ID=14819",
    "feature_id": "1265333",
    "feature_name": "Rapid City",
    "state_alpha": "SD",
    "county_name": "Pennington",
    "county_numeric": "103",
    "prim_lat_dec": "44.0805434",
    "prim_long_dec": "-103.2310149",
    "elev_in_m": "988",
    "elev_in_ft": "3241",
    "lat": 44.0805434,
    "long": -103.2310149
  },
  {
    "globaleventid": 273711757,
    "sqldate": 20131030,
    "monthyear": 201310,
    "year": 2013,
    "fractiondate": "2013.8219",
    "eventcode": 190,
    "quadclass": 4,
    "nummentions": 4,
    "numsources": 1,
    "numarticles": 4,
    "avgtone": "0.0",
    "sourceurl": "http://kfgo.com/news/articles/2013/oct/30/minnesota-murder-trial-underway/",
    "feature_id": "653129",
    "feature_name": "Thief River Falls",
    "state_alpha": "MN",
    "county_name": "Pennington",
    "county_numeric": "113",
    "prim_lat_dec": "48.1191353",
    "prim_long_dec": "-96.1811473",
    "elev_in_m": "346",
    "elev_in_ft": "1135",
    "lat": 48.1191353,
    "long": -96.1811473
  },
  {
    "globaleventid": 273711749,
    "sqldate": 20131030,
    "monthyear": 201310,
    "year": 2013,
    "fractiondate": "2013.8219",
    "eventcode": 180,
    "quadclass": 4,
    "nummentions": 2,
    "numsources": 1,
    "numarticles": 2,
    "avgtone": "1.51515151515152",
    "sourceurl": "http://www.thedenverchannel.com/news/local-news/con-man-akihiko-siegfried-pleads-guilty-to-swindling-500000-from-89-year-old-denver-man",
    "feature_id": "201738",
    "feature_name": "Denver",
    "state_alpha": "CO",
    "county_name": "Denver",
    "county_numeric": "031",
    "prim_lat_dec": "39.7391536",
    "prim_long_dec": "-104.9847034",
    "elev_in_m": "1609",
    "elev_in_ft": "5279",
    "lat": 39.7391536,
    "long": -104.9847034
  },
  {
    "globaleventid": 273711744,
    "sqldate": 20131030,
    "monthyear": 201310,
    "year": 2013,
    "fractiondate": "2013.8219",
    "eventcode": 173,
    "quadclass": 4,
    "nummentions": 8,
    "numsources": 1,
    "numarticles": 8,
    "avgtone": "0.0",
    "sourceurl": "http://www.registerstar.com/police_blotter/article_b41321ae-411f-11e3-b326-001a4bcf887a.html",
    "feature_id": "958430",
    "feature_name": "New Lebanon",
    "state_alpha": "NY",
    "county_name": "Columbia",
    "county_numeric": "021",
    "prim_lat_dec": "42.4639722",
    "prim_long_dec": "-73.3964977",
    "elev_in_m": "212",
    "elev_in_ft": "696",
    "lat": 42.4639722,
    "long": -73.3964977
  },
  {
    "globaleventid": 273711739,
    "sqldate": 20131030,
    "monthyear": 201310,
    "year": 2013,
    "fractiondate": "2013.8219",
    "eventcode": 173,
    "quadclass": 4,
    "nummentions": 4,
    "numsources": 1,
    "numarticles": 4,
    "avgtone": "2.73224043715847",
    "sourceurl": "http://www.kare11.com/rss/article/1044506/391/Man-receives-30-years-for-sexual-abuse-of-child",
    "feature_id": "643266",
    "feature_name": "Elk River",
    "state_alpha": "MN",
    "county_name": "Sherburne",
    "county_numeric": "141",
    "prim_lat_dec": "45.3038538",
    "prim_long_dec": "-93.5671825",
    "elev_in_m": "273",
    "elev_in_ft": "896",
    "lat": 45.3038538,
    "long": -93.5671825
  },
  {
    "globaleventid": 273711738,
    "sqldate": 20131030,
    "monthyear": 201310,
    "year": 2013,
    "fractiondate": "2013.8219",
    "eventcode": 173,
    "quadclass": 4,
    "nummentions": 6,
    "numsources": 1,
    "numarticles": 6,
    "avgtone": "1.85758513931889",
    "sourceurl": "http://news.wypr.org/post/farm-bill-and-maryland-baltimore-city-detention-center-plea-orioles-win-gold-gloves",
    "feature_id": "590983",
    "feature_name": "Pasadena",
    "state_alpha": "MD",
    "county_name": "Anne Arundel",
    "county_numeric": "003",
    "prim_lat_dec": "39.1073317",
    "prim_long_dec": "-76.5710753",
    "elev_in_m": "25",
    "elev_in_ft": "82",
    "lat": 39.1073317,
    "long": -76.5710753
  },
  {
    "globaleventid": 273711736,
    "sqldate": 20131030,
    "monthyear": 201310,
    "year": 2013,
    "fractiondate": "2013.8219",
    "eventcode": 173,
    "quadclass": 4,
    "nummentions": 2,
    "numsources": 1,
    "numarticles": 2,
    "avgtone": "2.48275862068966",
    "sourceurl": "http://www.journalgazette.net/article/20131029/NEWS03/131029365/1066",
    "feature_id": "1005554",
    "feature_name": "Carolina",
    "state_alpha": "NC",
    "county_name": "Gaston",
    "county_numeric": "071",
    "prim_lat_dec": "35.3884665",
    "prim_long_dec": "-81.3714737",
    "elev_in_m": "284",
    "elev_in_ft": "932",
    "lat": 35.3884665,
    "long": -81.3714737
  },
  {
    "globaleventid": 273711734,
    "sqldate": 20131030,
    "monthyear": 201310,
    "year": 2013,
    "fractiondate": "2013.8219",
    "eventcode": 1712,
    "quadclass": 4,
    "nummentions": 10,
    "numsources": 1,
    "numarticles": 10,
    "avgtone": "1.57232704402516",
    "sourceurl": "http://www.pressdemocrat.com/article/20131030/wire/131039990",
    "feature_id": "277593",
    "feature_name": "San Francisco",
    "state_alpha": "CA",
    "county_name": "San Francisco",
    "county_numeric": "075",
    "prim_lat_dec": "37.775",
    "prim_long_dec": "-122.4194444",
    "elev_in_m": "16",
    "elev_in_ft": "52",
    "lat": 37.775,
    "long": -122.4194444
  },
  {
    "globaleventid": 273711728,
    "sqldate": 20131030,
    "monthyear": 201310,
    "year": 2013,
    "fractiondate": "2013.8219",
    "eventcode": 1121,
    "quadclass": 3,
    "nummentions": 6,
    "numsources": 1,
    "numarticles": 6,
    "avgtone": "1.75054704595186",
    "sourceurl": "http://www.kfoxtv.com/news/features/top-stories/stories/el-paso-sheriffs-office-warns-new-warrant-telephone-scam-2203.shtml",
    "feature_id": "1380946",
    "feature_name": "El Paso",
    "state_alpha": "TX",
    "county_name": "El Paso",
    "county_numeric": "141",
    "prim_lat_dec": "31.7587198",
    "prim_long_dec": "-106.4869314",
    "elev_in_m": "1133",
    "elev_in_ft": "3717",
    "lat": 31.7587198,
    "long": -106.4869314
  },
  {
    "globaleventid": 273711725,
    "sqldate": 20131030,
    "monthyear": 201310,
    "year": 2013,
    "fractiondate": "2013.8219",
    "eventcode": 112,
    "quadclass": 3,
    "nummentions": 5,
    "numsources": 1,
    "numarticles": 5,
    "avgtone": "2.64900662251656",
    "sourceurl": "http://www.washingtonpost.com/blogs/style-blog/wp/2013/10/30/scary-writers-plans-for-halloween/",
    "feature_id": "950862",
    "feature_name": "Gallows Hill",
    "state_alpha": "NY",
    "county_name": "Westchester",
    "county_numeric": "119",
    "prim_lat_dec": "41.3214828",
    "prim_long_dec": "-73.9079153",
    "elev_in_m": "131",
    "elev_in_ft": "430",
    "lat": 41.3214828,
    "long": -73.9079153
  },
  {
    "globaleventid": 273711724,
    "sqldate": 20131030,
    "monthyear": 201310,
    "year": 2013,
    "fractiondate": "2013.8219",
    "eventcode": 112,
    "quadclass": 3,
    "nummentions": 1,
    "numsources": 1,
    "numarticles": 1,
    "avgtone": "2.64900662251656",
    "sourceurl": "http://www.washingtonpost.com/blogs/style-blog/wp/2013/10/30/scary-writers-plans-for-halloween/",
    "feature_id": "950862",
    "feature_name": "Gallows Hill",
    "state_alpha": "NY",
    "county_name": "Westchester",
    "county_numeric": "119",
    "prim_lat_dec": "41.3214828",
    "prim_long_dec": "-73.9079153",
    "elev_in_m": "131",
    "elev_in_ft": "430",
    "lat": 41.3214828,
    "long": -73.9079153
  },
  {
    "globaleventid": 273711722,
    "sqldate": 20131030,
    "monthyear": 201310,
    "year": 2013,
    "fractiondate": "2013.8219",
    "eventcode": 112,
    "quadclass": 3,
    "nummentions": 5,
    "numsources": 2,
    "numarticles": 5,
    "avgtone": "0.0",
    "sourceurl": "http://www.keloland.com/newsdetail.cfm/trooper-justified-in-rc-shooting-after-104-mph-pursuit/?id=155329",
    "feature_id": "1265333",
    "feature_name": "Rapid City",
    "state_alpha": "SD",
    "county_name": "Pennington",
    "county_numeric": "103",
    "prim_lat_dec": "44.0805434",
    "prim_long_dec": "-103.2310149",
    "elev_in_m": "988",
    "elev_in_ft": "3241",
    "lat": 44.0805434,
    "long": -103.2310149
  },
  {
    "globaleventid": 273711559,
    "sqldate": 20131030,
    "monthyear": 201310,
    "year": 2013,
    "fractiondate": "2013.8219",
    "eventcode": 173,
    "quadclass": 4,
    "nummentions": 2,
    "numsources": 1,
    "numarticles": 2,
    "avgtone": "0.0",
    "sourceurl": "http://www.registerstar.com/police_blotter/article_b41321ae-411f-11e3-b326-001a4bcf887a.html",
    "feature_id": "958430",
    "feature_name": "New Lebanon",
    "state_alpha": "NY",
    "county_name": "Columbia",
    "county_numeric": "021",
    "prim_lat_dec": "42.4639722",
    "prim_long_dec": "-73.3964977",
    "elev_in_m": "212",
    "elev_in_ft": "696",
    "lat": 42.4639722,
    "long": -73.3964977
  },
  {
    "globaleventid": 273711538,
    "sqldate": 20131030,
    "monthyear": 201310,
    "year": 2013,
    "fractiondate": "2013.8219",
    "eventcode": 190,
    "quadclass": 4,
    "nummentions": 6,
    "numsources": 1,
    "numarticles": 6,
    "avgtone": "0.0",
    "sourceurl": "http://kfgo.com/news/articles/2013/oct/30/minnesota-murder-trial-underway/",
    "feature_id": "653129",
    "feature_name": "Thief River Falls",
    "state_alpha": "MN",
    "county_name": "Pennington",
    "county_numeric": "113",
    "prim_lat_dec": "48.1191353",
    "prim_long_dec": "-96.1811473",
    "elev_in_m": "346",
    "elev_in_ft": "1135",
    "lat": 48.1191353,
    "long": -96.1811473
  },
  {
    "globaleventid": 273711535,
    "sqldate": 20131030,
    "monthyear": 201310,
    "year": 2013,
    "fractiondate": "2013.8219",
    "eventcode": 173,
    "quadclass": 4,
    "nummentions": 4,
    "numsources": 1,
    "numarticles": 4,
    "avgtone": "0.584795321637427",
    "sourceurl": "http://www.stamfordadvocate.com/policereports/article/Two-Stamford-teens-charged-in-robbery-scheme-4939534.php",
    "feature_id": "205720",
    "feature_name": "Bridgeport",
    "state_alpha": "CT",
    "county_name": "Fairfield",
    "county_numeric": "001",
    "prim_lat_dec": "41.1670412",
    "prim_long_dec": "-73.2048348",
    "elev_in_m": "3",
    "elev_in_ft": "10",
    "lat": 41.1670412,
    "long": -73.2048348
  },
  {
    "globaleventid": 273711534,
    "sqldate": 20131030,
    "monthyear": 201310,
    "year": 2013,
    "fractiondate": "2013.8219",
    "eventcode": 173,
    "quadclass": 4,
    "nummentions": 1,
    "numsources": 1,
    "numarticles": 1,
    "avgtone": "0.584795321637427",
    "sourceurl": "http://www.stamfordadvocate.com/policereports/article/Two-Stamford-teens-charged-in-robbery-scheme-4939534.php",
    "feature_id": "205720",
    "feature_name": "Bridgeport",
    "state_alpha": "CT",
    "county_name": "Fairfield",
    "county_numeric": "001",
    "prim_lat_dec": "41.1670412",
    "prim_long_dec": "-73.2048348",
    "elev_in_m": "3",
    "elev_in_ft": "10",
    "lat": 41.1670412,
    "long": -73.2048348
  },
  {
    "globaleventid": 273711524,
    "sqldate": 20131030,
    "monthyear": 201310,
    "year": 2013,
    "fractiondate": "2013.8219",
    "eventcode": 173,
    "quadclass": 4,
    "nummentions": 7,
    "numsources": 1,
    "numarticles": 7,
    "avgtone": "0.968992248062015",
    "sourceurl": "http://abclocal.go.com/kabc/story?section=news/national_world&id=9306777",
    "feature_id": "944840",
    "feature_name": "Brooklyn",
    "state_alpha": "NY",
    "county_name": "Delaware",
    "county_numeric": "025",
    "prim_lat_dec": "42.3442482",
    "prim_long_dec": "-75.1704468",
    "elev_in_m": "366",
    "elev_in_ft": "1201",
    "lat": 42.3442482,
    "long": -75.1704468
  },
  {
    "globaleventid": 273711523,
    "sqldate": 20131030,
    "monthyear": 201310,
    "year": 2013,
    "fractiondate": "2013.8219",
    "eventcode": 173,
    "quadclass": 4,
    "nummentions": 3,
    "numsources": 1,
    "numarticles": 3,
    "avgtone": "0.968992248062015",
    "sourceurl": "http://abclocal.go.com/kabc/story?section=news/national_world&id=9306777",
    "feature_id": "1652672",
    "feature_name": "Beverly Hills",
    "state_alpha": "CA",
    "county_name": "Los Angeles",
    "county_numeric": "037",
    "prim_lat_dec": "34.0736204",
    "prim_long_dec": "-118.4003563",
    "elev_in_m": "79",
    "elev_in_ft": "259",
    "lat": 34.0736204,
    "long": -118.4003563
  },
  {
    "globaleventid": 273711522,
    "sqldate": 20131030,
    "monthyear": 201310,
    "year": 2013,
    "fractiondate": "2013.8219",
    "eventcode": 112,
    "quadclass": 3,
    "nummentions": 10,
    "numsources": 1,
    "numarticles": 10,
    "avgtone": "0.968992248062015",
    "sourceurl": "http://abclocal.go.com/kabc/story?section=news/national_world&id=9306777",
    "feature_id": "944840",
    "feature_name": "Brooklyn",
    "state_alpha": "NY",
    "county_name": "Delaware",
    "county_numeric": "025",
    "prim_lat_dec": "42.3442482",
    "prim_long_dec": "-75.1704468",
    "elev_in_m": "366",
    "elev_in_ft": "1201",
    "lat": 42.3442482,
    "long": -75.1704468
  },
  {
    "globaleventid": 273711486,
    "sqldate": 20131030,
    "monthyear": 201310,
    "year": 2013,
    "fractiondate": "2013.8219",
    "eventcode": 173,
    "quadclass": 4,
    "nummentions": 1,
    "numsources": 1,
    "numarticles": 1,
    "avgtone": "0.0",
    "sourceurl": "http://www.upi.com/Top_News/US/2013/10/30/Caroline-Biden-Joe-Bidens-niece-in-court-after-alleged-attack/UPI-98881383160721/",
    "feature_id": "971945",
    "feature_name": "Manhattan",
    "state_alpha": "NY",
    "county_name": "New York",
    "county_numeric": "061",
    "prim_lat_dec": "40.7834345",
    "prim_long_dec": "-73.9662495",
    "elev_in_m": "35",
    "elev_in_ft": "115",
    "lat": 40.7834345,
    "long": -73.9662495
  },
  {
    "globaleventid": 273711432,
    "sqldate": 20131030,
    "monthyear": 201310,
    "year": 2013,
    "fractiondate": "2013.8219",
    "eventcode": 190,
    "quadclass": 4,
    "nummentions": 3,
    "numsources": 1,
    "numarticles": 3,
    "avgtone": "2.86458333333333",
    "sourceurl": "http://www.startribune.com/nation/229968981.html",
    "feature_id": "1802959",
    "feature_name": "Staten Island",
    "state_alpha": "NY",
    "county_name": "Richmond",
    "county_numeric": "085",
    "prim_lat_dec": "40.5834379",
    "prim_long_dec": "-74.1495875",
    "elev_in_m": "49",
    "elev_in_ft": "161",
    "lat": 40.5834379,
    "long": -74.1495875
  },
  {
    "globaleventid": 273711411,
    "sqldate": 20131030,
    "monthyear": 201310,
    "year": 2013,
    "fractiondate": "2013.8219",
    "eventcode": 193,
    "quadclass": 4,
    "nummentions": 8,
    "numsources": 1,
    "numarticles": 8,
    "avgtone": "0.0",
    "sourceurl": "http://www.albuquerqueexpress.com/index.php/sid/218085022/scat/d867a54a6fc00b3b",
    "feature_id": "928679",
    "feature_name": "Albuquerque",
    "state_alpha": "NM",
    "county_name": "Bernalillo",
    "county_numeric": "001",
    "prim_lat_dec": "35.0844909",
    "prim_long_dec": "-106.6511367",
    "elev_in_m": "1510",
    "elev_in_ft": "4954",
    "lat": 35.0844909,
    "long": -106.6511367
  },
  {
    "globaleventid": 273711408,
    "sqldate": 20131030,
    "monthyear": 201310,
    "year": 2013,
    "fractiondate": "2013.8219",
    "eventcode": 190,
    "quadclass": 4,
    "nummentions": 8,
    "numsources": 1,
    "numarticles": 8,
    "avgtone": "0.0",
    "sourceurl": "http://www.albuquerqueexpress.com/index.php/sid/218085022/scat/d867a54a6fc00b3b",
    "feature_id": "928679",
    "feature_name": "Albuquerque",
    "state_alpha": "NM",
    "county_name": "Bernalillo",
    "county_numeric": "001",
    "prim_lat_dec": "35.0844909",
    "prim_long_dec": "-106.6511367",
    "elev_in_m": "1510",
    "elev_in_ft": "4954",
    "lat": 35.0844909,
    "long": -106.6511367
  },
  {
    "globaleventid": 273711393,
    "sqldate": 20131030,
    "monthyear": 201310,
    "year": 2013,
    "fractiondate": "2013.8219",
    "eventcode": 130,
    "quadclass": 3,
    "nummentions": 10,
    "numsources": 1,
    "numarticles": 10,
    "avgtone": "1.33155792276964",
    "sourceurl": "http://www.twincities.com/crime/ci_24421343/sex-trafficking-defendant-victim-casanova-violent-pimp-and",
    "feature_id": "531871",
    "feature_name": "Washington",
    "state_alpha": "DC",
    "county_name": "District of Columbia",
    "county_numeric": "001",
    "prim_lat_dec": "38.8951118",
    "prim_long_dec": "-77.0363658",
    "elev_in_m": "7",
    "elev_in_ft": "23",
    "lat": 38.8951118,
    "long": -77.0363658
  },
  {
    "globaleventid": 273711388,
    "sqldate": 20131030,
    "monthyear": 201310,
    "year": 2013,
    "fractiondate": "2013.8219",
    "eventcode": 112,
    "quadclass": 3,
    "nummentions": 6,
    "numsources": 1,
    "numarticles": 6,
    "avgtone": "0.317460317460317",
    "sourceurl": "http://www.empirestatenews.net/News2013/20131030-3.htm",
    "feature_id": "2083753",
    "feature_name": "East Harlem",
    "state_alpha": "NY",
    "county_name": "New York",
    "county_numeric": "061",
    "prim_lat_dec": "40.7947222",
    "prim_long_dec": "-73.9425",
    "elev_in_m": "5",
    "elev_in_ft": "16",
    "lat": 40.7947222,
    "long": -73.9425
  },
  {
    "globaleventid": 273710679,
    "sqldate": 20131030,
    "monthyear": 201310,
    "year": 2013,
    "fractiondate": "2013.8219",
    "eventcode": 173,
    "quadclass": 4,
    "nummentions": 1,
    "numsources": 1,
    "numarticles": 1,
    "avgtone": "0.710900473933649",
    "sourceurl": "http://bangordailynews.com/2013/10/30/news/penobscot/three-indicted-on-charges-police-say-are-related-to-lincoln-area-burglary-ring/?ref=latest",
    "feature_id": "570914",
    "feature_name": "Mattawamkeag",
    "state_alpha": "ME",
    "county_name": "Penobscot",
    "county_numeric": "019",
    "prim_lat_dec": "45.5136701",
    "prim_long_dec": "-68.3544669",
    "elev_in_m": "68",
    "elev_in_ft": "223",
    "lat": 45.5136701,
    "long": -68.3544669
  },
  {
    "globaleventid": 273710676,
    "sqldate": 20131030,
    "monthyear": 201310,
    "year": 2013,
    "fractiondate": "2013.8219",
    "eventcode": 173,
    "quadclass": 4,
    "nummentions": 1,
    "numsources": 1,
    "numarticles": 1,
    "avgtone": "0.710900473933649",
    "sourceurl": "http://bangordailynews.com/2013/10/30/news/penobscot/three-indicted-on-charges-police-say-are-related-to-lincoln-area-burglary-ring/?ref=latest",
    "feature_id": "570914",
    "feature_name": "Mattawamkeag",
    "state_alpha": "ME",
    "county_name": "Penobscot",
    "county_numeric": "019",
    "prim_lat_dec": "45.5136701",
    "prim_long_dec": "-68.3544669",
    "elev_in_m": "68",
    "elev_in_ft": "223",
    "lat": 45.5136701,
    "long": -68.3544669
  },
  {
    "globaleventid": 273710663,
    "sqldate": 20131030,
    "monthyear": 201310,
    "year": 2013,
    "fractiondate": "2013.8219",
    "eventcode": 1124,
    "quadclass": 3,
    "nummentions": 2,
    "numsources": 1,
    "numarticles": 2,
    "avgtone": "3.63247863247863",
    "sourceurl": "http://www.thonline.com/news/iowa-illinois-wisconsin/article_1688f533-c0cf-5f10-95ca-0ddfa1c0d219.html",
    "feature_id": "422110",
    "feature_name": "Sycamore",
    "state_alpha": "IL",
    "county_name": "DeKalb",
    "county_numeric": "037",
    "prim_lat_dec": "41.9889173",
    "prim_long_dec": "-88.6867538",
    "elev_in_m": "266",
    "elev_in_ft": "873",
    "lat": 41.9889173,
    "long": -88.6867538
  },
  {
    "globaleventid": 273710627,
    "sqldate": 20131030,
    "monthyear": 201310,
    "year": 2013,
    "fractiondate": "2013.8219",
    "eventcode": 193,
    "quadclass": 4,
    "nummentions": 2,
    "numsources": 1,
    "numarticles": 2,
    "avgtone": "0.0",
    "sourceurl": "http://www.ksfy.com/story/23828298/highway-patrol-trooper-cleared-in-officer-involved-shooting",
    "feature_id": "1265333",
    "feature_name": "Rapid City",
    "state_alpha": "SD",
    "county_name": "Pennington",
    "county_numeric": "103",
    "prim_lat_dec": "44.0805434",
    "prim_long_dec": "-103.2310149",
    "elev_in_m": "988",
    "elev_in_ft": "3241",
    "lat": 44.0805434,
    "long": -103.2310149
  },
  {
    "globaleventid": 273710625,
    "sqldate": 20131030,
    "monthyear": 201310,
    "year": 2013,
    "fractiondate": "2013.8219",
    "eventcode": 180,
    "quadclass": 4,
    "nummentions": 6,
    "numsources": 1,
    "numarticles": 6,
    "avgtone": "0.588235294117647",
    "sourceurl": "http://www.ksfy.com/story/23831339/police-charge-five-for-drugs-after-responding-to-assault-call",
    "feature_id": "1267670",
    "feature_name": "Sioux Falls",
    "state_alpha": "SD",
    "county_name": "Minnehaha",
    "county_numeric": "099",
    "prim_lat_dec": "43.5499749",
    "prim_long_dec": "-96.700327",
    "elev_in_m": "449",
    "elev_in_ft": "1473",
    "lat": 43.5499749,
    "long": -96.700327
  },
  {
    "globaleventid": 273710603,
    "sqldate": 20131030,
    "monthyear": 201310,
    "year": 2013,
    "fractiondate": "2013.8219",
    "eventcode": 111,
    "quadclass": 3,
    "nummentions": 3,
    "numsources": 1,
    "numarticles": 3,
    "avgtone": "2.62237762237762",
    "sourceurl": "http://bangordailynews.com/2013/10/29/news/nation/robinson-risner-celebrated-air-force-ace-and-pow-dies-at-88/?ref=latest",
    "feature_id": "1492628",
    "feature_name": "Bridgewater",
    "state_alpha": "VA",
    "county_name": "Rockingham",
    "county_numeric": "165",
    "prim_lat_dec": "38.3820706",
    "prim_long_dec": "-78.976696",
    "elev_in_m": "360",
    "elev_in_ft": "1181",
    "lat": 38.3820706,
    "long": -78.976696
  },
  {
    "globaleventid": 273710566,
    "sqldate": 20131030,
    "monthyear": 201310,
    "year": 2013,
    "fractiondate": "2013.8219",
    "eventcode": 173,
    "quadclass": 4,
    "nummentions": 2,
    "numsources": 1,
    "numarticles": 2,
    "avgtone": "0.78740157480315",
    "sourceurl": "http://gantdaily.com/2013/10/30/ex-rep-jesse-jackson-jr-admitted-in-nc-prison/",
    "feature_id": "423587",
    "feature_name": "Chicago",
    "state_alpha": "IL",
    "county_name": "Cook",
    "county_numeric": "031",
    "prim_lat_dec": "41.850033",
    "prim_long_dec": "-87.6500523",
    "elev_in_m": "179",
    "elev_in_ft": "587",
    "lat": 41.850033,
    "long": -87.6500523
  },
  {
    "globaleventid": 273710565,
    "sqldate": 20131030,
    "monthyear": 201310,
    "year": 2013,
    "fractiondate": "2013.8219",
    "eventcode": 115,
    "quadclass": 3,
    "nummentions": 10,
    "numsources": 1,
    "numarticles": 10,
    "avgtone": "2.07715133531157",
    "sourceurl": "http://www.miamiherald.com/2013/10/30/3720482/inmates-sue-tenn-sheriff-over.html",
    "feature_id": "295004",
    "feature_name": "Miami",
    "state_alpha": "FL",
    "county_name": "Miami-Dade",
    "county_numeric": "086",
    "prim_lat_dec": "25.7742658",
    "prim_long_dec": "-80.1936589",
    "elev_in_m": "2",
    "elev_in_ft": "7",
    "lat": 25.7742658,
    "long": -80.1936589
  },
  {
    "globaleventid": 273710564,
    "sqldate": 20131030,
    "monthyear": 201310,
    "year": 2013,
    "fractiondate": "2013.8219",
    "eventcode": 115,
    "quadclass": 3,
    "nummentions": 10,
    "numsources": 1,
    "numarticles": 10,
    "avgtone": "1.22699386503067",
    "sourceurl": "http://www.newschannel5.com/story/23829081/inmates-sue-tenn-sheriff-over-publications?t=2013-10-30T10:36:08Z",
    "feature_id": "1303478",
    "feature_name": "Kingsport",
    "state_alpha": "TN",
    "county_name": "Sullivan",
    "county_numeric": "163",
    "prim_lat_dec": "36.548434",
    "prim_long_dec": "-82.5618186",
    "elev_in_m": "369",
    "elev_in_ft": "1211",
    "lat": 36.548434,
    "long": -82.5618186
  },
  {
    "globaleventid": 273710535,
    "sqldate": 20131030,
    "monthyear": 201310,
    "year": 2013,
    "fractiondate": "2013.8219",
    "eventcode": 173,
    "quadclass": 4,
    "nummentions": 3,
    "numsources": 1,
    "numarticles": 3,
    "avgtone": "1.14810562571757",
    "sourceurl": "http://www.sanluisobispo.com/2013/10/29/2755396/5-killed-in-texas-city-slayings.html",
    "feature_id": "1380948",
    "feature_name": "Houston",
    "state_alpha": "TX",
    "county_name": "Harris",
    "county_numeric": "201",
    "prim_lat_dec": "29.7632836",
    "prim_long_dec": "-95.3632715",
    "elev_in_m": "11",
    "elev_in_ft": "36",
    "lat": 29.7632836,
    "long": -95.3632715
  },
  {
    "globaleventid": 273710530,
    "sqldate": 20131030,
    "monthyear": 201310,
    "year": 2013,
    "fractiondate": "2013.8219",
    "eventcode": 173,
    "quadclass": 4,
    "nummentions": 2,
    "numsources": 1,
    "numarticles": 2,
    "avgtone": "0.826446280991736",
    "sourceurl": "http://kokomotribune.com/policereports/x934968972/Police-reports-Oct-30-2013",
    "feature_id": "437425",
    "feature_name": "Kokomo",
    "state_alpha": "IN",
    "county_name": "Howard",
    "county_numeric": "067",
    "prim_lat_dec": "40.486427",
    "prim_long_dec": "-86.1336033",
    "elev_in_m": "247",
    "elev_in_ft": "810",
    "lat": 40.486427,
    "long": -86.1336033
  },
  {
    "globaleventid": 273710508,
    "sqldate": 20131030,
    "monthyear": 201310,
    "year": 2013,
    "fractiondate": "2013.8219",
    "eventcode": 193,
    "quadclass": 4,
    "nummentions": 2,
    "numsources": 1,
    "numarticles": 2,
    "avgtone": "0.303030303030303",
    "sourceurl": "http://www.therepublic.com/view/story/26130f85afbb4f0ca14296d4ba2c3148/SD--Trooper-Shoots-Suspect-Report",
    "feature_id": "1265333",
    "feature_name": "Rapid City",
    "state_alpha": "SD",
    "county_name": "Pennington",
    "county_numeric": "103",
    "prim_lat_dec": "44.0805434",
    "prim_long_dec": "-103.2310149",
    "elev_in_m": "988",
    "elev_in_ft": "3241",
    "lat": 44.0805434,
    "long": -103.2310149
  },
  {
    "globaleventid": 273710506,
    "sqldate": 20131030,
    "monthyear": 201310,
    "year": 2013,
    "fractiondate": "2013.8219",
    "eventcode": 193,
    "quadclass": 4,
    "nummentions": 2,
    "numsources": 1,
    "numarticles": 2,
    "avgtone": "0.303030303030303",
    "sourceurl": "http://www.therepublic.com/view/story/26130f85afbb4f0ca14296d4ba2c3148/SD--Trooper-Shoots-Suspect-Report",
    "feature_id": "1265333",
    "feature_name": "Rapid City",
    "state_alpha": "SD",
    "county_name": "Pennington",
    "county_numeric": "103",
    "prim_lat_dec": "44.0805434",
    "prim_long_dec": "-103.2310149",
    "elev_in_m": "988",
    "elev_in_ft": "3241",
    "lat": 44.0805434,
    "long": -103.2310149
  },
  {
    "globaleventid": 273710501,
    "sqldate": 20131030,
    "monthyear": 201310,
    "year": 2013,
    "fractiondate": "2013.8219",
    "eventcode": 193,
    "quadclass": 4,
    "nummentions": 2,
    "numsources": 1,
    "numarticles": 2,
    "avgtone": "0.0",
    "sourceurl": "http://www.ctpost.com/news/crime/article/Manchester-police-arrest-suspect-in-NH-shooting-4931810.php",
    "feature_id": "868243",
    "feature_name": "Manchester",
    "state_alpha": "NH",
    "county_name": "Hillsborough",
    "county_numeric": "011",
    "prim_lat_dec": "42.9956397",
    "prim_long_dec": "-71.4547891",
    "elev_in_m": "79",
    "elev_in_ft": "259",
    "lat": 42.9956397,
    "long": -71.4547891
  },
  {
    "globaleventid": 273710500,
    "sqldate": 20131030,
    "monthyear": 201310,
    "year": 2013,
    "fractiondate": "2013.8219",
    "eventcode": 193,
    "quadclass": 4,
    "nummentions": 2,
    "numsources": 1,
    "numarticles": 2,
    "avgtone": "0.0",
    "sourceurl": "http://www.ctpost.com/news/crime/article/Manchester-police-arrest-suspect-in-NH-shooting-4931810.php",
    "feature_id": "868243",
    "feature_name": "Manchester",
    "state_alpha": "NH",
    "county_name": "Hillsborough",
    "county_numeric": "011",
    "prim_lat_dec": "42.9956397",
    "prim_long_dec": "-71.4547891",
    "elev_in_m": "79",
    "elev_in_ft": "259",
    "lat": 42.9956397,
    "long": -71.4547891
  },
  {
    "globaleventid": 273710484,
    "sqldate": 20131030,
    "monthyear": 201310,
    "year": 2013,
    "fractiondate": "2013.8219",
    "eventcode": 193,
    "quadclass": 4,
    "nummentions": 2,
    "numsources": 1,
    "numarticles": 2,
    "avgtone": "0.515463917525773",
    "sourceurl": "http://www.californiatelegraph.com/index.php/sid/218072759/scat/805170b4ac37e387",
    "feature_id": "277566",
    "feature_name": "Oakland",
    "state_alpha": "CA",
    "county_name": "Alameda",
    "county_numeric": "001",
    "prim_lat_dec": "37.8043722",
    "prim_long_dec": "-122.2708026",
    "elev_in_m": "13",
    "elev_in_ft": "43",
    "lat": 37.8043722,
    "long": -122.2708026
  },
  {
    "globaleventid": 273710482,
    "sqldate": 20131030,
    "monthyear": 201310,
    "year": 2013,
    "fractiondate": "2013.8219",
    "eventcode": 193,
    "quadclass": 4,
    "nummentions": 2,
    "numsources": 1,
    "numarticles": 2,
    "avgtone": "0.0",
    "sourceurl": "http://www.ctpost.com/news/article/Deputies-shoot-man-with-gun-at-Syracuse-area-home-4938216.php",
    "feature_id": "966966",
    "feature_name": "Syracuse",
    "state_alpha": "NY",
    "county_name": "Onondaga",
    "county_numeric": "067",
    "prim_lat_dec": "43.0481221",
    "prim_long_dec": "-76.1474244",
    "elev_in_m": "121",
    "elev_in_ft": "397",
    "lat": 43.0481221,
    "long": -76.1474244
  },
  {
    "globaleventid": 273710481,
    "sqldate": 20131030,
    "monthyear": 201310,
    "year": 2013,
    "fractiondate": "2013.8219",
    "eventcode": 193,
    "quadclass": 4,
    "nummentions": 4,
    "numsources": 1,
    "numarticles": 4,
    "avgtone": "0.0",
    "sourceurl": "http://www.ctpost.com/news/crime/article/Manchester-police-arrest-suspect-in-NH-shooting-4931810.php",
    "feature_id": "868243",
    "feature_name": "Manchester",
    "state_alpha": "NH",
    "county_name": "Hillsborough",
    "county_numeric": "011",
    "prim_lat_dec": "42.9956397",
    "prim_long_dec": "-71.4547891",
    "elev_in_m": "79",
    "elev_in_ft": "259",
    "lat": 42.9956397,
    "long": -71.4547891
  },
  {
    "globaleventid": 273710480,
    "sqldate": 20131030,
    "monthyear": 201310,
    "year": 2013,
    "fractiondate": "2013.8219",
    "eventcode": 193,
    "quadclass": 4,
    "nummentions": 12,
    "numsources": 1,
    "numarticles": 12,
    "avgtone": "0.604229607250755",
    "sourceurl": "http://bangordailynews.com/2013/10/30/news/bangor/bangor-police-investigating-shooting/",
    "feature_id": "561511",
    "feature_name": "Bald Mountain",
    "state_alpha": "ME",
    "county_name": "Oxford",
    "county_numeric": "017",
    "prim_lat_dec": "44.9547763",
    "prim_long_dec": "-70.7906248",
    "elev_in_m": "454",
    "elev_in_ft": "1489",
    "lat": 44.9547763,
    "long": -70.7906248
  },
  {
    "globaleventid": 273710477,
    "sqldate": 20131030,
    "monthyear": 201310,
    "year": 2013,
    "fractiondate": "2013.8219",
    "eventcode": 193,
    "quadclass": 4,
    "nummentions": 2,
    "numsources": 1,
    "numarticles": 2,
    "avgtone": "0.324675324675325",
    "sourceurl": "http://www.policeone.com/Officer-Safety/articles/6557025-Video-Idaho-cop-warns-man-to-drop-gun-before-fatal-shooting/",
    "feature_id": "1662328",
    "feature_name": "Los Angeles",
    "state_alpha": "CA",
    "county_name": "Los Angeles",
    "county_numeric": "037",
    "prim_lat_dec": "34.0522342",
    "prim_long_dec": "-118.2436849",
    "elev_in_m": "89",
    "elev_in_ft": "292",
    "lat": 34.0522342,
    "long": -118.2436849
  },
  {
    "globaleventid": 273710476,
    "sqldate": 20131030,
    "monthyear": 201310,
    "year": 2013,
    "fractiondate": "2013.8219",
    "eventcode": 193,
    "quadclass": 4,
    "nummentions": 20,
    "numsources": 1,
    "numarticles": 20,
    "avgtone": "0.617283950617284",
    "sourceurl": "http://www.staradvertiser.com/s?action=login&f=y&id=229824401&id=229824401&utm_medium=feed&utm_medium=feed&utm_source=feedburner&utm_source=feedburner&utm_campaign=Feed%3A+staradvertiser_rss+%28Staradvertiser+Headlines%29&utm_campaign=Feed%253A%2Bstaradve",
    "feature_id": "366212",
    "feature_name": "Honolulu",
    "state_alpha": "HI",
    "county_name": "Honolulu",
    "county_numeric": "003",
    "prim_lat_dec": "21.3069444",
    "prim_long_dec": "-157.8583333",
    "elev_in_m": "5",
    "elev_in_ft": "16",
    "lat": 21.3069444,
    "long": -157.8583333
  },
  {
    "globaleventid": 273710474,
    "sqldate": 20131030,
    "monthyear": 201310,
    "year": 2013,
    "fractiondate": "2013.8219",
    "eventcode": 193,
    "quadclass": 4,
    "nummentions": 12,
    "numsources": 2,
    "numarticles": 12,
    "avgtone": "1.19251911378983",
    "sourceurl": "http://www.huffingtonpost.com/2013/10/30/miami-officer-stabbed_n_4177162.html",
    "feature_id": "295004",
    "feature_name": "Miami",
    "state_alpha": "FL",
    "county_name": "Miami-Dade",
    "county_numeric": "086",
    "prim_lat_dec": "25.7742658",
    "prim_long_dec": "-80.1936589",
    "elev_in_m": "2",
    "elev_in_ft": "7",
    "lat": 25.7742658,
    "long": -80.1936589
  },
  {
    "globaleventid": 273710473,
    "sqldate": 20131030,
    "monthyear": 201310,
    "year": 2013,
    "fractiondate": "2013.8219",
    "eventcode": 193,
    "quadclass": 4,
    "nummentions": 4,
    "numsources": 1,
    "numarticles": 4,
    "avgtone": "0.455927051671732",
    "sourceurl": "http://abcnews.go.com/US/florida-man-kidnaps-woman-kills-police-chase/story?id=20723288",
    "feature_id": "294459",
    "feature_name": "Lakeland",
    "state_alpha": "FL",
    "county_name": "Polk",
    "county_numeric": "105",
    "prim_lat_dec": "28.0394654",
    "prim_long_dec": "-81.9498042",
    "elev_in_m": "59",
    "elev_in_ft": "194",
    "lat": 28.0394654,
    "long": -81.9498042
  },
  {
    "globaleventid": 273710472,
    "sqldate": 20131030,
    "monthyear": 201310,
    "year": 2013,
    "fractiondate": "2013.8219",
    "eventcode": 193,
    "quadclass": 4,
    "nummentions": 1,
    "numsources": 1,
    "numarticles": 1,
    "avgtone": "0.515463917525773",
    "sourceurl": "http://www.californiatelegraph.com/index.php/sid/218072759/scat/805170b4ac37e387",
    "feature_id": "277566",
    "feature_name": "Oakland",
    "state_alpha": "CA",
    "county_name": "Alameda",
    "county_numeric": "001",
    "prim_lat_dec": "37.8043722",
    "prim_long_dec": "-122.2708026",
    "elev_in_m": "13",
    "elev_in_ft": "43",
    "lat": 37.8043722,
    "long": -122.2708026
  },
  {
    "globaleventid": 273710471,
    "sqldate": 20131030,
    "monthyear": 201310,
    "year": 2013,
    "fractiondate": "2013.8219",
    "eventcode": 193,
    "quadclass": 4,
    "nummentions": 6,
    "numsources": 1,
    "numarticles": 6,
    "avgtone": "0.515463917525773",
    "sourceurl": "http://www.californiatelegraph.com/index.php/sid/218072759/scat/805170b4ac37e387",
    "feature_id": "277566",
    "feature_name": "Oakland",
    "state_alpha": "CA",
    "county_name": "Alameda",
    "county_numeric": "001",
    "prim_lat_dec": "37.8043722",
    "prim_long_dec": "-122.2708026",
    "elev_in_m": "13",
    "elev_in_ft": "43",
    "lat": 37.8043722,
    "long": -122.2708026
  },
  {
    "globaleventid": 273710469,
    "sqldate": 20131030,
    "monthyear": 201310,
    "year": 2013,
    "fractiondate": "2013.8219",
    "eventcode": 193,
    "quadclass": 4,
    "nummentions": 2,
    "numsources": 1,
    "numarticles": 2,
    "avgtone": "0.440528634361234",
    "sourceurl": "http://www.foxsanantonio.com/newsroom/top_stories/videos/vid_17934.shtml",
    "feature_id": "1867545",
    "feature_name": "Canyon Lake",
    "state_alpha": "TX",
    "county_name": "Comal",
    "county_numeric": "091",
    "prim_lat_dec": "29.8752177",
    "prim_long_dec": "-98.2625127",
    "elev_in_m": "294",
    "elev_in_ft": "965",
    "lat": 29.8752177,
    "long": -98.2625127
  },
  {
    "globaleventid": 273710465,
    "sqldate": 20131030,
    "monthyear": 201310,
    "year": 2013,
    "fractiondate": "2013.8219",
    "eventcode": 193,
    "quadclass": 4,
    "nummentions": 4,
    "numsources": 1,
    "numarticles": 4,
    "avgtone": "0.302114803625378",
    "sourceurl": "http://www.chron.com/news/houston-texas/houston/article/2nd-suspect-arrested-in-death-of-Houston-taco-4939870.php",
    "feature_id": "1373692",
    "feature_name": "Fairbanks",
    "state_alpha": "TX",
    "county_name": "Harris",
    "county_numeric": "201",
    "prim_lat_dec": "29.8527259",
    "prim_long_dec": "-95.5243864",
    "elev_in_m": "27",
    "elev_in_ft": "89",
    "lat": 29.8527259,
    "long": -95.5243864
  },
  {
    "globaleventid": 273710464,
    "sqldate": 20131030,
    "monthyear": 201310,
    "year": 2013,
    "fractiondate": "2013.8219",
    "eventcode": 193,
    "quadclass": 4,
    "nummentions": 2,
    "numsources": 1,
    "numarticles": 2,
    "avgtone": "1.26262626262626",
    "sourceurl": "http://www.vindy.com/news/2013/oct/30/dying-man-tells-cops-that-8216boo-walker/?nw",
    "feature_id": "1380966",
    "feature_name": "Baytown",
    "state_alpha": "TX",
    "county_name": "Harris",
    "county_numeric": "201",
    "prim_lat_dec": "29.7355047",
    "prim_long_dec": "-94.9774274",
    "elev_in_m": "7",
    "elev_in_ft": "23",
    "lat": 29.7355047,
    "long": -94.9774274
  },
  {
    "globaleventid": 273710463,
    "sqldate": 20131030,
    "monthyear": 201310,
    "year": 2013,
    "fractiondate": "2013.8219",
    "eventcode": 193,
    "quadclass": 4,
    "nummentions": 10,
    "numsources": 1,
    "numarticles": 10,
    "avgtone": "0.943396226415094",
    "sourceurl": "http://www.wfaa.com/news/Police-question-man-in-Woodrow-Wilson-student-shooting-229977511.html",
    "feature_id": "1380944",
    "feature_name": "Dallas",
    "state_alpha": "TX",
    "county_name": "Dallas",
    "county_numeric": "113",
    "prim_lat_dec": "32.7830556",
    "prim_long_dec": "-96.8066667",
    "elev_in_m": "128",
    "elev_in_ft": "420",
    "lat": 32.7830556,
    "long": -96.8066667
  },
  {
    "globaleventid": 273710462,
    "sqldate": 20131030,
    "monthyear": 201310,
    "year": 2013,
    "fractiondate": "2013.8219",
    "eventcode": 193,
    "quadclass": 4,
    "nummentions": 4,
    "numsources": 1,
    "numarticles": 4,
    "avgtone": "0.0",
    "sourceurl": "http://www.krqe.com/news/crime/injured-officer-not-shot-police-now-say",
    "feature_id": "1374760",
    "feature_name": "Lubbock",
    "state_alpha": "TX",
    "county_name": "Lubbock",
    "county_numeric": "303",
    "prim_lat_dec": "33.5778631",
    "prim_long_dec": "-101.8551665",
    "elev_in_m": "976",
    "elev_in_ft": "3202",
    "lat": 33.5778631,
    "long": -101.8551665
  },
  {
    "globaleventid": 273710460,
    "sqldate": 20131030,
    "monthyear": 201310,
    "year": 2013,
    "fractiondate": "2013.8219",
    "eventcode": 193,
    "quadclass": 4,
    "nummentions": 1,
    "numsources": 1,
    "numarticles": 1,
    "avgtone": "0.440528634361234",
    "sourceurl": "http://www.foxsanantonio.com/newsroom/top_stories/videos/vid_17934.shtml",
    "feature_id": "1374716",
    "feature_name": "Longview",
    "state_alpha": "TX",
    "county_name": "Gregg",
    "county_numeric": "183",
    "prim_lat_dec": "32.5007038",
    "prim_long_dec": "-94.7404891",
    "elev_in_m": "113",
    "elev_in_ft": "371",
    "lat": 32.5007038,
    "long": -94.7404891
  },
  {
    "globaleventid": 273710458,
    "sqldate": 20131030,
    "monthyear": 201310,
    "year": 2013,
    "fractiondate": "2013.8219",
    "eventcode": 193,
    "quadclass": 4,
    "nummentions": 14,
    "numsources": 4,
    "numarticles": 14,
    "avgtone": "0.172767816272348",
    "sourceurl": "http://www.kotaradio.com/news.asp?eid=5002&ID=14819",
    "feature_id": "1265333",
    "feature_name": "Rapid City",
    "state_alpha": "SD",
    "county_name": "Pennington",
    "county_numeric": "103",
    "prim_lat_dec": "44.0805434",
    "prim_long_dec": "-103.2310149",
    "elev_in_m": "988",
    "elev_in_ft": "3241",
    "lat": 44.0805434,
    "long": -103.2310149
  },
  {
    "globaleventid": 273710453,
    "sqldate": 20131030,
    "monthyear": 201310,
    "year": 2013,
    "fractiondate": "2013.8219",
    "eventcode": 192,
    "quadclass": 4,
    "nummentions": 8,
    "numsources": 1,
    "numarticles": 8,
    "avgtone": "0.719424460431655",
    "sourceurl": "http://lancasteronline.com/article/local/912119_Akron-man-charged-with-stealing-car-from-convenience-store-lot.html",
    "feature_id": "1174287",
    "feature_name": "Ephrata",
    "state_alpha": "PA",
    "county_name": "Lancaster",
    "county_numeric": "071",
    "prim_lat_dec": "40.1798165",
    "prim_long_dec": "-76.1788391",
    "elev_in_m": "110",
    "elev_in_ft": "361",
    "lat": 40.1798165,
    "long": -76.1788391
  },
  {
    "globaleventid": 273710440,
    "sqldate": 20131030,
    "monthyear": 201310,
    "year": 2013,
    "fractiondate": "2013.8219",
    "eventcode": 190,
    "quadclass": 4,
    "nummentions": 6,
    "numsources": 1,
    "numarticles": 6,
    "avgtone": "0.735294117647059",
    "sourceurl": "http://www.sfgate.com/news/crime/article/Man-found-in-wrecked-car-in-Wichita-was-shot-4938850.php",
    "feature_id": "473862",
    "feature_name": "Wichita",
    "state_alpha": "KS",
    "county_name": "Sedgwick",
    "county_numeric": "173",
    "prim_lat_dec": "37.6922361",
    "prim_long_dec": "-97.3375448",
    "elev_in_m": "397",
    "elev_in_ft": "1302",
    "lat": 37.6922361,
    "long": -97.3375448
  },
  {
    "globaleventid": 273710432,
    "sqldate": 20131030,
    "monthyear": 201310,
    "year": 2013,
    "fractiondate": "2013.8219",
    "eventcode": 190,
    "quadclass": 4,
    "nummentions": 8,
    "numsources": 1,
    "numarticles": 8,
    "avgtone": "1.23456790123457",
    "sourceurl": "http://www.ny1.com/content/news/191324/police--queens-nursing-home-resident-fatally-beaten-by-roommate",
    "feature_id": "962743",
    "feature_name": "Rockaway Park",
    "state_alpha": "NY",
    "county_name": "Queens",
    "county_numeric": "081",
    "prim_lat_dec": "40.5801051",
    "prim_long_dec": "-73.8362459",
    "elev_in_m": "2",
    "elev_in_ft": "7",
    "lat": 40.5801051,
    "long": -73.8362459
  },
  {
    "globaleventid": 273710431,
    "sqldate": 20131030,
    "monthyear": 201310,
    "year": 2013,
    "fractiondate": "2013.8219",
    "eventcode": 190,
    "quadclass": 4,
    "nummentions": 2,
    "numsources": 1,
    "numarticles": 2,
    "avgtone": "0.0",
    "sourceurl": "http://www.ctpost.com/news/crime/article/NY-man-convicted-of-killing-girlfriend-s-roommate-4938310.php",
    "feature_id": "962684",
    "feature_name": "Rochester",
    "state_alpha": "NY",
    "county_name": "Monroe",
    "county_numeric": "055",
    "prim_lat_dec": "43.1547845",
    "prim_long_dec": "-77.6155568",
    "elev_in_m": "154",
    "elev_in_ft": "505",
    "lat": 43.1547845,
    "long": -77.6155568
  },
  {
    "globaleventid": 273710430,
    "sqldate": 20131030,
    "monthyear": 201310,
    "year": 2013,
    "fractiondate": "2013.8219",
    "eventcode": 190,
    "quadclass": 4,
    "nummentions": 8,
    "numsources": 1,
    "numarticles": 8,
    "avgtone": "0.0",
    "sourceurl": "http://www.ctpost.com/news/crime/article/NY-man-convicted-of-killing-girlfriend-s-roommate-4938310.php",
    "feature_id": "962684",
    "feature_name": "Rochester",
    "state_alpha": "NY",
    "county_name": "Monroe",
    "county_numeric": "055",
    "prim_lat_dec": "43.1547845",
    "prim_long_dec": "-77.6155568",
    "elev_in_m": "154",
    "elev_in_ft": "505",
    "lat": 43.1547845,
    "long": -77.6155568
  },
  {
    "globaleventid": 273710429,
    "sqldate": 20131030,
    "monthyear": 201310,
    "year": 2013,
    "fractiondate": "2013.8219",
    "eventcode": 190,
    "quadclass": 4,
    "nummentions": 4,
    "numsources": 1,
    "numarticles": 4,
    "avgtone": "1.95402298850575",
    "sourceurl": "http://www.pnj.com/viewart/20131030/NEWS03/131030004/Parents-still-turn-troubled-youth-ranches",
    "feature_id": "928679",
    "feature_name": "Albuquerque",
    "state_alpha": "NM",
    "county_name": "Bernalillo",
    "county_numeric": "001",
    "prim_lat_dec": "35.0844909",
    "prim_long_dec": "-106.6511367",
    "elev_in_m": "1510",
    "elev_in_ft": "4954",
    "lat": 35.0844909,
    "long": -106.6511367
  },
  {
    "globaleventid": 273710428,
    "sqldate": 20131030,
    "monthyear": 201310,
    "year": 2013,
    "fractiondate": "2013.8219",
    "eventcode": 190,
    "quadclass": 4,
    "nummentions": 2,
    "numsources": 1,
    "numarticles": 2,
    "avgtone": "0.735294117647059",
    "sourceurl": "http://www.sfgate.com/news/crime/article/Man-found-in-wrecked-car-in-Wichita-was-shot-4938850.php",
    "feature_id": "473862",
    "feature_name": "Wichita",
    "state_alpha": "KS",
    "county_name": "Sedgwick",
    "county_numeric": "173",
    "prim_lat_dec": "37.6922361",
    "prim_long_dec": "-97.3375448",
    "elev_in_m": "397",
    "elev_in_ft": "1302",
    "lat": 37.6922361,
    "long": -97.3375448
  },
  {
    "globaleventid": 273710427,
    "sqldate": 20131030,
    "monthyear": 201310,
    "year": 2013,
    "fractiondate": "2013.8219",
    "eventcode": 190,
    "quadclass": 4,
    "nummentions": 2,
    "numsources": 1,
    "numarticles": 2,
    "avgtone": "1.77664974619289",
    "sourceurl": "http://siouxcityjournal.com/news/local/police-wade-through-tips-about-sioux-city-murder-suspect/article_b2076c16-0f5c-5b05-83f9-17c891e2458a.html",
    "feature_id": "461653",
    "feature_name": "Sioux City",
    "state_alpha": "IA",
    "county_name": "Woodbury",
    "county_numeric": "193",
    "prim_lat_dec": "42.4999942",
    "prim_long_dec": "-96.4003069",
    "elev_in_m": "366",
    "elev_in_ft": "1201",
    "lat": 42.4999942,
    "long": -96.4003069
  },
  {
    "globaleventid": 273710426,
    "sqldate": 20131030,
    "monthyear": 201310,
    "year": 2013,
    "fractiondate": "2013.8219",
    "eventcode": 190,
    "quadclass": 4,
    "nummentions": 4,
    "numsources": 1,
    "numarticles": 4,
    "avgtone": "1.77993527508091",
    "sourceurl": "http://www.sfgate.com/news/crime/article/Police-reports-detail-Naperville-child-slayings-4939580.php",
    "feature_id": "423587",
    "feature_name": "Chicago",
    "state_alpha": "IL",
    "county_name": "Cook",
    "county_numeric": "031",
    "prim_lat_dec": "41.850033",
    "prim_long_dec": "-87.6500523",
    "elev_in_m": "179",
    "elev_in_ft": "587",
    "lat": 41.850033,
    "long": -87.6500523
  },
  {
    "globaleventid": 273710425,
    "sqldate": 20131030,
    "monthyear": 201310,
    "year": 2013,
    "fractiondate": "2013.8219",
    "eventcode": 190,
    "quadclass": 4,
    "nummentions": 4,
    "numsources": 1,
    "numarticles": 4,
    "avgtone": "1.39211136890951",
    "sourceurl": "http://abclocal.go.com/kfsn/story?section=news/local&id=9305891",
    "feature_id": "277606",
    "feature_name": "Fresno",
    "state_alpha": "CA",
    "county_name": "Fresno",
    "county_numeric": "019",
    "prim_lat_dec": "36.7477272",
    "prim_long_dec": "-119.7723661",
    "elev_in_m": "94",
    "elev_in_ft": "308",
    "lat": 36.7477272,
    "long": -119.7723661
  },
  {
    "globaleventid": 273710421,
    "sqldate": 20131030,
    "monthyear": 201310,
    "year": 2013,
    "fractiondate": "2013.8219",
    "eventcode": 190,
    "quadclass": 4,
    "nummentions": 4,
    "numsources": 1,
    "numarticles": 4,
    "avgtone": "0.776914539400666",
    "sourceurl": "http://www.latimes.com/local/la-me-lazarus-lawsuit-20131030,0,1040483.story?track=rss",
    "feature_id": "1662328",
    "feature_name": "Los Angeles",
    "state_alpha": "CA",
    "county_name": "Los Angeles",
    "county_numeric": "037",
    "prim_lat_dec": "34.0522342",
    "prim_long_dec": "-118.2436849",
    "elev_in_m": "89",
    "elev_in_ft": "292",
    "lat": 34.0522342,
    "long": -118.2436849
  },
  {
    "globaleventid": 273710418,
    "sqldate": 20131030,
    "monthyear": 201310,
    "year": 2013,
    "fractiondate": "2013.8219",
    "eventcode": 190,
    "quadclass": 4,
    "nummentions": 4,
    "numsources": 1,
    "numarticles": 4,
    "avgtone": "0.302114803625378",
    "sourceurl": "http://www.chron.com/news/houston-texas/houston/article/2nd-suspect-arrested-in-death-of-Houston-taco-4939870.php",
    "feature_id": "1373692",
    "feature_name": "Fairbanks",
    "state_alpha": "TX",
    "county_name": "Harris",
    "county_numeric": "201",
    "prim_lat_dec": "29.8527259",
    "prim_long_dec": "-95.5243864",
    "elev_in_m": "27",
    "elev_in_ft": "89",
    "lat": 29.8527259,
    "long": -95.5243864
  },
  {
    "globaleventid": 273710416,
    "sqldate": 20131030,
    "monthyear": 201310,
    "year": 2013,
    "fractiondate": "2013.8219",
    "eventcode": 190,
    "quadclass": 4,
    "nummentions": 2,
    "numsources": 1,
    "numarticles": 2,
    "avgtone": "3.02375809935205",
    "sourceurl": "http://newberry.wistv.com/news/crime/79773-man-accused-firing-deputies-during-early-morning-standoff",
    "feature_id": "1251474",
    "feature_name": "Winnsboro",
    "state_alpha": "SC",
    "county_name": "Fairfield",
    "county_numeric": "039",
    "prim_lat_dec": "34.3807012",
    "prim_long_dec": "-81.0864776",
    "elev_in_m": "163",
    "elev_in_ft": "535",
    "lat": 34.3807012,
    "long": -81.0864776
  },
  {
    "globaleventid": 273710412,
    "sqldate": 20131030,
    "monthyear": 201310,
    "year": 2013,
    "fractiondate": "2013.8219",
    "eventcode": 1821,
    "quadclass": 4,
    "nummentions": 4,
    "numsources": 2,
    "numarticles": 4,
    "avgtone": "0.769230769230771",
    "sourceurl": "http://www.bostonstar.com/index.php/sid/218076178/scat/141778e5a055112e",
    "feature_id": "617565",
    "feature_name": "Boston",
    "state_alpha": "MA",
    "county_name": "Suffolk",
    "county_numeric": "025",
    "prim_lat_dec": "42.3584308",
    "prim_long_dec": "-71.0597732",
    "elev_in_m": "14",
    "elev_in_ft": "46",
    "lat": 42.3584308,
    "long": -71.0597732
  },
  {
    "globaleventid": 273710410,
    "sqldate": 20131030,
    "monthyear": 201310,
    "year": 2013,
    "fractiondate": "2013.8219",
    "eventcode": 182,
    "quadclass": 4,
    "nummentions": 2,
    "numsources": 1,
    "numarticles": 2,
    "avgtone": "0.0",
    "sourceurl": "http://www.newyorktelegraph.com/index.php/sid/218075491/scat/5a8b8c26522de7fd",
    "feature_id": "944840",
    "feature_name": "Brooklyn",
    "state_alpha": "NY",
    "county_name": "Delaware",
    "county_numeric": "025",
    "prim_lat_dec": "42.3442482",
    "prim_long_dec": "-75.1704468",
    "elev_in_m": "366",
    "elev_in_ft": "1201",
    "lat": 42.3442482,
    "long": -75.1704468
  },
  {
    "globaleventid": 273710409,
    "sqldate": 20131030,
    "monthyear": 201310,
    "year": 2013,
    "fractiondate": "2013.8219",
    "eventcode": 182,
    "quadclass": 4,
    "nummentions": 20,
    "numsources": 3,
    "numarticles": 20,
    "avgtone": "2.29113917796515",
    "sourceurl": "http://www.policeone.com/bizarre/articles/6554553-Phone-charger-saves-Calif-cop-from-bullet-in-shootout/",
    "feature_id": "1662328",
    "feature_name": "Los Angeles",
    "state_alpha": "CA",
    "county_name": "Los Angeles",
    "county_numeric": "037",
    "prim_lat_dec": "34.0522342",
    "prim_long_dec": "-118.2436849",
    "elev_in_m": "89",
    "elev_in_ft": "292",
    "lat": 34.0522342,
    "long": -118.2436849
  },
  {
    "globaleventid": 273710408,
    "sqldate": 20131030,
    "monthyear": 201310,
    "year": 2013,
    "fractiondate": "2013.8219",
    "eventcode": 182,
    "quadclass": 4,
    "nummentions": 8,
    "numsources": 1,
    "numarticles": 8,
    "avgtone": "0.0",
    "sourceurl": "http://www.fox45now.com/shared/news/top-stories/stories/wrgt_vid_16813.shtml",
    "feature_id": "1100281",
    "feature_name": "Centerville",
    "state_alpha": "OK",
    "county_name": "Kiowa",
    "county_numeric": "075",
    "prim_lat_dec": "34.7253448",
    "prim_long_dec": "-99.1059135",
    "elev_in_m": "433",
    "elev_in_ft": "1421",
    "lat": 34.7253448,
    "long": -99.1059135
  },
  {
    "globaleventid": 273710407,
    "sqldate": 20131030,
    "monthyear": 201310,
    "year": 2013,
    "fractiondate": "2013.8219",
    "eventcode": 181,
    "quadclass": 4,
    "nummentions": 2,
    "numsources": 1,
    "numarticles": 2,
    "avgtone": "0.0",
    "sourceurl": "http://www.wsaz.com/news/charlestonnews/headlines/Man-Arrested-on-Kidnapping-and-Arson-Charges-229877311.html",
    "feature_id": "1536823",
    "feature_name": "Cabin Creek",
    "state_alpha": "WV",
    "county_name": "Kanawha",
    "county_numeric": "039",
    "prim_lat_dec": "38.1959367",
    "prim_long_dec": "-81.477616",
    "elev_in_m": "192",
    "elev_in_ft": "630",
    "lat": 38.1959367,
    "long": -81.477616
  },
  {
    "globaleventid": 273710405,
    "sqldate": 20131030,
    "monthyear": 201310,
    "year": 2013,
    "fractiondate": "2013.8219",
    "eventcode": 181,
    "quadclass": 4,
    "nummentions": 2,
    "numsources": 1,
    "numarticles": 2,
    "avgtone": "0.0",
    "sourceurl": "http://www.wsaz.com/news/charlestonnews/headlines/Man-Arrested-on-Kidnapping-and-Arson-Charges-229877311.html",
    "feature_id": "1536823",
    "feature_name": "Cabin Creek",
    "state_alpha": "WV",
    "county_name": "Kanawha",
    "county_numeric": "039",
    "prim_lat_dec": "38.1959367",
    "prim_long_dec": "-81.477616",
    "elev_in_m": "192",
    "elev_in_ft": "630",
    "lat": 38.1959367,
    "long": -81.477616
  },
  {
    "globaleventid": 273710389,
    "sqldate": 20131030,
    "monthyear": 201310,
    "year": 2013,
    "fractiondate": "2013.8219",
    "eventcode": 180,
    "quadclass": 4,
    "nummentions": 2,
    "numsources": 1,
    "numarticles": 2,
    "avgtone": "0.903614457831325",
    "sourceurl": "http://www.mlive.com/news/jackson/index.ssf/2013/10/jackson_county_sheriffs_office_478.html",
    "feature_id": "622257",
    "feature_name": "Bunker Hill",
    "state_alpha": "MI",
    "county_name": "Ingham",
    "county_numeric": "065",
    "prim_lat_dec": "42.4755917",
    "prim_long_dec": "-84.3174666",
    "elev_in_m": "288",
    "elev_in_ft": "945",
    "lat": 42.4755917,
    "long": -84.3174666
  },
  {
    "globaleventid": 273710388,
    "sqldate": 20131030,
    "monthyear": 201310,
    "year": 2013,
    "fractiondate": "2013.8219",
    "eventcode": 180,
    "quadclass": 4,
    "nummentions": 5,
    "numsources": 1,
    "numarticles": 5,
    "avgtone": "1.12044817927171",
    "sourceurl": "http://concord-nh.patch.com/groups/police-and-fire/p/mass-sex-offender-arrested-at-the-friendly-kitchen",
    "feature_id": "617565",
    "feature_name": "Boston",
    "state_alpha": "MA",
    "county_name": "Suffolk",
    "county_numeric": "025",
    "prim_lat_dec": "42.3584308",
    "prim_long_dec": "-71.0597732",
    "elev_in_m": "14",
    "elev_in_ft": "46",
    "lat": 42.3584308,
    "long": -71.0597732
  },
  {
    "globaleventid": 273710387,
    "sqldate": 20131030,
    "monthyear": 201310,
    "year": 2013,
    "fractiondate": "2013.8219",
    "eventcode": 180,
    "quadclass": 4,
    "nummentions": 5,
    "numsources": 1,
    "numarticles": 5,
    "avgtone": "0.0",
    "sourceurl": "http://www.wtop.com/41/3494264/Police-Man-assaulted-possibly-tortured-in-DC-home-invasion",
    "feature_id": "531871",
    "feature_name": "Washington",
    "state_alpha": "DC",
    "county_name": "District of Columbia",
    "county_numeric": "001",
    "prim_lat_dec": "38.8951118",
    "prim_long_dec": "-77.0363658",
    "elev_in_m": "7",
    "elev_in_ft": "23",
    "lat": 38.8951118,
    "long": -77.0363658
  },
  {
    "globaleventid": 273710386,
    "sqldate": 20131030,
    "monthyear": 201310,
    "year": 2013,
    "fractiondate": "2013.8219",
    "eventcode": 180,
    "quadclass": 4,
    "nummentions": 4,
    "numsources": 1,
    "numarticles": 4,
    "avgtone": "0.0",
    "sourceurl": "http://sanfrancisco.cbslocal.com/2013/10/30/man-found-severely-beaten-in-san-francisco-hotel-room/",
    "feature_id": "277593",
    "feature_name": "San Francisco",
    "state_alpha": "CA",
    "county_name": "San Francisco",
    "county_numeric": "075",
    "prim_lat_dec": "37.775",
    "prim_long_dec": "-122.4194444",
    "elev_in_m": "16",
    "elev_in_ft": "52",
    "lat": 37.775,
    "long": -122.4194444
  },
  {
    "globaleventid": 273710384,
    "sqldate": 20131030,
    "monthyear": 201310,
    "year": 2013,
    "fractiondate": "2013.8219",
    "eventcode": 180,
    "quadclass": 4,
    "nummentions": 4,
    "numsources": 1,
    "numarticles": 4,
    "avgtone": "2.41448692152917",
    "sourceurl": "http://peninsulaclarion.com/news/2013-10-29/homer-brothers-plead-not-guilty-to-sexual-assault-of-incapacitated-teen",
    "feature_id": "1413299",
    "feature_name": "Kenai",
    "state_alpha": "AK",
    "county_name": "Kenai Peninsula",
    "county_numeric": "122",
    "prim_lat_dec": "60.5544444",
    "prim_long_dec": "-151.2583333",
    "elev_in_m": "26",
    "elev_in_ft": "85",
    "lat": 60.5544444,
    "long": -151.2583333
  },
  {
    "globaleventid": 273710383,
    "sqldate": 20131030,
    "monthyear": 201310,
    "year": 2013,
    "fractiondate": "2013.8219",
    "eventcode": 180,
    "quadclass": 4,
    "nummentions": 1,
    "numsources": 1,
    "numarticles": 1,
    "avgtone": "0.0",
    "sourceurl": "http://www.kltv.com/story/23824667/haliburton?t=2013-10-30T11:08:05Z",
    "feature_id": "1373769",
    "feature_name": "Frankston",
    "state_alpha": "TX",
    "county_name": "Anderson",
    "county_numeric": "001",
    "prim_lat_dec": "32.0526614",
    "prim_long_dec": "-95.5063456",
    "elev_in_m": "128",
    "elev_in_ft": "420",
    "lat": 32.0526614,
    "long": -95.5063456
  },
  {
    "globaleventid": 273710382,
    "sqldate": 20131030,
    "monthyear": 201310,
    "year": 2013,
    "fractiondate": "2013.8219",
    "eventcode": 180,
    "quadclass": 4,
    "nummentions": 4,
    "numsources": 1,
    "numarticles": 4,
    "avgtone": "0.0",
    "sourceurl": "http://www.kltv.com/story/23824667/haliburton?t=2013-10-30T11:08:05Z",
    "feature_id": "1373769",
    "feature_name": "Frankston",
    "state_alpha": "TX",
    "county_name": "Anderson",
    "county_numeric": "001",
    "prim_lat_dec": "32.0526614",
    "prim_long_dec": "-95.5063456",
    "elev_in_m": "128",
    "elev_in_ft": "420",
    "lat": 32.0526614,
    "long": -95.5063456
  },
  {
    "globaleventid": 273710381,
    "sqldate": 20131030,
    "monthyear": 201310,
    "year": 2013,
    "fractiondate": "2013.8219",
    "eventcode": 180,
    "quadclass": 4,
    "nummentions": 4,
    "numsources": 1,
    "numarticles": 4,
    "avgtone": "0.588235294117647",
    "sourceurl": "http://www.ksfy.com/story/23831339/police-charge-five-for-drugs-after-responding-to-assault-call",
    "feature_id": "1267670",
    "feature_name": "Sioux Falls",
    "state_alpha": "SD",
    "county_name": "Minnehaha",
    "county_numeric": "099",
    "prim_lat_dec": "43.5499749",
    "prim_long_dec": "-96.700327",
    "elev_in_m": "449",
    "elev_in_ft": "1473",
    "lat": 43.5499749,
    "long": -96.700327
  },
  {
    "globaleventid": 273710379,
    "sqldate": 20131030,
    "monthyear": 201310,
    "year": 2013,
    "fractiondate": "2013.8219",
    "eventcode": 175,
    "quadclass": 4,
    "nummentions": 5,
    "numsources": 1,
    "numarticles": 5,
    "avgtone": "2.01477501678979",
    "sourceurl": "http://nymag.com/daily/intelligencer/2013/10/keystone-fight-a-huge-environmentalist-mistake.html",
    "feature_id": "531871",
    "feature_name": "Washington",
    "state_alpha": "DC",
    "county_name": "District of Columbia",
    "county_numeric": "001",
    "prim_lat_dec": "38.8951118",
    "prim_long_dec": "-77.0363658",
    "elev_in_m": "7",
    "elev_in_ft": "23",
    "lat": 38.8951118,
    "long": -77.0363658
  },
  {
    "globaleventid": 273710378,
    "sqldate": 20131030,
    "monthyear": 201310,
    "year": 2013,
    "fractiondate": "2013.8219",
    "eventcode": 174,
    "quadclass": 4,
    "nummentions": 1,
    "numsources": 1,
    "numarticles": 1,
    "avgtone": "0.576923076923077",
    "sourceurl": "http://www.thenewsdispatch.com/articles/2013/10/30/news/local/doc525f5c38c3463035839539.txt",
    "feature_id": "450449",
    "feature_name": "LaPorte",
    "state_alpha": "IN",
    "county_name": "LaPorte",
    "county_numeric": "091",
    "prim_lat_dec": "41.6105983",
    "prim_long_dec": "-86.7225227",
    "elev_in_m": "247",
    "elev_in_ft": "810",
    "lat": 41.6105983,
    "long": -86.7225227
  },
  {
    "globaleventid": 273710374,
    "sqldate": 20131030,
    "monthyear": 201310,
    "year": 2013,
    "fractiondate": "2013.8219",
    "eventcode": 173,
    "quadclass": 4,
    "nummentions": 4,
    "numsources": 1,
    "numarticles": 4,
    "avgtone": "0.0",
    "sourceurl": "http://www.wowktv.com/story/23831568/man-arrested-for-child-abuse-in-clay-county-wv",
    "feature_id": "1555908",
    "feature_name": "Wallback",
    "state_alpha": "WV",
    "county_name": "Roane",
    "county_numeric": "087",
    "prim_lat_dec": "38.565653",
    "prim_long_dec": "-81.1303897",
    "elev_in_m": "233",
    "elev_in_ft": "764",
    "lat": 38.565653,
    "long": -81.1303897
  },
  {
    "globaleventid": 273710351,
    "sqldate": 20131030,
    "monthyear": 201310,
    "year": 2013,
    "fractiondate": "2013.8219",
    "eventcode": 173,
    "quadclass": 4,
    "nummentions": 2,
    "numsources": 1,
    "numarticles": 2,
    "avgtone": "3.26744655102864",
    "sourceurl": "http://www.windycitymediagroup.com/lgbt/Tom-Ridge-talks-with-Log-Cabins-journalist-Doug-Ireland-dies/44977.html&c=BpeOkEH4d341MzJz5AfHTCaEiXz4O30sU_QA8t-jOrY&mkt=en-us",
    "feature_id": "1660504",
    "feature_name": "Community Center",
    "state_alpha": "CA",
    "county_name": "Ventura",
    "county_numeric": "111",
    "prim_lat_dec": "34.2691696",
    "prim_long_dec": "-118.7375916",
    "elev_in_m": "278",
    "elev_in_ft": "912",
    "lat": 34.2691696,
    "long": -118.7375916
  },
  {
    "globaleventid": 273710350,
    "sqldate": 20131030,
    "monthyear": 201310,
    "year": 2013,
    "fractiondate": "2013.8219",
    "eventcode": 173,
    "quadclass": 4,
    "nummentions": 5,
    "numsources": 1,
    "numarticles": 5,
    "avgtone": "3.26744655102864",
    "sourceurl": "http://www.windycitymediagroup.com/lgbt/Tom-Ridge-talks-with-Log-Cabins-journalist-Doug-Ireland-dies/44977.html&c=BpeOkEH4d341MzJz5AfHTCaEiXz4O30sU_QA8t-jOrY&mkt=en-us",
    "feature_id": "1577901",
    "feature_name": "Milwaukee",
    "state_alpha": "WI",
    "county_name": "Milwaukee",
    "county_numeric": "079",
    "prim_lat_dec": "43.0389025",
    "prim_long_dec": "-87.9064736",
    "elev_in_m": "187",
    "elev_in_ft": "614",
    "lat": 43.0389025,
    "long": -87.9064736
  },
  {
    "globaleventid": 273710326,
    "sqldate": 20131030,
    "monthyear": 201310,
    "year": 2013,
    "fractiondate": "2013.8219",
    "eventcode": 173,
    "quadclass": 4,
    "nummentions": 2,
    "numsources": 1,
    "numarticles": 2,
    "avgtone": "2.35690235690236",
    "sourceurl": "http://www.kinston.com/news/local/mayoral-candidate-says-he-won-t-break-with-campaign-manager-1.226695",
    "feature_id": "988015",
    "feature_name": "Kinston",
    "state_alpha": "NC",
    "county_name": "Lenoir",
    "county_numeric": "107",
    "prim_lat_dec": "35.2626635",
    "prim_long_dec": "-77.5816353",
    "elev_in_m": "13",
    "elev_in_ft": "43",
    "lat": 35.2626635,
    "long": -77.5816353
  },
  {
    "globaleventid": 273710323,
    "sqldate": 20131030,
    "monthyear": 201310,
    "year": 2013,
    "fractiondate": "2013.8219",
    "eventcode": 173,
    "quadclass": 4,
    "nummentions": 8,
    "numsources": 1,
    "numarticles": 8,
    "avgtone": "0.0",
    "sourceurl": "http://www.ctpost.com/news/crime/article/NY-man-convicted-of-killing-girlfriend-s-roommate-4938310.php",
    "feature_id": "962684",
    "feature_name": "Rochester",
    "state_alpha": "NY",
    "county_name": "Monroe",
    "county_numeric": "055",
    "prim_lat_dec": "43.1547845",
    "prim_long_dec": "-77.6155568",
    "elev_in_m": "154",
    "elev_in_ft": "505",
    "lat": 43.1547845,
    "long": -77.6155568
  },
  {
    "globaleventid": 273710322,
    "sqldate": 20131030,
    "monthyear": 201310,
    "year": 2013,
    "fractiondate": "2013.8219",
    "eventcode": 173,
    "quadclass": 4,
    "nummentions": 2,
    "numsources": 1,
    "numarticles": 2,
    "avgtone": "0.0",
    "sourceurl": "http://pix11.com/2013/10/30/brooklyn-sex-assault-suspect-found-in-beverly-hills/",
    "feature_id": "944840",
    "feature_name": "Brooklyn",
    "state_alpha": "NY",
    "county_name": "Delaware",
    "county_numeric": "025",
    "prim_lat_dec": "42.3442482",
    "prim_long_dec": "-75.1704468",
    "elev_in_m": "366",
    "elev_in_ft": "1201",
    "lat": 42.3442482,
    "long": -75.1704468
  },
  {
    "globaleventid": 273710321,
    "sqldate": 20131030,
    "monthyear": 201310,
    "year": 2013,
    "fractiondate": "2013.8219",
    "eventcode": 173,
    "quadclass": 4,
    "nummentions": 5,
    "numsources": 1,
    "numarticles": 5,
    "avgtone": "1.37221269296741",
    "sourceurl": "http://www.centraljersey.com/articles/2013/10/30/hopewell_valley_news/news/doc525eff4abea02837813575.txt",
    "feature_id": "881197",
    "feature_name": "Titusville",
    "state_alpha": "NJ",
    "county_name": "Mercer",
    "county_numeric": "021",
    "prim_lat_dec": "40.3095516",
    "prim_long_dec": "-74.8804428",
    "elev_in_m": "26",
    "elev_in_ft": "85",
    "lat": 40.3095516,
    "long": -74.8804428
  },
  {
    "globaleventid": 273710320,
    "sqldate": 20131030,
    "monthyear": 201310,
    "year": 2013,
    "fractiondate": "2013.8219",
    "eventcode": 173,
    "quadclass": 4,
    "nummentions": 1,
    "numsources": 1,
    "numarticles": 1,
    "avgtone": "0.0",
    "sourceurl": "http://concord-nh.patch.com/groups/police-and-fire/p/men-arrested-in-knife-robbery-against-bhutanese-family",
    "feature_id": "869059",
    "feature_name": "Penacook",
    "state_alpha": "NH",
    "county_name": "Merrimack",
    "county_numeric": "013",
    "prim_lat_dec": "43.2803571",
    "prim_long_dec": "-71.6000742",
    "elev_in_m": "101",
    "elev_in_ft": "331",
    "lat": 43.2803571,
    "long": -71.6000742
  },
  {
    "globaleventid": 273710319,
    "sqldate": 20131030,
    "monthyear": 201310,
    "year": 2013,
    "fractiondate": "2013.8219",
    "eventcode": 173,
    "quadclass": 4,
    "nummentions": 48,
    "numsources": 5,
    "numarticles": 40,
    "avgtone": "0.196078431372548",
    "sourceurl": "http://www.boston.com/news/local/new-hampshire/2013/10/30/man-accused-robbery-home-invasion/OM7HAzgPquFOx0AVyQKK4O/story.html",
    "feature_id": "867917",
    "feature_name": "Laconia",
    "state_alpha": "NH",
    "county_name": "Belknap",
    "county_numeric": "001",
    "prim_lat_dec": "43.5278546",
    "prim_long_dec": "-71.470351",
    "elev_in_m": "153",
    "elev_in_ft": "502",
    "lat": 43.5278546,
    "long": -71.470351
  },
  {
    "globaleventid": 273710318,
    "sqldate": 20131030,
    "monthyear": 201310,
    "year": 2013,
    "fractiondate": "2013.8219",
    "eventcode": 173,
    "quadclass": 4,
    "nummentions": 4,
    "numsources": 1,
    "numarticles": 4,
    "avgtone": "0.0",
    "sourceurl": "http://www.thv11.com/news/story.aspx?storyid=285649",
    "feature_id": "78542",
    "feature_name": "Texarkana",
    "state_alpha": "AR",
    "county_name": "Miller",
    "county_numeric": "091",
    "prim_lat_dec": "33.4417915",
    "prim_long_dec": "-94.0376881",
    "elev_in_m": "110",
    "elev_in_ft": "361",
    "lat": 33.4417915,
    "long": -94.0376881
  },
  {
    "globaleventid": 273710316,
    "sqldate": 20131030,
    "monthyear": 201310,
    "year": 2013,
    "fractiondate": "2013.8219",
    "eventcode": 173,
    "quadclass": 4,
    "nummentions": 8,
    "numsources": 1,
    "numarticles": 8,
    "avgtone": "0.609756097560976",
    "sourceurl": "http://www.joplinglobe.com/crime_and_courts/x134994333/Charges-related-to-shots-fired-during-police-chase-filed",
    "feature_id": "715396",
    "feature_name": "Carl Junction",
    "state_alpha": "MO",
    "county_name": "Jasper",
    "county_numeric": "097",
    "prim_lat_dec": "37.1767249",
    "prim_long_dec": "-94.5655066",
    "elev_in_m": "272",
    "elev_in_ft": "892",
    "lat": 37.1767249,
    "long": -94.5655066
  },
  {
    "globaleventid": 273710314,
    "sqldate": 20131030,
    "monthyear": 201310,
    "year": 2013,
    "fractiondate": "2013.8219",
    "eventcode": 173,
    "quadclass": 4,
    "nummentions": 10,
    "numsources": 1,
    "numarticles": 10,
    "avgtone": "1.55038759689922",
    "sourceurl": "http://www.duluthnewstribune.com/event/article/id/282102/",
    "feature_id": "660490",
    "feature_name": "Hermantown",
    "state_alpha": "MN",
    "county_name": "St. Louis",
    "county_numeric": "137",
    "prim_lat_dec": "46.8068852",
    "prim_long_dec": "-92.2382464",
    "elev_in_m": "415",
    "elev_in_ft": "1362",
    "lat": 46.8068852,
    "long": -92.2382464
  },
  {
    "globaleventid": 273710313,
    "sqldate": 20131030,
    "monthyear": 201310,
    "year": 2013,
    "fractiondate": "2013.8219",
    "eventcode": 173,
    "quadclass": 4,
    "nummentions": 2,
    "numsources": 1,
    "numarticles": 2,
    "avgtone": "0.306748466257669",
    "sourceurl": "http://www.mlive.com/news/muskegon/index.ssf/2013/10/man_charged_in_norton_shores_b.html",
    "feature_id": "633743",
    "feature_name": "Norton Shores",
    "state_alpha": "MI",
    "county_name": "Muskegon",
    "county_numeric": "121",
    "prim_lat_dec": "43.1689044",
    "prim_long_dec": "-86.2639461",
    "elev_in_m": "186",
    "elev_in_ft": "610",
    "lat": 43.1689044,
    "long": -86.2639461
  },
  {
    "globaleventid": 273710312,
    "sqldate": 20131030,
    "monthyear": 201310,
    "year": 2013,
    "fractiondate": "2013.8219",
    "eventcode": 173,
    "quadclass": 4,
    "nummentions": 5,
    "numsources": 1,
    "numarticles": 5,
    "avgtone": "0.306748466257669",
    "sourceurl": "http://www.mlive.com/news/muskegon/index.ssf/2013/10/man_charged_in_norton_shores_b.html",
    "feature_id": "633743",
    "feature_name": "Norton Shores",
    "state_alpha": "MI",
    "county_name": "Muskegon",
    "county_numeric": "121",
    "prim_lat_dec": "43.1689044",
    "prim_long_dec": "-86.2639461",
    "elev_in_m": "186",
    "elev_in_ft": "610",
    "lat": 43.1689044,
    "long": -86.2639461
  },
  {
    "globaleventid": 273710311,
    "sqldate": 20131030,
    "monthyear": 201310,
    "year": 2013,
    "fractiondate": "2013.8219",
    "eventcode": 173,
    "quadclass": 4,
    "nummentions": 6,
    "numsources": 1,
    "numarticles": 6,
    "avgtone": "0.0",
    "sourceurl": "http://www.wwlp.com/news/massachusetts/high-risk-sex-offender-arrested",
    "feature_id": "617867",
    "feature_name": "Worcester",
    "state_alpha": "MA",
    "county_name": "Worcester",
    "county_numeric": "027",
    "prim_lat_dec": "42.2625932",
    "prim_long_dec": "-71.8022934",
    "elev_in_m": "146",
    "elev_in_ft": "479",
    "lat": 42.2625932,
    "long": -71.8022934
  },
  {
    "globaleventid": 273710310,
    "sqldate": 20131030,
    "monthyear": 201310,
    "year": 2013,
    "fractiondate": "2013.8219",
    "eventcode": 173,
    "quadclass": 4,
    "nummentions": 4,
    "numsources": 1,
    "numarticles": 4,
    "avgtone": "0.0",
    "sourceurl": "http://www.wwlp.com/news/massachusetts/high-risk-sex-offender-arrested",
    "feature_id": "617867",
    "feature_name": "Worcester",
    "state_alpha": "MA",
    "county_name": "Worcester",
    "county_numeric": "027",
    "prim_lat_dec": "42.2625932",
    "prim_long_dec": "-71.8022934",
    "elev_in_m": "146",
    "elev_in_ft": "479",
    "lat": 42.2625932,
    "long": -71.8022934
  },
  {
    "globaleventid": 273710309,
    "sqldate": 20131030,
    "monthyear": 201310,
    "year": 2013,
    "fractiondate": "2013.8219",
    "eventcode": 173,
    "quadclass": 4,
    "nummentions": 4,
    "numsources": 2,
    "numarticles": 4,
    "avgtone": "0.769230769230771",
    "sourceurl": "http://www.bostonstar.com/index.php/sid/218076178/scat/141778e5a055112e",
    "feature_id": "617565",
    "feature_name": "Boston",
    "state_alpha": "MA",
    "county_name": "Suffolk",
    "county_numeric": "025",
    "prim_lat_dec": "42.3584308",
    "prim_long_dec": "-71.0597732",
    "elev_in_m": "14",
    "elev_in_ft": "46",
    "lat": 42.3584308,
    "long": -71.0597732
  },
  {
    "globaleventid": 273710308,
    "sqldate": 20131030,
    "monthyear": 201310,
    "year": 2013,
    "fractiondate": "2013.8219",
    "eventcode": 173,
    "quadclass": 4,
    "nummentions": 16,
    "numsources": 1,
    "numarticles": 8,
    "avgtone": "1.17056856187291",
    "sourceurl": "http://www.heraldnews.com/newsnow/x2132750103/Richard-Reis-accused-in-James-Moore-hit-and-run-pleads-guilty",
    "feature_id": "612595",
    "feature_name": "Fall River",
    "state_alpha": "MA",
    "county_name": "Bristol",
    "county_numeric": "005",
    "prim_lat_dec": "41.7014912",
    "prim_long_dec": "-71.1550451",
    "elev_in_m": "37",
    "elev_in_ft": "121",
    "lat": 41.7014912,
    "long": -71.1550451
  },
  {
    "globaleventid": 273710307,
    "sqldate": 20131030,
    "monthyear": 201310,
    "year": 2013,
    "fractiondate": "2013.8219",
    "eventcode": 173,
    "quadclass": 4,
    "nummentions": 2,
    "numsources": 1,
    "numarticles": 2,
    "avgtone": "0.645161290322581",
    "sourceurl": "http://www.wcsh6.com/news/local/story.aspx?storyid=261829",
    "feature_id": "562959",
    "feature_name": "Bridgton",
    "state_alpha": "ME",
    "county_name": "Cumberland",
    "county_numeric": "005",
    "prim_lat_dec": "44.0547926",
    "prim_long_dec": "-70.7128399",
    "elev_in_m": "137",
    "elev_in_ft": "449",
    "lat": 44.0547926,
    "long": -70.7128399
  },
  {
    "globaleventid": 273710306,
    "sqldate": 20131030,
    "monthyear": 201310,
    "year": 2013,
    "fractiondate": "2013.8219",
    "eventcode": 173,
    "quadclass": 4,
    "nummentions": 16,
    "numsources": 1,
    "numarticles": 16,
    "avgtone": "0.641025641025641",
    "sourceurl": "http://www.ksla.com/story/23830450/another-shreveport-firefighter-charged-with-domestic-abuse",
    "feature_id": "553758",
    "feature_name": "Bossier City",
    "state_alpha": "LA",
    "county_name": "Bossier",
    "county_numeric": "015",
    "prim_lat_dec": "32.5159852",
    "prim_long_dec": "-93.7321229",
    "elev_in_m": "53",
    "elev_in_ft": "174",
    "lat": 32.5159852,
    "long": -93.7321229
  },
  {
    "globaleventid": 273710305,
    "sqldate": 20131030,
    "monthyear": 201310,
    "year": 2013,
    "fractiondate": "2013.8219",
    "eventcode": 173,
    "quadclass": 4,
    "nummentions": 1,
    "numsources": 1,
    "numarticles": 1,
    "avgtone": "2.01477501678979",
    "sourceurl": "http://nymag.com/daily/intelligencer/2013/10/keystone-fight-a-huge-environmentalist-mistake.html",
    "feature_id": "531871",
    "feature_name": "Washington",
    "state_alpha": "DC",
    "county_name": "District of Columbia",
    "county_numeric": "001",
    "prim_lat_dec": "38.8951118",
    "prim_long_dec": "-77.0363658",
    "elev_in_m": "7",
    "elev_in_ft": "23",
    "lat": 38.8951118,
    "long": -77.0363658
  },
  {
    "globaleventid": 273710304,
    "sqldate": 20131030,
    "monthyear": 201310,
    "year": 2013,
    "fractiondate": "2013.8219",
    "eventcode": 173,
    "quadclass": 4,
    "nummentions": 1,
    "numsources": 1,
    "numarticles": 1,
    "avgtone": "2.01477501678979",
    "sourceurl": "http://nymag.com/daily/intelligencer/2013/10/keystone-fight-a-huge-environmentalist-mistake.html",
    "feature_id": "531871",
    "feature_name": "Washington",
    "state_alpha": "DC",
    "county_name": "District of Columbia",
    "county_numeric": "001",
    "prim_lat_dec": "38.8951118",
    "prim_long_dec": "-77.0363658",
    "elev_in_m": "7",
    "elev_in_ft": "23",
    "lat": 38.8951118,
    "long": -77.0363658
  },
  {
    "globaleventid": 273710302,
    "sqldate": 20131030,
    "monthyear": 201310,
    "year": 2013,
    "fractiondate": "2013.8219",
    "eventcode": 173,
    "quadclass": 4,
    "nummentions": 2,
    "numsources": 1,
    "numarticles": 2,
    "avgtone": "0.97799511002445",
    "sourceurl": "http://journal-times.com/local/x252040758/FADE-busts-four-in-Olive-Hill",
    "feature_id": "501513",
    "feature_name": "Raceland",
    "state_alpha": "KY",
    "county_name": "Greenup",
    "county_numeric": "089",
    "prim_lat_dec": "38.5400803",
    "prim_long_dec": "-82.7284976",
    "elev_in_m": "166",
    "elev_in_ft": "545",
    "lat": 38.5400803,
    "long": -82.7284976
  },
  {
    "globaleventid": 273710299,
    "sqldate": 20131030,
    "monthyear": 201310,
    "year": 2013,
    "fractiondate": "2013.8219",
    "eventcode": 173,
    "quadclass": 4,
    "nummentions": 4,
    "numsources": 1,
    "numarticles": 4,
    "avgtone": "0.0",
    "sourceurl": "http://www.kake.com/home/headlines/Hutchinson-couple-charged-with-animal-cruelty-hospitalized-following-crash-229883811.html",
    "feature_id": "455672",
    "feature_name": "Council Bluffs",
    "state_alpha": "IA",
    "county_name": "Pottawattamie",
    "county_numeric": "155",
    "prim_lat_dec": "41.2619444",
    "prim_long_dec": "-95.8608333",
    "elev_in_m": "301",
    "elev_in_ft": "988",
    "lat": 41.2619444,
    "long": -95.8608333
  },
  {
    "globaleventid": 273710298,
    "sqldate": 20131030,
    "monthyear": 201310,
    "year": 2013,
    "fractiondate": "2013.8219",
    "eventcode": 173,
    "quadclass": 4,
    "nummentions": 5,
    "numsources": 1,
    "numarticles": 5,
    "avgtone": "0.826446280991736",
    "sourceurl": "http://kokomotribune.com/policereports/x934968972/Police-reports-Oct-30-2013",
    "feature_id": "452796",
    "feature_name": "South Bend",
    "state_alpha": "IN",
    "county_name": "St. Joseph",
    "county_numeric": "141",
    "prim_lat_dec": "41.6833813",
    "prim_long_dec": "-86.2500066",
    "elev_in_m": "211",
    "elev_in_ft": "692",
    "lat": 41.6833813,
    "long": -86.2500066
  },
  {
    "globaleventid": 273710292,
    "sqldate": 20131030,
    "monthyear": 201310,
    "year": 2013,
    "fractiondate": "2013.8219",
    "eventcode": 173,
    "quadclass": 4,
    "nummentions": 4,
    "numsources": 1,
    "numarticles": 4,
    "avgtone": "0.826446280991736",
    "sourceurl": "http://kokomotribune.com/policereports/x934968972/Police-reports-Oct-30-2013",
    "feature_id": "437501",
    "feature_name": "Lafayette",
    "state_alpha": "IN",
    "county_name": "Tippecanoe",
    "county_numeric": "157",
    "prim_lat_dec": "40.4167022",
    "prim_long_dec": "-86.8752869",
    "elev_in_m": "214",
    "elev_in_ft": "702",
    "lat": 40.4167022,
    "long": -86.8752869
  },
  {
    "globaleventid": 273710291,
    "sqldate": 20131030,
    "monthyear": 201310,
    "year": 2013,
    "fractiondate": "2013.8219",
    "eventcode": 173,
    "quadclass": 4,
    "nummentions": 4,
    "numsources": 1,
    "numarticles": 4,
    "avgtone": "0.826446280991736",
    "sourceurl": "http://kokomotribune.com/policereports/x934968972/Police-reports-Oct-30-2013",
    "feature_id": "435455",
    "feature_name": "Greentown",
    "state_alpha": "IN",
    "county_name": "Howard",
    "county_numeric": "067",
    "prim_lat_dec": "40.478094",
    "prim_long_dec": "-85.9666534",
    "elev_in_m": "256",
    "elev_in_ft": "840",
    "lat": 40.478094,
    "long": -85.9666534
  },
  {
    "globaleventid": 273710289,
    "sqldate": 20131030,
    "monthyear": 201310,
    "year": 2013,
    "fractiondate": "2013.8219",
    "eventcode": 173,
    "quadclass": 4,
    "nummentions": 20,
    "numsources": 3,
    "numarticles": 20,
    "avgtone": "1.50079709413783",
    "sourceurl": "http://www.ctpost.com/news/crime/article/Ex-chemical-firm-exec-sentenced-to-prison-in-theft-4938014.php",
    "feature_id": "423587",
    "feature_name": "Chicago",
    "state_alpha": "IL",
    "county_name": "Cook",
    "county_numeric": "031",
    "prim_lat_dec": "41.850033",
    "prim_long_dec": "-87.6500523",
    "elev_in_m": "179",
    "elev_in_ft": "587",
    "lat": 41.850033,
    "long": -87.6500523
  },
  {
    "globaleventid": 273710287,
    "sqldate": 20131030,
    "monthyear": 201310,
    "year": 2013,
    "fractiondate": "2013.8219",
    "eventcode": 173,
    "quadclass": 4,
    "nummentions": 4,
    "numsources": 1,
    "numarticles": 4,
    "avgtone": "0.272232304900181",
    "sourceurl": "http://www.contracostatimes.com/concord/ci_24417796/concord-clayton-police-report-arrests-possession-tear-gas",
    "feature_id": "416616",
    "feature_name": "Richmond",
    "state_alpha": "IL",
    "county_name": "McHenry",
    "county_numeric": "111",
    "prim_lat_dec": "42.4758522",
    "prim_long_dec": "-88.3059251",
    "elev_in_m": "250",
    "elev_in_ft": "820",
    "lat": 42.4758522,
    "long": -88.3059251
  },
  {
    "globaleventid": 273710286,
    "sqldate": 20131030,
    "monthyear": 201310,
    "year": 2013,
    "fractiondate": "2013.8219",
    "eventcode": 173,
    "quadclass": 4,
    "nummentions": 12,
    "numsources": 1,
    "numarticles": 10,
    "avgtone": "0.272232304900181",
    "sourceurl": "http://www.contracostatimes.com/concord/ci_24417796/concord-clayton-police-report-arrests-possession-tear-gas",
    "feature_id": "415746",
    "feature_name": "Pittsburg",
    "state_alpha": "IL",
    "county_name": "Williamson",
    "county_numeric": "199",
    "prim_lat_dec": "37.7769938",
    "prim_long_dec": "-88.8495103",
    "elev_in_m": "142",
    "elev_in_ft": "466",
    "lat": 37.7769938,
    "long": -88.8495103
  },
  {
    "globaleventid": 273710285,
    "sqldate": 20131030,
    "monthyear": 201310,
    "year": 2013,
    "fractiondate": "2013.8219",
    "eventcode": 173,
    "quadclass": 4,
    "nummentions": 4,
    "numsources": 1,
    "numarticles": 4,
    "avgtone": "0.272232304900181",
    "sourceurl": "http://www.contracostatimes.com/concord/ci_24417796/concord-clayton-police-report-arrests-possession-tear-gas",
    "feature_id": "414765",
    "feature_name": "Oak Grove",
    "state_alpha": "IL",
    "county_name": "Rock Island",
    "county_numeric": "161",
    "prim_lat_dec": "41.4105894",
    "prim_long_dec": "-90.5706911",
    "elev_in_m": "220",
    "elev_in_ft": "722",
    "lat": 41.4105894,
    "long": -90.5706911
  },
  {
    "globaleventid": 273710284,
    "sqldate": 20131030,
    "monthyear": 201310,
    "year": 2013,
    "fractiondate": "2013.8219",
    "eventcode": 173,
    "quadclass": 4,
    "nummentions": 1,
    "numsources": 1,
    "numarticles": 1,
    "avgtone": "0.664451827242525",
    "sourceurl": "http://www.washingtontimesreporter.com/article/20131029/NEWS/131029539",
    "feature_id": "413453",
    "feature_name": "Metamora",
    "state_alpha": "IL",
    "county_name": "Woodford",
    "county_numeric": "203",
    "prim_lat_dec": "40.7905919",
    "prim_long_dec": "-89.3606433",
    "elev_in_m": "249",
    "elev_in_ft": "817",
    "lat": 40.7905919,
    "long": -89.3606433
  },
  {
    "globaleventid": 273710283,
    "sqldate": 20131030,
    "monthyear": 201310,
    "year": 2013,
    "fractiondate": "2013.8219",
    "eventcode": 173,
    "quadclass": 4,
    "nummentions": 2,
    "numsources": 1,
    "numarticles": 2,
    "avgtone": "1.33333333333333",
    "sourceurl": "http://www.dailyherald.com/article/20131030/news/710309715/",
    "feature_id": "410226",
    "feature_name": "Highland Park",
    "state_alpha": "IL",
    "county_name": "Lake",
    "county_numeric": "097",
    "prim_lat_dec": "42.1816919",
    "prim_long_dec": "-87.8003438",
    "elev_in_m": "213",
    "elev_in_ft": "699",
    "lat": 42.1816919,
    "long": -87.8003438
  },
  {
    "globaleventid": 273710282,
    "sqldate": 20131030,
    "monthyear": 201310,
    "year": 2013,
    "fractiondate": "2013.8219",
    "eventcode": 173,
    "quadclass": 4,
    "nummentions": 4,
    "numsources": 1,
    "numarticles": 4,
    "avgtone": "0.0",
    "sourceurl": "http://www.sfgate.com/news/crime/article/Inmate-escapes-from-Macon-County-Jail-in-Decatur-4940600.php",
    "feature_id": "407044",
    "feature_name": "Decatur",
    "state_alpha": "IL",
    "county_name": "Macon",
    "county_numeric": "115",
    "prim_lat_dec": "39.8403147",
    "prim_long_dec": "-88.9548001",
    "elev_in_m": "206",
    "elev_in_ft": "676",
    "lat": 39.8403147,
    "long": -88.9548001
  },
  {
    "globaleventid": 273710278,
    "sqldate": 20131030,
    "monthyear": 201310,
    "year": 2013,
    "fractiondate": "2013.8219",
    "eventcode": 173,
    "quadclass": 4,
    "nummentions": 10,
    "numsources": 1,
    "numarticles": 10,
    "avgtone": "0.37593984962406",
    "sourceurl": "http://sanfrancisco.cbslocal.com/2013/10/30/wanted-teen-jumps-from-moving-car-to-avoid-hercules-police-during-pursuit/",
    "feature_id": "277593",
    "feature_name": "San Francisco",
    "state_alpha": "CA",
    "county_name": "San Francisco",
    "county_numeric": "075",
    "prim_lat_dec": "37.775",
    "prim_long_dec": "-122.4194444",
    "elev_in_m": "16",
    "elev_in_ft": "52",
    "lat": 37.775,
    "long": -122.4194444
  },
  {
    "globaleventid": 273710276,
    "sqldate": 20131030,
    "monthyear": 201310,
    "year": 2013,
    "fractiondate": "2013.8219",
    "eventcode": 173,
    "quadclass": 4,
    "nummentions": 2,
    "numsources": 1,
    "numarticles": 2,
    "avgtone": "0.37593984962406",
    "sourceurl": "http://sanfrancisco.cbslocal.com/2013/10/30/wanted-teen-jumps-from-moving-car-to-avoid-hercules-police-during-pursuit/",
    "feature_id": "1659507",
    "feature_name": "Richmond",
    "state_alpha": "CA",
    "county_name": "Contra Costa",
    "county_numeric": "013",
    "prim_lat_dec": "37.9357576",
    "prim_long_dec": "-122.3477486",
    "elev_in_m": "14",
    "elev_in_ft": "46",
    "lat": 37.9357576,
    "long": -122.3477486
  },
  {
    "globaleventid": 273710274,
    "sqldate": 20131030,
    "monthyear": 201310,
    "year": 2013,
    "fractiondate": "2013.8219",
    "eventcode": 173,
    "quadclass": 4,
    "nummentions": 2,
    "numsources": 1,
    "numarticles": 2,
    "avgtone": "0.753768844221105",
    "sourceurl": "http://www.montgomerynews.com/articles/2013/10/30/public_spirit_willow_grove_guide/news/doc526ad4f564b85921820468.txt",
    "feature_id": "1188005",
    "feature_name": "Souderton",
    "state_alpha": "PA",
    "county_name": "Montgomery",
    "county_numeric": "091",
    "prim_lat_dec": "40.3117707",
    "prim_long_dec": "-75.3251759",
    "elev_in_m": "126",
    "elev_in_ft": "413",
    "lat": 40.3117707,
    "long": -75.3251759
  },
  {
    "globaleventid": 273710273,
    "sqldate": 20131030,
    "monthyear": 201310,
    "year": 2013,
    "fractiondate": "2013.8219",
    "eventcode": 173,
    "quadclass": 4,
    "nummentions": 12,
    "numsources": 2,
    "numarticles": 12,
    "avgtone": "0.0",
    "sourceurl": "http://www.dailyjournal.net/view/story/ddb9d4a3748f468391d50a7983267f22/DE--Home-Invasion/",
    "feature_id": "213980",
    "feature_name": "Frankford",
    "state_alpha": "DE",
    "county_name": "Sussex",
    "county_numeric": "005",
    "prim_lat_dec": "38.5173357",
    "prim_long_dec": "-75.2349107",
    "elev_in_m": "10",
    "elev_in_ft": "33",
    "lat": 38.5173357,
    "long": -75.2349107
  },
  {
    "globaleventid": 273710271,
    "sqldate": 20131030,
    "monthyear": 201310,
    "year": 2013,
    "fractiondate": "2013.8219",
    "eventcode": 173,
    "quadclass": 4,
    "nummentions": 4,
    "numsources": 1,
    "numarticles": 4,
    "avgtone": "2.21238938053097",
    "sourceurl": "http://www.nbcconnecticut.com/news/local/UConn-Employee-Tried-to-Steal-Grant-Money-Police-229844261.html",
    "feature_id": "211017",
    "feature_name": "South Windsor",
    "state_alpha": "CT",
    "county_name": "Hartford",
    "county_numeric": "003",
    "prim_lat_dec": "41.8237099",
    "prim_long_dec": "-72.6212015",
    "elev_in_m": "12",
    "elev_in_ft": "39",
    "lat": 41.8237099,
    "long": -72.6212015
  },
  {
    "globaleventid": 273710270,
    "sqldate": 20131030,
    "monthyear": 201310,
    "year": 2013,
    "fractiondate": "2013.8219",
    "eventcode": 173,
    "quadclass": 4,
    "nummentions": 2,
    "numsources": 1,
    "numarticles": 2,
    "avgtone": "0.67476383265857",
    "sourceurl": "http://www.washingtonpost.com/local/montgomery-county-crime-report/2013/10/28/630c77a0-3cf2-11e3-b7ba-503fb5822c3e_story.html",
    "feature_id": "207284",
    "feature_name": "Germantown",
    "state_alpha": "CT",
    "county_name": "Fairfield",
    "county_numeric": "001",
    "prim_lat_dec": "41.4081504",
    "prim_long_dec": "-73.4423441",
    "elev_in_m": "157",
    "elev_in_ft": "515",
    "lat": 41.4081504,
    "long": -73.4423441
  },
  {
    "globaleventid": 273710268,
    "sqldate": 20131030,
    "monthyear": 201310,
    "year": 2013,
    "fractiondate": "2013.8219",
    "eventcode": 173,
    "quadclass": 4,
    "nummentions": 5,
    "numsources": 1,
    "numarticles": 5,
    "avgtone": "3.28947368421053",
    "sourceurl": "http://www.kionrightnow.com/story/23834927/soledad-man-sentenced-in-1997-murder-of-teenager-in-monterey",
    "feature_id": "1659762",
    "feature_name": "Monterey",
    "state_alpha": "CA",
    "county_name": "Monterey",
    "county_numeric": "053",
    "prim_lat_dec": "36.6002378",
    "prim_long_dec": "-121.8946761",
    "elev_in_m": "8",
    "elev_in_ft": "26",
    "lat": 36.6002378,
    "long": -121.8946761
  },
  {
    "globaleventid": 273710267,
    "sqldate": 20131030,
    "monthyear": 201310,
    "year": 2013,
    "fractiondate": "2013.8219",
    "eventcode": 173,
    "quadclass": 4,
    "nummentions": 2,
    "numsources": 1,
    "numarticles": 2,
    "avgtone": "1.87617260787993",
    "sourceurl": "http://www.sacbee.com/2013/10/29/5864244/alleged-roseville-shooter-facing.html",
    "feature_id": "1659564",
    "feature_name": "Sacramento",
    "state_alpha": "CA",
    "county_name": "Sacramento",
    "county_numeric": "067",
    "prim_lat_dec": "38.5815719",
    "prim_long_dec": "-121.4943996",
    "elev_in_m": "8",
    "elev_in_ft": "26",
    "lat": 38.5815719,
    "long": -121.4943996
  },
  {
    "globaleventid": 273710266,
    "sqldate": 20131030,
    "monthyear": 201310,
    "year": 2013,
    "fractiondate": "2013.8219",
    "eventcode": 173,
    "quadclass": 4,
    "nummentions": 1,
    "numsources": 1,
    "numarticles": 1,
    "avgtone": "0.359066427289048",
    "sourceurl": "http://www.willows-journal.com/articles/county-11029-glenn-oct.html",
    "feature_id": "1658067",
    "feature_name": "Black Butte",
    "state_alpha": "CA",
    "county_name": "Siskiyou",
    "county_numeric": "093",
    "prim_lat_dec": "41.3915395",
    "prim_long_dec": "-122.3611255",
    "elev_in_m": "1192",
    "elev_in_ft": "3911",
    "lat": 41.3915395,
    "long": -122.3611255
  },
  {
    "globaleventid": 273710265,
    "sqldate": 20131030,
    "monthyear": 201310,
    "year": 2013,
    "fractiondate": "2013.8219",
    "eventcode": 173,
    "quadclass": 4,
    "nummentions": 1,
    "numsources": 1,
    "numarticles": 1,
    "avgtone": "0.359066427289048",
    "sourceurl": "http://www.willows-journal.com/articles/county-11029-glenn-oct.html",
    "feature_id": "1658067",
    "feature_name": "Black Butte",
    "state_alpha": "CA",
    "county_name": "Siskiyou",
    "county_numeric": "093",
    "prim_lat_dec": "41.3915395",
    "prim_long_dec": "-122.3611255",
    "elev_in_m": "1192",
    "elev_in_ft": "3911",
    "lat": 41.3915395,
    "long": -122.3611255
  },
  {
    "globaleventid": 273710263,
    "sqldate": 20131030,
    "monthyear": 201310,
    "year": 2013,
    "fractiondate": "2013.8219",
    "eventcode": 173,
    "quadclass": 4,
    "nummentions": 2,
    "numsources": 1,
    "numarticles": 2,
    "avgtone": "0.0",
    "sourceurl": "http://pix11.com/2013/10/30/brooklyn-sex-assault-suspect-found-in-beverly-hills/",
    "feature_id": "944840",
    "feature_name": "Brooklyn",
    "state_alpha": "NY",
    "county_name": "Delaware",
    "county_numeric": "025",
    "prim_lat_dec": "42.3442482",
    "prim_long_dec": "-75.1704468",
    "elev_in_m": "366",
    "elev_in_ft": "1201",
    "lat": 42.3442482,
    "long": -75.1704468
  },
  {
    "globaleventid": 273710262,
    "sqldate": 20131030,
    "monthyear": 201310,
    "year": 2013,
    "fractiondate": "2013.8219",
    "eventcode": 173,
    "quadclass": 4,
    "nummentions": 2,
    "numsources": 1,
    "numarticles": 2,
    "avgtone": "0.0",
    "sourceurl": "http://pix11.com/2013/10/30/brooklyn-sex-assault-suspect-found-in-beverly-hills/",
    "feature_id": "1652672",
    "feature_name": "Beverly Hills",
    "state_alpha": "CA",
    "county_name": "Los Angeles",
    "county_numeric": "037",
    "prim_lat_dec": "34.0736204",
    "prim_long_dec": "-118.4003563",
    "elev_in_m": "79",
    "elev_in_ft": "259",
    "lat": 34.0736204,
    "long": -118.4003563
  },
  {
    "globaleventid": 273710261,
    "sqldate": 20131030,
    "monthyear": 201310,
    "year": 2013,
    "fractiondate": "2013.8219",
    "eventcode": 173,
    "quadclass": 4,
    "nummentions": 6,
    "numsources": 1,
    "numarticles": 6,
    "avgtone": "0.0",
    "sourceurl": "http://www.katc.com/news/2-men-accused-of-burglary/",
    "feature_id": "1629984",
    "feature_name": "New Iberia",
    "state_alpha": "LA",
    "county_name": "Iberia",
    "county_numeric": "045",
    "prim_lat_dec": "30.0035365",
    "prim_long_dec": "-91.8187285",
    "elev_in_m": "5",
    "elev_in_ft": "16",
    "lat": 30.0035365,
    "long": -91.8187285
  },
  {
    "globaleventid": 273710260,
    "sqldate": 20131030,
    "monthyear": 201310,
    "year": 2013,
    "fractiondate": "2013.8219",
    "eventcode": 173,
    "quadclass": 4,
    "nummentions": 1,
    "numsources": 1,
    "numarticles": 1,
    "avgtone": "0.306748466257669",
    "sourceurl": "http://www.mlive.com/news/muskegon/index.ssf/2013/10/man_charged_in_norton_shores_b.html",
    "feature_id": "633743",
    "feature_name": "Norton Shores",
    "state_alpha": "MI",
    "county_name": "Muskegon",
    "county_numeric": "121",
    "prim_lat_dec": "43.1689044",
    "prim_long_dec": "-86.2639461",
    "elev_in_m": "186",
    "elev_in_ft": "610",
    "lat": 43.1689044,
    "long": -86.2639461
  },
  {
    "globaleventid": 273710259,
    "sqldate": 20131030,
    "monthyear": 201310,
    "year": 2013,
    "fractiondate": "2013.8219",
    "eventcode": 173,
    "quadclass": 4,
    "nummentions": 1,
    "numsources": 1,
    "numarticles": 1,
    "avgtone": "0.306748466257669",
    "sourceurl": "http://www.mlive.com/news/muskegon/index.ssf/2013/10/man_charged_in_norton_shores_b.html",
    "feature_id": "633743",
    "feature_name": "Norton Shores",
    "state_alpha": "MI",
    "county_name": "Muskegon",
    "county_numeric": "121",
    "prim_lat_dec": "43.1689044",
    "prim_long_dec": "-86.2639461",
    "elev_in_m": "186",
    "elev_in_ft": "610",
    "lat": 43.1689044,
    "long": -86.2639461
  },
  {
    "globaleventid": 273710258,
    "sqldate": 20131030,
    "monthyear": 201310,
    "year": 2013,
    "fractiondate": "2013.8219",
    "eventcode": 173,
    "quadclass": 4,
    "nummentions": 1,
    "numsources": 1,
    "numarticles": 1,
    "avgtone": "2.23642172523962",
    "sourceurl": "http://bdtonline.com/local/x703150601/2-arrested-for-fraud-breaking-and-entering",
    "feature_id": "1553939",
    "feature_name": "Bluefield",
    "state_alpha": "WV",
    "county_name": "Mercer",
    "county_numeric": "055",
    "prim_lat_dec": "37.2698395",
    "prim_long_dec": "-81.2223195",
    "elev_in_m": "784",
    "elev_in_ft": "2572",
    "lat": 37.2698395,
    "long": -81.2223195
  },