[
  {
    "globaleventid": 254977171,
    "sqldate": 20130516,
    "monthyear": 201305,
    "year": 2013,
    "fractiondate": "2013.3726",
    "eventcode": 120,
    "quadclass": 3,
    "nummentions": 8,
    "numsources": 1,
    "numarticles": 8,
    "avgtone": "2.34933605720123",
    "sourceurl": "http://news.yahoo.com/scandals-turned-obama-dour-scold-211229993.html",
    "feature_id": "531871",
    "feature_name": "Washington",
    "state_alpha": "DC",
    "county_name": "District of Columbia",
    "county_numeric": "001",
    "prim_lat_dec": "38.8951118",
    "prim_long_dec": "-77.0363658",
    "elev_in_m": "7",
    "elev_in_ft": "23",
    "lat": 38.8951118,
    "long": -77.0363658
  },
  {
    "globaleventid": 254977170,
    "sqldate": 20130516,
    "monthyear": 201305,
    "year": 2013,
    "fractiondate": "2013.3726",
    "eventcode": 110,
    "quadclass": 3,
    "nummentions": 10,
    "numsources": 1,
    "numarticles": 10,
    "avgtone": "1.20481927710843",
    "sourceurl": "http://www.cnn.com/2013/05/16/opinion/rand-paul-irs-scandal/index.html?eref=rss_mostpopular&utm_source=feedburner&utm_medium=feed&utm_campaign=Feed%3A+rss%2Fcnn_mostpopular+%28RSS%3A+Most+Popular%29",
    "feature_id": "531871",
    "feature_name": "Washington",
    "state_alpha": "DC",
    "county_name": "District of Columbia",
    "county_numeric": "001",
    "prim_lat_dec": "38.8951118",
    "prim_long_dec": "-77.0363658",
    "elev_in_m": "7",
    "elev_in_ft": "23",
    "lat": 38.8951118,
    "long": -77.0363658
  },
  {
    "globaleventid": 254977028,
    "sqldate": 20130516,
    "monthyear": 201305,
    "year": 2013,
    "fractiondate": "2013.3726",
    "eventcode": 120,
    "quadclass": 3,
    "nummentions": 3,
    "numsources": 1,
    "numarticles": 3,
    "avgtone": "2.05183585313175",
    "sourceurl": "http://www.chicagotribune.com/news/education/ct-met-ctu-school-closings-lawsuit-20130516,0,5818972.story?track=rss",
    "feature_id": "423587",
    "feature_name": "Chicago",
    "state_alpha": "IL",
    "county_name": "Cook",
    "county_numeric": "031",
    "prim_lat_dec": "41.850033",
    "prim_long_dec": "-87.6500523",
    "elev_in_m": "179",
    "elev_in_ft": "587",
    "lat": 41.850033,
    "long": -87.6500523
  },
  {
    "globaleventid": 254976733,
    "sqldate": 20130516,
    "monthyear": 201305,
    "year": 2013,
    "fractiondate": "2013.3726",
    "eventcode": 173,
    "quadclass": 4,
    "nummentions": 5,
    "numsources": 1,
    "numarticles": 5,
    "avgtone": "2.12765957446809",
    "sourceurl": "http://www.bloomberg.com/news/2013-05-16/cuba-jailed-american-settles-lawsuit-against-employer.html",
    "feature_id": "531871",
    "feature_name": "Washington",
    "state_alpha": "DC",
    "county_name": "District of Columbia",
    "county_numeric": "001",
    "prim_lat_dec": "38.8951118",
    "prim_long_dec": "-77.0363658",
    "elev_in_m": "7",
    "elev_in_ft": "23",
    "lat": 38.8951118,
    "long": -77.0363658
  },
  {
    "globaleventid": 254976692,
    "sqldate": 20130516,
    "monthyear": 201305,
    "year": 2013,
    "fractiondate": "2013.3726",
    "eventcode": 193,
    "quadclass": 4,
    "nummentions": 2,
    "numsources": 1,
    "numarticles": 2,
    "avgtone": "1.69875424688562",
    "sourceurl": "http://news.yahoo.com/2-brothers-gang-ties-arrested-la-shooting-211255975.html",
    "feature_id": "1629985",
    "feature_name": "New Orleans",
    "state_alpha": "LA",
    "county_name": "Orleans",
    "county_numeric": "071",
    "prim_lat_dec": "29.9546482",
    "prim_long_dec": "-90.075072",
    "elev_in_m": "0",
    "elev_in_ft": "0",
    "lat": 29.9546482,
    "long": -90.075072
  },
  {
    "globaleventid": 254976691,
    "sqldate": 20130516,
    "monthyear": 201305,
    "year": 2013,
    "fractiondate": "2013.3726",
    "eventcode": 193,
    "quadclass": 4,
    "nummentions": 4,
    "numsources": 1,
    "numarticles": 4,
    "avgtone": "1.17647058823529",
    "sourceurl": "http://www.contracostatimes.com/breaking-news/ci_23259901/suspected-gang-members-convicted-hayward-carjacking-shooting-at?source=rss",
    "feature_id": "277566",
    "feature_name": "Oakland",
    "state_alpha": "CA",
    "county_name": "Alameda",
    "county_numeric": "001",
    "prim_lat_dec": "37.8043722",
    "prim_long_dec": "-122.2708026",
    "elev_in_m": "13",
    "elev_in_ft": "43",
    "lat": 37.8043722,
    "long": -122.2708026
  },
  {
    "globaleventid": 254976689,
    "sqldate": 20130516,
    "monthyear": 201305,
    "year": 2013,
    "fractiondate": "2013.3726",
    "eventcode": 190,
    "quadclass": 4,
    "nummentions": 2,
    "numsources": 1,
    "numarticles": 2,
    "avgtone": "0.868055555555556",
    "sourceurl": "http://www.contracostatimes.com/breaking-news/ci_23261588/parents-uc-berkeley-student-killed-drunk-driving-crash?source=rss",
    "feature_id": "277566",
    "feature_name": "Oakland",
    "state_alpha": "CA",
    "county_name": "Alameda",
    "county_numeric": "001",
    "prim_lat_dec": "37.8043722",
    "prim_long_dec": "-122.2708026",
    "elev_in_m": "13",
    "elev_in_ft": "43",
    "lat": 37.8043722,
    "long": -122.2708026
  },
  {
    "globaleventid": 254976599,
    "sqldate": 20130516,
    "monthyear": 201305,
    "year": 2013,
    "fractiondate": "2013.3726",
    "eventcode": 173,
    "quadclass": 4,
    "nummentions": 10,
    "numsources": 1,
    "numarticles": 10,
    "avgtone": "0.738916256157635",
    "sourceurl": "http://www.washingtonpost.com/local/former-prince-georges-police-officer-acquitted-in-assault-case/2013/05/16/016085a4-be54-11e2-9b09-1638acc3942e_story.html?wprss=rss_local",
    "feature_id": "531871",
    "feature_name": "Washington",
    "state_alpha": "DC",
    "county_name": "District of Columbia",
    "county_numeric": "001",
    "prim_lat_dec": "38.8951118",
    "prim_long_dec": "-77.0363658",
    "elev_in_m": "7",
    "elev_in_ft": "23",
    "lat": 38.8951118,
    "long": -77.0363658
  },
  {
    "globaleventid": 254976598,
    "sqldate": 20130516,
    "monthyear": 201305,
    "year": 2013,
    "fractiondate": "2013.3726",
    "eventcode": 173,
    "quadclass": 4,
    "nummentions": 20,
    "numsources": 1,
    "numarticles": 20,
    "avgtone": "1.08695652173913",
    "sourceurl": "http://www.washingtonpost.com/world/national-security/obama-deplores-sex-crimes-in-military-says-theres-no-silver-bullet/2013/05/16/1b14504a-be5c-11e2-a31d-a41b2414d001_story.html?wprss=rss_politics",
    "feature_id": "529313",
    "feature_name": "Capitol Hill",
    "state_alpha": "DC",
    "county_name": "District of Columbia",
    "county_numeric": "001",
    "prim_lat_dec": "38.8890009",
    "prim_long_dec": "-77.0002537",
    "elev_in_m": "28",
    "elev_in_ft": "92",
    "lat": 38.8890009,
    "long": -77.0002537
  },
  {
    "globaleventid": 254976596,
    "sqldate": 20130516,
    "monthyear": 201305,
    "year": 2013,
    "fractiondate": "2013.3726",
    "eventcode": 173,
    "quadclass": 4,
    "nummentions": 4,
    "numsources": 1,
    "numarticles": 4,
    "avgtone": "0.584795321637427",
    "sourceurl": "http://www.contracostatimes.com/breaking-news/ci_23261966/police-san-leandro-youth-minister-arrested-florida-prostitution?source=rss",
    "feature_id": "288240",
    "feature_name": "Orlando",
    "state_alpha": "FL",
    "county_name": "Orange",
    "county_numeric": "095",
    "prim_lat_dec": "28.5383355",
    "prim_long_dec": "-81.3792365",
    "elev_in_m": "31",
    "elev_in_ft": "102",
    "lat": 28.5383355,
    "long": -81.3792365
  },
  {
    "globaleventid": 254976594,
    "sqldate": 20130516,
    "monthyear": 201305,
    "year": 2013,
    "fractiondate": "2013.3726",
    "eventcode": 112,
    "quadclass": 3,
    "nummentions": 10,
    "numsources": 1,
    "numarticles": 10,
    "avgtone": "0.738916256157635",
    "sourceurl": "http://www.washingtonpost.com/local/former-prince-georges-police-officer-acquitted-in-assault-case/2013/05/16/016085a4-be54-11e2-9b09-1638acc3942e_story.html?wprss=rss_local",
    "feature_id": "531871",
    "feature_name": "Washington",
    "state_alpha": "DC",
    "county_name": "District of Columbia",
    "county_numeric": "001",
    "prim_lat_dec": "38.8951118",
    "prim_long_dec": "-77.0363658",
    "elev_in_m": "7",
    "elev_in_ft": "23",
    "lat": 38.8951118,
    "long": -77.0363658
  },
  {
    "globaleventid": 254976485,
    "sqldate": 20130516,
    "monthyear": 201305,
    "year": 2013,
    "fractiondate": "2013.3726",
    "eventcode": 173,
    "quadclass": 4,
    "nummentions": 6,
    "numsources": 1,
    "numarticles": 6,
    "avgtone": "0.0",
    "sourceurl": "http://www.voanews.com/content/arrest-made-in-new-orleans-parade-shooting/1662002.html",
    "feature_id": "1629985",
    "feature_name": "New Orleans",
    "state_alpha": "LA",
    "county_name": "Orleans",
    "county_numeric": "071",
    "prim_lat_dec": "29.9546482",
    "prim_long_dec": "-90.075072",
    "elev_in_m": "0",
    "elev_in_ft": "0",
    "lat": 29.9546482,
    "long": -90.075072
  },
  {
    "globaleventid": 254976483,
    "sqldate": 20130516,
    "monthyear": 201305,
    "year": 2013,
    "fractiondate": "2013.3726",
    "eventcode": 173,
    "quadclass": 4,
    "nummentions": 4,
    "numsources": 1,
    "numarticles": 4,
    "avgtone": "0.0",
    "sourceurl": "http://www.voanews.com/content/arrest-made-in-new-orleans-parade-shooting/1662002.html",
    "feature_id": "1629985",
    "feature_name": "New Orleans",
    "state_alpha": "LA",
    "county_name": "Orleans",
    "county_numeric": "071",
    "prim_lat_dec": "29.9546482",
    "prim_long_dec": "-90.075072",
    "elev_in_m": "0",
    "elev_in_ft": "0",
    "lat": 29.9546482,
    "long": -90.075072
  },
  {
    "globaleventid": 254976466,
    "sqldate": 20130516,
    "monthyear": 201305,
    "year": 2013,
    "fractiondate": "2013.3726",
    "eventcode": 110,
    "quadclass": 3,
    "nummentions": 16,
    "numsources": 5,
    "numarticles": 16,
    "avgtone": "0.539452960378823",
    "sourceurl": "http://www.miamiherald.com/2013/05/16/3401664/man-convicted-of-second-degree.html",
    "feature_id": "366212",
    "feature_name": "Honolulu",
    "state_alpha": "HI",
    "county_name": "Honolulu",
    "county_numeric": "003",
    "prim_lat_dec": "21.3069444",
    "prim_long_dec": "-157.8583333",
    "elev_in_m": "5",
    "elev_in_ft": "16",
    "lat": 21.3069444,
    "long": -157.8583333
  },
  {
    "globaleventid": 254976396,
    "sqldate": 20130516,
    "monthyear": 201305,
    "year": 2013,
    "fractiondate": "2013.3726",
    "eventcode": 1241,
    "quadclass": 3,
    "nummentions": 6,
    "numsources": 1,
    "numarticles": 6,
    "avgtone": "1.2",
    "sourceurl": "http://www.upi.com/Top_News/US/2013/05/15/Texas-executes-sixth-death-row-inmate-this-year/UPI-62921368667859/",
    "feature_id": "1380948",
    "feature_name": "Houston",
    "state_alpha": "TX",
    "county_name": "Harris",
    "county_numeric": "201",
    "prim_lat_dec": "29.7632836",
    "prim_long_dec": "-95.3632715",
    "elev_in_m": "11",
    "elev_in_ft": "36",
    "lat": 29.7632836,
    "long": -95.3632715
  },
  {
    "globaleventid": 254976395,
    "sqldate": 20130516,
    "monthyear": 201305,
    "year": 2013,
    "fractiondate": "2013.3726",
    "eventcode": 120,
    "quadclass": 3,
    "nummentions": 6,
    "numsources": 1,
    "numarticles": 6,
    "avgtone": "1.2",
    "sourceurl": "http://www.upi.com/Top_News/US/2013/05/15/Texas-executes-sixth-death-row-inmate-this-year/UPI-62921368667859/",
    "feature_id": "1380948",
    "feature_name": "Houston",
    "state_alpha": "TX",
    "county_name": "Harris",
    "county_numeric": "201",
    "prim_lat_dec": "29.7632836",
    "prim_long_dec": "-95.3632715",
    "elev_in_m": "11",
    "elev_in_ft": "36",
    "lat": 29.7632836,
    "long": -95.3632715
  },
  {
    "globaleventid": 254976394,
    "sqldate": 20130516,
    "monthyear": 201305,
    "year": 2013,
    "fractiondate": "2013.3726",
    "eventcode": 100,
    "quadclass": 3,
    "nummentions": 10,
    "numsources": 1,
    "numarticles": 10,
    "avgtone": "3.17460317460317",
    "sourceurl": "http://www.upi.com/Top_News/US/2013/05/16/LA-Police-free-from-consent-decree/UPI-69491368736285/",
    "feature_id": "1662328",
    "feature_name": "Los Angeles",
    "state_alpha": "CA",
    "county_name": "Los Angeles",
    "county_numeric": "037",
    "prim_lat_dec": "34.0522342",
    "prim_long_dec": "-118.2436849",
    "elev_in_m": "89",
    "elev_in_ft": "292",
    "lat": 34.0522342,
    "long": -118.2436849
  },
  {
    "globaleventid": 254976393,
    "sqldate": 20130516,
    "monthyear": 201305,
    "year": 2013,
    "fractiondate": "2013.3726",
    "eventcode": 173,
    "quadclass": 4,
    "nummentions": 6,
    "numsources": 1,
    "numarticles": 6,
    "avgtone": "3.42465753424658",
    "sourceurl": "http://www.dailymail.co.uk/news/article-2325538/How-Pep-dog-sentenced-life-prison-framed-killing-Pennsylvania-governors-beloved-cat.html?ITO=1490&ns_mchannel=rss&ns_campaign=1490",
    "feature_id": "1175992",
    "feature_name": "Graterford",
    "state_alpha": "PA",
    "county_name": "Montgomery",
    "county_numeric": "091",
    "prim_lat_dec": "40.2256585",
    "prim_long_dec": "-75.454623",
    "elev_in_m": "45",
    "elev_in_ft": "148",
    "lat": 40.2256585,
    "long": -75.454623
  },
  {
    "globaleventid": 254976390,
    "sqldate": 20130516,
    "monthyear": 201305,
    "year": 2013,
    "fractiondate": "2013.3726",
    "eventcode": 112,
    "quadclass": 3,
    "nummentions": 2,
    "numsources": 1,
    "numarticles": 2,
    "avgtone": "2.03389830508475",
    "sourceurl": "http://www.washingtonpost.com/politics/roundup-of-news-from-across-the-nation/2013/05/16/cf5ebd3c-be62-11e2-9b09-1638acc3942e_story.html?wprss=rss_national",
    "feature_id": "1662328",
    "feature_name": "Los Angeles",
    "state_alpha": "CA",
    "county_name": "Los Angeles",
    "county_numeric": "037",
    "prim_lat_dec": "34.0522342",
    "prim_long_dec": "-118.2436849",
    "elev_in_m": "89",
    "elev_in_ft": "292",
    "lat": 34.0522342,
    "long": -118.2436849
  },
  {
    "globaleventid": 254976389,
    "sqldate": 20130516,
    "monthyear": 201305,
    "year": 2013,
    "fractiondate": "2013.3726",
    "eventcode": 112,
    "quadclass": 3,
    "nummentions": 4,
    "numsources": 1,
    "numarticles": 4,
    "avgtone": "1.82119205298013",
    "sourceurl": "http://www.washingtonpost.com/politics/roundup-of-news-from-across-the-nation/2013/05/16/cf5ebd3c-be62-11e2-9b09-1638acc3942e_story.html?wprss=rss_whitehouse",
    "feature_id": "1066650",
    "feature_name": "Cincinnati",
    "state_alpha": "OH",
    "county_name": "Hamilton",
    "county_numeric": "061",
    "prim_lat_dec": "39.1620036",
    "prim_long_dec": "-84.4568863",
    "elev_in_m": "191",
    "elev_in_ft": "627",
    "lat": 39.1620036,
    "long": -84.4568863
  },
  {
    "globaleventid": 254976388,
    "sqldate": 20130516,
    "monthyear": 201305,
    "year": 2013,
    "fractiondate": "2013.3726",
    "eventcode": 110,
    "quadclass": 3,
    "nummentions": 13,
    "numsources": 2,
    "numarticles": 13,
    "avgtone": "2.63871301432164",
    "sourceurl": "http://www.perthnow.com.au/news/western-australia/elders-angry-over-heirisson-island-plans/story-fnhocxo3-1226644460590?from=public_rss",
    "feature_id": "531871",
    "feature_name": "Washington",
    "state_alpha": "DC",
    "county_name": "District of Columbia",
    "county_numeric": "001",
    "prim_lat_dec": "38.8951118",
    "prim_long_dec": "-77.0363658",
    "elev_in_m": "7",
    "elev_in_ft": "23",
    "lat": 38.8951118,
    "long": -77.0363658
  },
  {
    "globaleventid": 254976386,
    "sqldate": 20130516,
    "monthyear": 201305,
    "year": 2013,
    "fractiondate": "2013.3726",
    "eventcode": 100,
    "quadclass": 3,
    "nummentions": 10,
    "numsources": 1,
    "numarticles": 10,
    "avgtone": "3.09278350515464",
    "sourceurl": "http://www.politico.com/story/2013/05/john-boehner-white-house-scandals-91483.html",
    "feature_id": "531871",
    "feature_name": "Washington",
    "state_alpha": "DC",
    "county_name": "District of Columbia",
    "county_numeric": "001",
    "prim_lat_dec": "38.8951118",
    "prim_long_dec": "-77.0363658",
    "elev_in_m": "7",
    "elev_in_ft": "23",
    "lat": 38.8951118,
    "long": -77.0363658
  },
  {
    "globaleventid": 254976382,
    "sqldate": 20130516,
    "monthyear": 201305,
    "year": 2013,
    "fractiondate": "2013.3726",
    "eventcode": 190,
    "quadclass": 4,
    "nummentions": 3,
    "numsources": 1,
    "numarticles": 3,
    "avgtone": "0.505050505050505",
    "sourceurl": "http://minnesota.publicradio.org/display/web/2013/05/16/news/investigation-minneapolis-police?refid=0&utm_source=feedburner&utm_medium=feed&utm_campaign=Feed%3A+MPR_NewsFeatures+%28News+%26+Features+from+Minnesota+Public+Radio%29",
    "feature_id": "655030",
    "feature_name": "Minneapolis",
    "state_alpha": "MN",
    "county_name": "Hennepin",
    "county_numeric": "053",
    "prim_lat_dec": "44.9799654",
    "prim_long_dec": "-93.2638361",
    "elev_in_m": "253",
    "elev_in_ft": "830",
    "lat": 44.9799654,
    "long": -93.2638361
  },
  {
    "globaleventid": 254976381,
    "sqldate": 20130516,
    "monthyear": 201305,
    "year": 2013,
    "fractiondate": "2013.3726",
    "eventcode": 153,
    "quadclass": 4,
    "nummentions": 4,
    "numsources": 1,
    "numarticles": 4,
    "avgtone": "0.0",
    "sourceurl": "http://www.philippinetimes.com/index.php/sid/214561647/scat/2411cd3571b4f088",
    "feature_id": "1652753",
    "feature_name": "Monterey Park",
    "state_alpha": "CA",
    "county_name": "Los Angeles",
    "county_numeric": "037",
    "prim_lat_dec": "34.0625106",
    "prim_long_dec": "-118.1228476",
    "elev_in_m": "117",
    "elev_in_ft": "384",
    "lat": 34.0625106,
    "long": -118.1228476
  },
  {
    "globaleventid": 254976380,
    "sqldate": 20130516,
    "monthyear": 201305,
    "year": 2013,
    "fractiondate": "2013.3726",
    "eventcode": 153,
    "quadclass": 4,
    "nummentions": 2,
    "numsources": 1,
    "numarticles": 2,
    "avgtone": "0.0",
    "sourceurl": "http://www.philippinetimes.com/index.php/sid/214561647/scat/2411cd3571b4f088",
    "feature_id": "1066654",
    "feature_name": "Cleveland",
    "state_alpha": "OH",
    "county_name": "Cuyahoga",
    "county_numeric": "035",
    "prim_lat_dec": "41.4994954",
    "prim_long_dec": "-81.6954088",
    "elev_in_m": "199",
    "elev_in_ft": "653",
    "lat": 41.4994954,
    "long": -81.6954088
  },
  {
    "globaleventid": 254976376,
    "sqldate": 20130516,
    "monthyear": 201305,
    "year": 2013,
    "fractiondate": "2013.3726",
    "eventcode": 193,
    "quadclass": 4,
    "nummentions": 2,
    "numsources": 1,
    "numarticles": 2,
    "avgtone": "1.31004366812227",
    "sourceurl": "http://www.miamiherald.com/2013/05/16/3400136/police-suspect-arrested-in-la.html",
    "feature_id": "1629985",
    "feature_name": "New Orleans",
    "state_alpha": "LA",
    "county_name": "Orleans",
    "county_numeric": "071",
    "prim_lat_dec": "29.9546482",
    "prim_long_dec": "-90.075072",
    "elev_in_m": "0",
    "elev_in_ft": "0",
    "lat": 29.9546482,
    "long": -90.075072
  },
  {
    "globaleventid": 254976374,
    "sqldate": 20130516,
    "monthyear": 201305,
    "year": 2013,
    "fractiondate": "2013.3726",
    "eventcode": 193,
    "quadclass": 4,
    "nummentions": 4,
    "numsources": 1,
    "numarticles": 4,
    "avgtone": "0.418410041841004",
    "sourceurl": "http://www.boston.com/news/nation/2013/05/15/police-suspect-arrested-parade-shooting/Kyc8HHAzbQGvBfh9tDy3gM/story.html",
    "feature_id": "617565",
    "feature_name": "Boston",
    "state_alpha": "MA",
    "county_name": "Suffolk",
    "county_numeric": "025",
    "prim_lat_dec": "42.3584308",
    "prim_long_dec": "-71.0597732",
    "elev_in_m": "14",
    "elev_in_ft": "46",
    "lat": 42.3584308,
    "long": -71.0597732
  },
  {
    "globaleventid": 254976371,
    "sqldate": 20130516,
    "monthyear": 201305,
    "year": 2013,
    "fractiondate": "2013.3726",
    "eventcode": 193,
    "quadclass": 4,
    "nummentions": 4,
    "numsources": 1,
    "numarticles": 4,
    "avgtone": "0.0",
    "sourceurl": "http://www.washingtonpost.com/local/omar-oliver-fatally-shot-outside-his-columbia-apartment/2013/05/16/b6f3269e-be2a-11e2-89c9-3be8095fe767_story.html?wprss=rss_local",
    "feature_id": "531871",
    "feature_name": "Washington",
    "state_alpha": "DC",
    "county_name": "District of Columbia",
    "county_numeric": "001",
    "prim_lat_dec": "38.8951118",
    "prim_long_dec": "-77.0363658",
    "elev_in_m": "7",
    "elev_in_ft": "23",
    "lat": 38.8951118,
    "long": -77.0363658
  },
  {
    "globaleventid": 254976366,
    "sqldate": 20130516,
    "monthyear": 201305,
    "year": 2013,
    "fractiondate": "2013.3726",
    "eventcode": 190,
    "quadclass": 4,
    "nummentions": 2,
    "numsources": 1,
    "numarticles": 2,
    "avgtone": "0.505050505050505",
    "sourceurl": "http://minnesota.publicradio.org/display/web/2013/05/16/news/investigation-minneapolis-police?refid=0&utm_source=feedburner&utm_medium=feed&utm_campaign=Feed%3A+MPR_NewsFeatures+%28News+%26+Features+from+Minnesota+Public+Radio%29",
    "feature_id": "655030",
    "feature_name": "Minneapolis",
    "state_alpha": "MN",
    "county_name": "Hennepin",
    "county_numeric": "053",
    "prim_lat_dec": "44.9799654",
    "prim_long_dec": "-93.2638361",
    "elev_in_m": "253",
    "elev_in_ft": "830",
    "lat": 44.9799654,
    "long": -93.2638361
  },
  {
    "globaleventid": 254976365,
    "sqldate": 20130516,
    "monthyear": 201305,
    "year": 2013,
    "fractiondate": "2013.3726",
    "eventcode": 190,
    "quadclass": 4,
    "nummentions": 6,
    "numsources": 1,
    "numarticles": 6,
    "avgtone": "1.40845070422535",
    "sourceurl": "http://www.startribune.com/nation/207558711.html",
    "feature_id": "531871",
    "feature_name": "Washington",
    "state_alpha": "DC",
    "county_name": "District of Columbia",
    "county_numeric": "001",
    "prim_lat_dec": "38.8951118",
    "prim_long_dec": "-77.0363658",
    "elev_in_m": "7",
    "elev_in_ft": "23",
    "lat": 38.8951118,
    "long": -77.0363658
  },
  {
    "globaleventid": 254976363,
    "sqldate": 20130516,
    "monthyear": 201305,
    "year": 2013,
    "fractiondate": "2013.3726",
    "eventcode": 186,
    "quadclass": 4,
    "nummentions": 2,
    "numsources": 1,
    "numarticles": 2,
    "avgtone": "1.2",
    "sourceurl": "http://www.upi.com/Top_News/US/2013/05/15/Texas-executes-sixth-death-row-inmate-this-year/UPI-62921368667859/",
    "feature_id": "1380948",
    "feature_name": "Houston",
    "state_alpha": "TX",
    "county_name": "Harris",
    "county_numeric": "201",
    "prim_lat_dec": "29.7632836",
    "prim_long_dec": "-95.3632715",
    "elev_in_m": "11",
    "elev_in_ft": "36",
    "lat": 29.7632836,
    "long": -95.3632715
  },
  {
    "globaleventid": 254976357,
    "sqldate": 20130516,
    "monthyear": 201305,
    "year": 2013,
    "fractiondate": "2013.3726",
    "eventcode": 182,
    "quadclass": 4,
    "nummentions": 6,
    "numsources": 2,
    "numarticles": 6,
    "avgtone": "2.2621107266436",
    "sourceurl": "http://hosted.ap.org/dynamic/stories/U/US_NJ_KILLING_HATCHET_HITCHHIKER?SITE=KING&SECTION=HOME&TEMPLATE=DEFAULT",
    "feature_id": "277606",
    "feature_name": "Fresno",
    "state_alpha": "CA",
    "county_name": "Fresno",
    "county_numeric": "019",
    "prim_lat_dec": "36.7477272",
    "prim_long_dec": "-119.7723661",
    "elev_in_m": "94",
    "elev_in_ft": "308",
    "lat": 36.7477272,
    "long": -119.7723661
  },
  {
    "globaleventid": 254976355,
    "sqldate": 20130516,
    "monthyear": 201305,
    "year": 2013,
    "fractiondate": "2013.3726",
    "eventcode": 180,
    "quadclass": 4,
    "nummentions": 4,
    "numsources": 2,
    "numarticles": 4,
    "avgtone": "3.57512225641287",
    "sourceurl": "http://www.chron.com/news/crime/article/News-briefs-from-around-Kentucky-at-1-58-a-m-EDT-4520802.php",
    "feature_id": "487744",
    "feature_name": "Bowling Green",
    "state_alpha": "KY",
    "county_name": "Warren",
    "county_numeric": "227",
    "prim_lat_dec": "36.9903199",
    "prim_long_dec": "-86.4436018",
    "elev_in_m": "161",
    "elev_in_ft": "528",
    "lat": 36.9903199,
    "long": -86.4436018
  },
  {
    "globaleventid": 254976354,
    "sqldate": 20130516,
    "monthyear": 201305,
    "year": 2013,
    "fractiondate": "2013.3726",
    "eventcode": 180,
    "quadclass": 4,
    "nummentions": 16,
    "numsources": 2,
    "numarticles": 16,
    "avgtone": "0.989991674183028",
    "sourceurl": "http://www.washingtonpost.com/local/former-prince-georges-police-officer-acquitted-in-assault-case/2013/05/16/016085a4-be54-11e2-9b09-1638acc3942e_story.html?wprss=rss_local",
    "feature_id": "531871",
    "feature_name": "Washington",
    "state_alpha": "DC",
    "county_name": "District of Columbia",
    "county_numeric": "001",
    "prim_lat_dec": "38.8951118",
    "prim_long_dec": "-77.0363658",
    "elev_in_m": "7",
    "elev_in_ft": "23",
    "lat": 38.8951118,
    "long": -77.0363658
  },
  {
    "globaleventid": 254976335,
    "sqldate": 20130516,
    "monthyear": 201305,
    "year": 2013,
    "fractiondate": "2013.3726",
    "eventcode": 173,
    "quadclass": 4,
    "nummentions": 4,
    "numsources": 2,
    "numarticles": 4,
    "avgtone": "0.85687267402843",
    "sourceurl": "http://cnsnews.com/news/article/mom-nm-chases-down-child-abductor-man-arrested",
    "feature_id": "928679",
    "feature_name": "Albuquerque",
    "state_alpha": "NM",
    "county_name": "Bernalillo",
    "county_numeric": "001",
    "prim_lat_dec": "35.0844909",
    "prim_long_dec": "-106.6511367",
    "elev_in_m": "1510",
    "elev_in_ft": "4954",
    "lat": 35.0844909,
    "long": -106.6511367
  },
  {
    "globaleventid": 254976334,
    "sqldate": 20130516,
    "monthyear": 201305,
    "year": 2013,
    "fractiondate": "2013.3726",
    "eventcode": 173,
    "quadclass": 4,
    "nummentions": 8,
    "numsources": 1,
    "numarticles": 8,
    "avgtone": "0.636942675159236",
    "sourceurl": "http://www.wave3.com/story/22240730/police-man-drank-beer-smoked-cooked-while-in-grocery",
    "feature_id": "531871",
    "feature_name": "Washington",
    "state_alpha": "DC",
    "county_name": "District of Columbia",
    "county_numeric": "001",
    "prim_lat_dec": "38.8951118",
    "prim_long_dec": "-77.0363658",
    "elev_in_m": "7",
    "elev_in_ft": "23",
    "lat": 38.8951118,
    "long": -77.0363658
  },
  {
    "globaleventid": 254976333,
    "sqldate": 20130516,
    "monthyear": 201305,
    "year": 2013,
    "fractiondate": "2013.3726",
    "eventcode": 173,
    "quadclass": 4,
    "nummentions": 12,
    "numsources": 2,
    "numarticles": 12,
    "avgtone": "1.37844426828048",
    "sourceurl": "http://www.reuters.com/article/2013/05/16/us-usa-crime-jodiarias-idUSBRE94F0TL20130516?feedType=RSS&feedName=domesticNews",
    "feature_id": "44784",
    "feature_name": "Phoenix",
    "state_alpha": "AZ",
    "county_name": "Maricopa",
    "county_numeric": "013",
    "prim_lat_dec": "33.4483771",
    "prim_long_dec": "-112.0740373",
    "elev_in_m": "331",
    "elev_in_ft": "1086",
    "lat": 33.4483771,
    "long": -112.0740373
  },
  {
    "globaleventid": 254976331,
    "sqldate": 20130516,
    "monthyear": 201305,
    "year": 2013,
    "fractiondate": "2013.3726",
    "eventcode": 173,
    "quadclass": 4,
    "nummentions": 7,
    "numsources": 1,
    "numarticles": 7,
    "avgtone": "0.584795321637427",
    "sourceurl": "http://www.contracostatimes.com/breaking-news/ci_23261966/police-san-leandro-youth-minister-arrested-florida-prostitution?source=rss",
    "feature_id": "288240",
    "feature_name": "Orlando",
    "state_alpha": "FL",
    "county_name": "Orange",
    "county_numeric": "095",
    "prim_lat_dec": "28.5383355",
    "prim_long_dec": "-81.3792365",
    "elev_in_m": "31",
    "elev_in_ft": "102",
    "lat": 28.5383355,
    "long": -81.3792365
  },
  {
    "globaleventid": 254976330,
    "sqldate": 20130516,
    "monthyear": 201305,
    "year": 2013,
    "fractiondate": "2013.3726",
    "eventcode": 173,
    "quadclass": 4,
    "nummentions": 2,
    "numsources": 1,
    "numarticles": 2,
    "avgtone": "2.42360379346681",
    "sourceurl": "http://news.yahoo.com/brothers-arrested-mothers-day-parade-shooting-213807064.html",
    "feature_id": "277593",
    "feature_name": "San Francisco",
    "state_alpha": "CA",
    "county_name": "San Francisco",
    "county_numeric": "075",
    "prim_lat_dec": "37.775",
    "prim_long_dec": "-122.4194444",
    "elev_in_m": "16",
    "elev_in_ft": "52",
    "lat": 37.775,
    "long": -122.4194444
  },
  {
    "globaleventid": 254976329,
    "sqldate": 20130516,
    "monthyear": 201305,
    "year": 2013,
    "fractiondate": "2013.3726",
    "eventcode": 173,
    "quadclass": 4,
    "nummentions": 6,
    "numsources": 1,
    "numarticles": 6,
    "avgtone": "1.78571428571429",
    "sourceurl": "http://www.bloomberg.com/news/2013-05-16/uzbek-man-charged-in-u-s-with-terrorism-conspiracy.html",
    "feature_id": "1662328",
    "feature_name": "Los Angeles",
    "state_alpha": "CA",
    "county_name": "Los Angeles",
    "county_numeric": "037",
    "prim_lat_dec": "34.0522342",
    "prim_long_dec": "-118.2436849",
    "elev_in_m": "89",
    "elev_in_ft": "292",
    "lat": 34.0522342,
    "long": -118.2436849
  },
  {
    "globaleventid": 254976328,
    "sqldate": 20130516,
    "monthyear": 201305,
    "year": 2013,
    "fractiondate": "2013.3726",
    "eventcode": 173,
    "quadclass": 4,
    "nummentions": 4,
    "numsources": 2,
    "numarticles": 4,
    "avgtone": "1.08861157320358",
    "sourceurl": "http://news.yahoo.com/2-brothers-gang-ties-arrested-la-shooting-211255975.html",
    "feature_id": "1629985",
    "feature_name": "New Orleans",
    "state_alpha": "LA",
    "county_name": "Orleans",
    "county_numeric": "071",
    "prim_lat_dec": "29.9546482",
    "prim_long_dec": "-90.075072",
    "elev_in_m": "0",
    "elev_in_ft": "0",
    "lat": 29.9546482,
    "long": -90.075072
  },
  {
    "globaleventid": 254976327,
    "sqldate": 20130516,
    "monthyear": 201305,
    "year": 2013,
    "fractiondate": "2013.3726",
    "eventcode": 173,
    "quadclass": 4,
    "nummentions": 16,
    "numsources": 3,
    "numarticles": 16,
    "avgtone": "3.00530480129473",
    "sourceurl": "http://news.yahoo.com/homeless-man-hero-california-attack-arrested-n-j-010710693.html",
    "feature_id": "1209052",
    "feature_name": "Philadelphia",
    "state_alpha": "PA",
    "county_name": "Philadelphia",
    "county_numeric": "101",
    "prim_lat_dec": "39.952335",
    "prim_long_dec": "-75.163789",
    "elev_in_m": "14",
    "elev_in_ft": "46",
    "lat": 39.952335,
    "long": -75.163789
  },
  {
    "globaleventid": 254976326,
    "sqldate": 20130516,
    "monthyear": 201305,
    "year": 2013,
    "fractiondate": "2013.3726",
    "eventcode": 173,
    "quadclass": 4,
    "nummentions": 2,
    "numsources": 1,
    "numarticles": 2,
    "avgtone": "3.42465753424658",
    "sourceurl": "http://www.dailymail.co.uk/news/article-2325538/How-Pep-dog-sentenced-life-prison-framed-killing-Pennsylvania-governors-beloved-cat.html?ITO=1490&ns_mchannel=rss&ns_campaign=1490",
    "feature_id": "1175992",
    "feature_name": "Graterford",
    "state_alpha": "PA",
    "county_name": "Montgomery",
    "county_numeric": "091",
    "prim_lat_dec": "40.2256585",
    "prim_long_dec": "-75.454623",
    "elev_in_m": "45",
    "elev_in_ft": "148",
    "lat": 40.2256585,
    "long": -75.454623
  },
  {
    "globaleventid": 254976325,
    "sqldate": 20130516,
    "monthyear": 201305,
    "year": 2013,
    "fractiondate": "2013.3726",
    "eventcode": 173,
    "quadclass": 4,
    "nummentions": 2,
    "numsources": 1,
    "numarticles": 2,
    "avgtone": "0.0",
    "sourceurl": "http://www.philippinetimes.com/index.php/sid/214550871/scat/2411cd3571b4f088",
    "feature_id": "1066654",
    "feature_name": "Cleveland",
    "state_alpha": "OH",
    "county_name": "Cuyahoga",
    "county_numeric": "035",
    "prim_lat_dec": "41.4994954",
    "prim_long_dec": "-81.6954088",
    "elev_in_m": "199",
    "elev_in_ft": "653",
    "lat": 41.4994954,
    "long": -81.6954088
  },
  {
    "globaleventid": 254976317,
    "sqldate": 20130516,
    "monthyear": 201305,
    "year": 2013,
    "fractiondate": "2013.3726",
    "eventcode": 112,
    "quadclass": 3,
    "nummentions": 2,
    "numsources": 1,
    "numarticles": 2,
    "avgtone": "1.78571428571429",
    "sourceurl": "http://www.bloomberg.com/news/2013-05-16/uzbek-man-charged-in-u-s-with-terrorism-conspiracy.html",
    "feature_id": "400590",
    "feature_name": "Boise",
    "state_alpha": "ID",
    "county_name": "Ada",
    "county_numeric": "001",
    "prim_lat_dec": "43.6135002",
    "prim_long_dec": "-116.2034505",
    "elev_in_m": "823",
    "elev_in_ft": "2700",
    "lat": 43.6135002,
    "long": -116.2034505
  },
  {
    "globaleventid": 254976315,
    "sqldate": 20130516,
    "monthyear": 201305,
    "year": 2013,
    "fractiondate": "2013.3726",
    "eventcode": 112,
    "quadclass": 3,
    "nummentions": 10,
    "numsources": 1,
    "numarticles": 10,
    "avgtone": "0.826446280991736",
    "sourceurl": "http://www.gmanetwork.com/news/story/308766/news/world/boston-bombing-suspect-wrote-message-in-boat-cbs-news-report",
    "feature_id": "617565",
    "feature_name": "Boston",
    "state_alpha": "MA",
    "county_name": "Suffolk",
    "county_numeric": "025",
    "prim_lat_dec": "42.3584308",
    "prim_long_dec": "-71.0597732",
    "elev_in_m": "14",
    "elev_in_ft": "46",
    "lat": 42.3584308,
    "long": -71.0597732
  },
  {
    "globaleventid": 254976314,
    "sqldate": 20130516,
    "monthyear": 201305,
    "year": 2013,
    "fractiondate": "2013.3726",
    "eventcode": 112,
    "quadclass": 3,
    "nummentions": 2,
    "numsources": 1,
    "numarticles": 2,
    "avgtone": "0.0",
    "sourceurl": "http://www.patriotledger.com/topstories/x1160895319/Cooking-oil-thieves-strike-in-Quincy",
    "feature_id": "612987",
    "feature_name": "Quincy Center",
    "state_alpha": "MA",
    "county_name": "Norfolk",
    "county_numeric": "021",
    "prim_lat_dec": "42.2459327",
    "prim_long_dec": "-71.007826",
    "elev_in_m": "23",
    "elev_in_ft": "75",
    "lat": 42.2459327,
    "long": -71.007826
  },
  {
    "globaleventid": 254976313,
    "sqldate": 20130516,
    "monthyear": 201305,
    "year": 2013,
    "fractiondate": "2013.3726",
    "eventcode": 112,
    "quadclass": 3,
    "nummentions": 2,
    "numsources": 1,
    "numarticles": 2,
    "avgtone": "0.0",
    "sourceurl": "http://www.patriotledger.com/topstories/x1160895319/Cooking-oil-thieves-strike-in-Quincy",
    "feature_id": "612987",
    "feature_name": "Quincy Center",
    "state_alpha": "MA",
    "county_name": "Norfolk",
    "county_numeric": "021",
    "prim_lat_dec": "42.2459327",
    "prim_long_dec": "-71.007826",
    "elev_in_m": "23",
    "elev_in_ft": "75",
    "lat": 42.2459327,
    "long": -71.007826
  },
  {
    "globaleventid": 254976312,
    "sqldate": 20130516,
    "monthyear": 201305,
    "year": 2013,
    "fractiondate": "2013.3726",
    "eventcode": 112,
    "quadclass": 3,
    "nummentions": 4,
    "numsources": 2,
    "numarticles": 4,
    "avgtone": "2.08955223880597",
    "sourceurl": "http://www.channelnewsasia.com/news/world/two-brothers-charged-in-new-orleans-para/678002.html",
    "feature_id": "423587",
    "feature_name": "Chicago",
    "state_alpha": "IL",
    "county_name": "Cook",
    "county_numeric": "031",
    "prim_lat_dec": "41.850033",
    "prim_long_dec": "-87.6500523",
    "elev_in_m": "179",
    "elev_in_ft": "587",
    "lat": 41.850033,
    "long": -87.6500523
  },
  {
    "globaleventid": 254976311,
    "sqldate": 20130516,
    "monthyear": 201305,
    "year": 2013,
    "fractiondate": "2013.3726",
    "eventcode": 112,
    "quadclass": 3,
    "nummentions": 2,
    "numsources": 1,
    "numarticles": 2,
    "avgtone": "1.78571428571429",
    "sourceurl": "http://www.bloomberg.com/news/2013-05-16/uzbek-man-charged-in-u-s-with-terrorism-conspiracy.html",
    "feature_id": "400590",
    "feature_name": "Boise",
    "state_alpha": "ID",
    "county_name": "Ada",
    "county_numeric": "001",
    "prim_lat_dec": "43.6135002",
    "prim_long_dec": "-116.2034505",
    "elev_in_m": "823",
    "elev_in_ft": "2700",
    "lat": 43.6135002,
    "long": -116.2034505
  },
  {
    "globaleventid": 254976310,
    "sqldate": 20130516,
    "monthyear": 201305,
    "year": 2013,
    "fractiondate": "2013.3726",
    "eventcode": 111,
    "quadclass": 3,
    "nummentions": 2,
    "numsources": 1,
    "numarticles": 2,
    "avgtone": "0.50761421319797",
    "sourceurl": "http://www.npr.org/templates/story/story.php?storyId=184357090&ft=1&f=",
    "feature_id": "543401",
    "feature_name": "Little Woods",
    "state_alpha": "LA",
    "county_name": "Orleans",
    "county_numeric": "071",
    "prim_lat_dec": "30.0752002",
    "prim_long_dec": "-89.9442349",
    "elev_in_m": "-1",
    "elev_in_ft": "-3",
    "lat": 30.0752002,
    "long": -89.9442349
  },
  {
    "globaleventid": 254976309,
    "sqldate": 20130516,
    "monthyear": 201305,
    "year": 2013,
    "fractiondate": "2013.3726",
    "eventcode": 111,
    "quadclass": 3,
    "nummentions": 2,
    "numsources": 1,
    "numarticles": 2,
    "avgtone": "0.478468899521531",
    "sourceurl": "http://www.nypost.com/p/news/national/suspect_arrested_in_la_parade_shooting_iPahoxemZe0YCj2UWj65kK?utm_medium=rss&utm_content=%20National",
    "feature_id": "1629985",
    "feature_name": "New Orleans",
    "state_alpha": "LA",
    "county_name": "Orleans",
    "county_numeric": "071",
    "prim_lat_dec": "29.9546482",
    "prim_long_dec": "-90.075072",
    "elev_in_m": "0",
    "elev_in_ft": "0",
    "lat": 29.9546482,
    "long": -90.075072
  },
  {
    "globaleventid": 254976308,
    "sqldate": 20130516,
    "monthyear": 201305,
    "year": 2013,
    "fractiondate": "2013.3726",
    "eventcode": 100,
    "quadclass": 3,
    "nummentions": 2,
    "numsources": 1,
    "numarticles": 2,
    "avgtone": "0.738916256157635",
    "sourceurl": "http://www.washingtonpost.com/local/former-prince-georges-police-officer-acquitted-in-assault-case/2013/05/16/016085a4-be54-11e2-9b09-1638acc3942e_story.html?wprss=rss_local",
    "feature_id": "531871",
    "feature_name": "Washington",
    "state_alpha": "DC",
    "county_name": "District of Columbia",
    "county_numeric": "001",
    "prim_lat_dec": "38.8951118",
    "prim_long_dec": "-77.0363658",
    "elev_in_m": "7",
    "elev_in_ft": "23",
    "lat": 38.8951118,
    "long": -77.0363658
  },
  {
    "globaleventid": 254976187,
    "sqldate": 20130516,
    "monthyear": 201305,
    "year": 2013,
    "fractiondate": "2013.3726",
    "eventcode": 190,
    "quadclass": 4,
    "nummentions": 8,
    "numsources": 1,
    "numarticles": 8,
    "avgtone": "2.7027027027027",
    "sourceurl": "http://www.upi.com/Top_News/Special/2013/05/16/Political-violence-leads-to-Egyptian-alert/UPI-86751368713213/",
    "feature_id": "531871",
    "feature_name": "Washington",
    "state_alpha": "DC",
    "county_name": "District of Columbia",
    "county_numeric": "001",
    "prim_lat_dec": "38.8951118",
    "prim_long_dec": "-77.0363658",
    "elev_in_m": "7",
    "elev_in_ft": "23",
    "lat": 38.8951118,
    "long": -77.0363658
  },
  {
    "globaleventid": 254976061,
    "sqldate": 20130516,
    "monthyear": 201305,
    "year": 2013,
    "fractiondate": "2013.3726",
    "eventcode": 173,
    "quadclass": 4,
    "nummentions": 10,
    "numsources": 1,
    "numarticles": 10,
    "avgtone": "0.401606425702811",
    "sourceurl": "http://www.chron.com/news/houston-texas/houston/article/Man-gets-prison-in-plan-to-smuggle-pot-to-Houston-4522551.php",
    "feature_id": "1380948",
    "feature_name": "Houston",
    "state_alpha": "TX",
    "county_name": "Harris",
    "county_numeric": "201",
    "prim_lat_dec": "29.7632836",
    "prim_long_dec": "-95.3632715",
    "elev_in_m": "11",
    "elev_in_ft": "36",
    "lat": 29.7632836,
    "long": -95.3632715
  },
  {
    "globaleventid": 254976053,
    "sqldate": 20130516,
    "monthyear": 201305,
    "year": 2013,
    "fractiondate": "2013.3726",
    "eventcode": 193,
    "quadclass": 4,
    "nummentions": 2,
    "numsources": 1,
    "numarticles": 2,
    "avgtone": "0.0",
    "sourceurl": "http://www.irishsun.com/index.php/sid/214560352/scat/aba4168066a10b8d",
    "feature_id": "1066654",
    "feature_name": "Cleveland",
    "state_alpha": "OH",
    "county_name": "Cuyahoga",
    "county_numeric": "035",
    "prim_lat_dec": "41.4994954",
    "prim_long_dec": "-81.6954088",
    "elev_in_m": "199",
    "elev_in_ft": "653",
    "lat": 41.4994954,
    "long": -81.6954088
  },
  {
    "globaleventid": 254975973,
    "sqldate": 20130516,
    "monthyear": 201305,
    "year": 2013,
    "fractiondate": "2013.3726",
    "eventcode": 193,
    "quadclass": 4,
    "nummentions": 6,
    "numsources": 1,
    "numarticles": 6,
    "avgtone": "0.0",
    "sourceurl": "http://www.irishsun.com/index.php/sid/214560352/scat/aba4168066a10b8d",
    "feature_id": "1066654",
    "feature_name": "Cleveland",
    "state_alpha": "OH",
    "county_name": "Cuyahoga",
    "county_numeric": "035",
    "prim_lat_dec": "41.4994954",
    "prim_long_dec": "-81.6954088",
    "elev_in_m": "199",
    "elev_in_ft": "653",
    "lat": 41.4994954,
    "long": -81.6954088
  },
  {
    "globaleventid": 254975869,
    "sqldate": 20130516,
    "monthyear": 201305,
    "year": 2013,
    "fractiondate": "2013.3726",
    "eventcode": 173,
    "quadclass": 4,
    "nummentions": 10,
    "numsources": 1,
    "numarticles": 10,
    "avgtone": "0.826446280991736",
    "sourceurl": "http://www.gmanetwork.com/news/story/308766/news/world/boston-bombing-suspect-wrote-message-in-boat-cbs-news-report",
    "feature_id": "617565",
    "feature_name": "Boston",
    "state_alpha": "MA",
    "county_name": "Suffolk",
    "county_numeric": "025",
    "prim_lat_dec": "42.3584308",
    "prim_long_dec": "-71.0597732",
    "elev_in_m": "14",
    "elev_in_ft": "46",
    "lat": 42.3584308,
    "long": -71.0597732
  },
  {
    "globaleventid": 254975868,
    "sqldate": 20130516,
    "monthyear": 201305,
    "year": 2013,
    "fractiondate": "2013.3726",
    "eventcode": 112,
    "quadclass": 3,
    "nummentions": 10,
    "numsources": 1,
    "numarticles": 10,
    "avgtone": "0.826446280991736",
    "sourceurl": "http://www.gmanetwork.com/news/story/308766/news/world/boston-bombing-suspect-wrote-message-in-boat-cbs-news-report",
    "feature_id": "617565",
    "feature_name": "Boston",
    "state_alpha": "MA",
    "county_name": "Suffolk",
    "county_numeric": "025",
    "prim_lat_dec": "42.3584308",
    "prim_long_dec": "-71.0597732",
    "elev_in_m": "14",
    "elev_in_ft": "46",
    "lat": 42.3584308,
    "long": -71.0597732
  },
  {
    "globaleventid": 254975843,
    "sqldate": 20130516,
    "monthyear": 201305,
    "year": 2013,
    "fractiondate": "2013.3726",
    "eventcode": 182,
    "quadclass": 4,
    "nummentions": 12,
    "numsources": 2,
    "numarticles": 12,
    "avgtone": "2.0090830449827",
    "sourceurl": "http://hosted.ap.org/dynamic/stories/U/US_NJ_KILLING_HATCHET_HITCHHIKER?SITE=KING&SECTION=HOME&TEMPLATE=DEFAULT",
    "feature_id": "277606",
    "feature_name": "Fresno",
    "state_alpha": "CA",
    "county_name": "Fresno",
    "county_numeric": "019",
    "prim_lat_dec": "36.7477272",
    "prim_long_dec": "-119.7723661",
    "elev_in_m": "94",
    "elev_in_ft": "308",
    "lat": 36.7477272,
    "long": -119.7723661
  },
  {
    "globaleventid": 254975333,
    "sqldate": 20130516,
    "monthyear": 201305,
    "year": 2013,
    "fractiondate": "2013.3726",
    "eventcode": 110,
    "quadclass": 3,
    "nummentions": 10,
    "numsources": 2,
    "numarticles": 10,
    "avgtone": "2.8182619564168",
    "sourceurl": "http://www.montrealgazette.com/health/scientists+finally+stem+cells+from+cloned+human+embryos/8388671/story.html",
    "feature_id": "1209052",
    "feature_name": "Philadelphia",
    "state_alpha": "PA",
    "county_name": "Philadelphia",
    "county_numeric": "101",
    "prim_lat_dec": "39.952335",
    "prim_long_dec": "-75.163789",
    "elev_in_m": "14",
    "elev_in_ft": "46",
    "lat": 39.952335,
    "long": -75.163789
  },
  {
    "globaleventid": 254975311,
    "sqldate": 20130516,
    "monthyear": 201305,
    "year": 2013,
    "fractiondate": "2013.3726",
    "eventcode": 190,
    "quadclass": 4,
    "nummentions": 2,
    "numsources": 1,
    "numarticles": 2,
    "avgtone": "0.0",
    "sourceurl": "http://newyork.newsday.com/news/new-york/christian-ferdinand-of-maine-arrested-in-shaniesha-forbes-death-1.5273354",
    "feature_id": "579839",
    "feature_name": "Williamsburg",
    "state_alpha": "ME",
    "county_name": "Piscataquis",
    "county_numeric": "021",
    "prim_lat_dec": "45.3800501",
    "prim_long_dec": "-69.1158772",
    "elev_in_m": "182",
    "elev_in_ft": "597",
    "lat": 45.3800501,
    "long": -69.1158772
  },
  {
    "globaleventid": 254975310,
    "sqldate": 20130516,
    "monthyear": 201305,
    "year": 2013,
    "fractiondate": "2013.3726",
    "eventcode": 190,
    "quadclass": 4,
    "nummentions": 3,
    "numsources": 1,
    "numarticles": 3,
    "avgtone": "0.0",
    "sourceurl": "http://newyork.newsday.com/news/new-york/christian-ferdinand-of-maine-arrested-in-shaniesha-forbes-death-1.5273354",
    "feature_id": "579839",
    "feature_name": "Williamsburg",
    "state_alpha": "ME",
    "county_name": "Piscataquis",
    "county_numeric": "021",
    "prim_lat_dec": "45.3800501",
    "prim_long_dec": "-69.1158772",
    "elev_in_m": "182",
    "elev_in_ft": "597",
    "lat": 45.3800501,
    "long": -69.1158772
  },
  {
    "globaleventid": 254975179,
    "sqldate": 20130516,
    "monthyear": 201305,
    "year": 2013,
    "fractiondate": "2013.3726",
    "eventcode": 173,
    "quadclass": 4,
    "nummentions": 12,
    "numsources": 2,
    "numarticles": 12,
    "avgtone": "1.63013484238186",
    "sourceurl": "http://www.miamiherald.com/2013/05/16/3401723/police-ga-woman-killed-father.html",
    "feature_id": "354443",
    "feature_name": "Ball Ground",
    "state_alpha": "GA",
    "county_name": "Cherokee",
    "county_numeric": "057",
    "prim_lat_dec": "34.338149",
    "prim_long_dec": "-84.3765909",
    "elev_in_m": "336",
    "elev_in_ft": "1102",
    "lat": 34.338149,
    "long": -84.3765909
  },
  {
    "globaleventid": 254975103,
    "sqldate": 20130516,
    "monthyear": 201305,
    "year": 2013,
    "fractiondate": "2013.3726",
    "eventcode": 141,
    "quadclass": 3,
    "nummentions": 8,
    "numsources": 1,
    "numarticles": 8,
    "avgtone": "1.08108108108108",
    "sourceurl": "http://www.philippinetimes.com/index.php/sid/214562489/scat/2411cd3571b4f088",
    "feature_id": "1066654",
    "feature_name": "Cleveland",
    "state_alpha": "OH",
    "county_name": "Cuyahoga",
    "county_numeric": "035",
    "prim_lat_dec": "41.4994954",
    "prim_long_dec": "-81.6954088",
    "elev_in_m": "199",
    "elev_in_ft": "653",
    "lat": 41.4994954,
    "long": -81.6954088
  },
  {
    "globaleventid": 254974489,
    "sqldate": 20130516,
    "monthyear": 201305,
    "year": 2013,
    "fractiondate": "2013.3726",
    "eventcode": 190,
    "quadclass": 4,
    "nummentions": 1,
    "numsources": 1,
    "numarticles": 1,
    "avgtone": "1.59574468085106",
    "sourceurl": "http://newsfeed.time.com/2013/05/16/famed-hatchet-hitchhiker-arrested-in-nj-homicide/",
    "feature_id": "277606",
    "feature_name": "Fresno",
    "state_alpha": "CA",
    "county_name": "Fresno",
    "county_numeric": "019",
    "prim_lat_dec": "36.7477272",
    "prim_long_dec": "-119.7723661",
    "elev_in_m": "94",
    "elev_in_ft": "308",
    "lat": 36.7477272,
    "long": -119.7723661
  },
  {
    "globaleventid": 254974486,
    "sqldate": 20130516,
    "monthyear": 201305,
    "year": 2013,
    "fractiondate": "2013.3726",
    "eventcode": 173,
    "quadclass": 4,
    "nummentions": 1,
    "numsources": 1,
    "numarticles": 1,
    "avgtone": "2.321083172147",
    "sourceurl": "http://www.fresnobee.com/2013/05/16/3302004/kai-the-hatchet-wielding-hitchhiker.html",
    "feature_id": "531871",
    "feature_name": "Washington",
    "state_alpha": "DC",
    "county_name": "District of Columbia",
    "county_numeric": "001",
    "prim_lat_dec": "38.8951118",
    "prim_long_dec": "-77.0363658",
    "elev_in_m": "7",
    "elev_in_ft": "23",
    "lat": 38.8951118,
    "long": -77.0363658
  },
  {
    "globaleventid": 254974485,
    "sqldate": 20130516,
    "monthyear": 201305,
    "year": 2013,
    "fractiondate": "2013.3726",
    "eventcode": 173,
    "quadclass": 4,
    "nummentions": 1,
    "numsources": 1,
    "numarticles": 1,
    "avgtone": "2.321083172147",
    "sourceurl": "http://www.fresnobee.com/2013/05/16/3302004/kai-the-hatchet-wielding-hitchhiker.html",
    "feature_id": "531871",
    "feature_name": "Washington",
    "state_alpha": "DC",
    "county_name": "District of Columbia",
    "county_numeric": "001",
    "prim_lat_dec": "38.8951118",
    "prim_long_dec": "-77.0363658",
    "elev_in_m": "7",
    "elev_in_ft": "23",
    "lat": 38.8951118,
    "long": -77.0363658
  },
  {
    "globaleventid": 254974484,
    "sqldate": 20130516,
    "monthyear": 201305,
    "year": 2013,
    "fractiondate": "2013.3726",
    "eventcode": 173,
    "quadclass": 4,
    "nummentions": 1,
    "numsources": 1,
    "numarticles": 1,
    "avgtone": "1.59574468085106",
    "sourceurl": "http://newsfeed.time.com/2013/05/16/famed-hatchet-hitchhiker-arrested-in-nj-homicide/",
    "feature_id": "277606",
    "feature_name": "Fresno",
    "state_alpha": "CA",
    "county_name": "Fresno",
    "county_numeric": "019",
    "prim_lat_dec": "36.7477272",
    "prim_long_dec": "-119.7723661",
    "elev_in_m": "94",
    "elev_in_ft": "308",
    "lat": 36.7477272,
    "long": -119.7723661
  },
  {
    "globaleventid": 254974460,
    "sqldate": 20130516,
    "monthyear": 201305,
    "year": 2013,
    "fractiondate": "2013.3726",
    "eventcode": 190,
    "quadclass": 4,
    "nummentions": 2,
    "numsources": 1,
    "numarticles": 2,
    "avgtone": "2.321083172147",
    "sourceurl": "http://www.fresnobee.com/2013/05/16/3302004/kai-the-hatchet-wielding-hitchhiker.html",
    "feature_id": "531871",
    "feature_name": "Washington",
    "state_alpha": "DC",
    "county_name": "District of Columbia",
    "county_numeric": "001",
    "prim_lat_dec": "38.8951118",
    "prim_long_dec": "-77.0363658",
    "elev_in_m": "7",
    "elev_in_ft": "23",
    "lat": 38.8951118,
    "long": -77.0363658
  },
  {
    "globaleventid": 254974459,
    "sqldate": 20130516,
    "monthyear": 201305,
    "year": 2013,
    "fractiondate": "2013.3726",
    "eventcode": 190,
    "quadclass": 4,
    "nummentions": 9,
    "numsources": 2,
    "numarticles": 9,
    "avgtone": "3.01204819277108",
    "sourceurl": "http://www.reuters.com/article/2013/05/17/us-usa-crime-hitchhiker-idUSBRE94G02920130517",
    "feature_id": "1209052",
    "feature_name": "Philadelphia",
    "state_alpha": "PA",
    "county_name": "Philadelphia",
    "county_numeric": "101",
    "prim_lat_dec": "39.952335",
    "prim_long_dec": "-75.163789",
    "elev_in_m": "14",
    "elev_in_ft": "46",
    "lat": 39.952335,
    "long": -75.163789
  },
  {
    "globaleventid": 254974427,
    "sqldate": 20130516,
    "monthyear": 201305,
    "year": 2013,
    "fractiondate": "2013.3726",
    "eventcode": 120,
    "quadclass": 3,
    "nummentions": 2,
    "numsources": 2,
    "numarticles": 2,
    "avgtone": "2.4804464247915",
    "sourceurl": "http://fuelfix.com/blog/2013/05/16/harper-seeks-to-build-keystone-xl-support-on-u-s-visit/",
    "feature_id": "531871",
    "feature_name": "Washington",
    "state_alpha": "DC",
    "county_name": "District of Columbia",
    "county_numeric": "001",
    "prim_lat_dec": "38.8951118",
    "prim_long_dec": "-77.0363658",
    "elev_in_m": "7",
    "elev_in_ft": "23",
    "lat": 38.8951118,
    "long": -77.0363658
  },
  {
    "globaleventid": 254974412,
    "sqldate": 20130516,
    "monthyear": 201305,
    "year": 2013,
    "fractiondate": "2013.3726",
    "eventcode": 120,
    "quadclass": 3,
    "nummentions": 2,
    "numsources": 2,
    "numarticles": 2,
    "avgtone": "2.4804464247915",
    "sourceurl": "http://fuelfix.com/blog/2013/05/16/harper-seeks-to-build-keystone-xl-support-on-u-s-visit/",
    "feature_id": "531871",
    "feature_name": "Washington",
    "state_alpha": "DC",
    "county_name": "District of Columbia",
    "county_numeric": "001",
    "prim_lat_dec": "38.8951118",
    "prim_long_dec": "-77.0363658",
    "elev_in_m": "7",
    "elev_in_ft": "23",
    "lat": 38.8951118,
    "long": -77.0363658
  },
  {
    "globaleventid": 254973964,
    "sqldate": 20130516,
    "monthyear": 201305,
    "year": 2013,
    "fractiondate": "2013.3726",
    "eventcode": 114,
    "quadclass": 3,
    "nummentions": 70,
    "numsources": 5,
    "numarticles": 70,
    "avgtone": "2.5204058620349",
    "sourceurl": "http://hosted.ap.org/dynamic/stories/U/US_LABOR_BOARD_NOMINEES?SITE=FLPLA&SECTION=HOME&TEMPLATE=DEFAULT",
    "feature_id": "531871",
    "feature_name": "Washington",
    "state_alpha": "DC",
    "county_name": "District of Columbia",
    "county_numeric": "001",
    "prim_lat_dec": "38.8951118",
    "prim_long_dec": "-77.0363658",
    "elev_in_m": "7",
    "elev_in_ft": "23",
    "lat": 38.8951118,
    "long": -77.0363658
  },
  {
    "globaleventid": 254973949,
    "sqldate": 20130516,
    "monthyear": 201305,
    "year": 2013,
    "fractiondate": "2013.3726",
    "eventcode": 173,
    "quadclass": 4,
    "nummentions": 3,
    "numsources": 1,
    "numarticles": 3,
    "avgtone": "0.416666666666667",
    "sourceurl": "http://www.xe.com/news/2013/05/16/3356981.htm?utm_source=RSS&utm_medium=TL&utm_content=NOGEO&utm_campaign=News_RSS_Art11",
    "feature_id": "423587",
    "feature_name": "Chicago",
    "state_alpha": "IL",
    "county_name": "Cook",
    "county_numeric": "031",
    "prim_lat_dec": "41.850033",
    "prim_long_dec": "-87.6500523",
    "elev_in_m": "179",
    "elev_in_ft": "587",
    "lat": 41.850033,
    "long": -87.6500523
  },
  {
    "globaleventid": 254973918,
    "sqldate": 20130516,
    "monthyear": 201305,
    "year": 2013,
    "fractiondate": "2013.3726",
    "eventcode": 182,
    "quadclass": 4,
    "nummentions": 4,
    "numsources": 1,
    "numarticles": 4,
    "avgtone": "2.77777777777778",
    "sourceurl": "http://www.usatoday.com/story/news/nation/2013/05/16/wash-legal-pot/2189627/?utm_source=feedburner&utm_medium=feed&utm_campaign=Feed%3A+usatoday-NewsTopStories+%28News+-+Top+Stories%29",
    "feature_id": "531871",
    "feature_name": "Washington",
    "state_alpha": "DC",
    "county_name": "District of Columbia",
    "county_numeric": "001",
    "prim_lat_dec": "38.8951118",
    "prim_long_dec": "-77.0363658",
    "elev_in_m": "7",
    "elev_in_ft": "23",
    "lat": 38.8951118,
    "long": -77.0363658
  },
  {
    "globaleventid": 254973917,
    "sqldate": 20130516,
    "monthyear": 201305,
    "year": 2013,
    "fractiondate": "2013.3726",
    "eventcode": 182,
    "quadclass": 4,
    "nummentions": 12,
    "numsources": 2,
    "numarticles": 12,
    "avgtone": "2.13920817369093",
    "sourceurl": "http://www.usatoday.com/story/news/nation/2013/05/16/wash-legal-pot/2189627/?utm_source=feedburner&utm_medium=feed&utm_campaign=Feed%3A+usatoday-NewsTopStories+%28News+-+Top+Stories%29",
    "feature_id": "531871",
    "feature_name": "Washington",
    "state_alpha": "DC",
    "county_name": "District of Columbia",
    "county_numeric": "001",
    "prim_lat_dec": "38.8951118",
    "prim_long_dec": "-77.0363658",
    "elev_in_m": "7",
    "elev_in_ft": "23",
    "lat": 38.8951118,
    "long": -77.0363658
  },
  {
    "globaleventid": 254973916,
    "sqldate": 20130516,
    "monthyear": 201305,
    "year": 2013,
    "fractiondate": "2013.3726",
    "eventcode": 181,
    "quadclass": 4,
    "nummentions": 2,
    "numsources": 1,
    "numarticles": 2,
    "avgtone": "2.32558139534884",
    "sourceurl": "http://www.panarmenian.net/eng/news/158584/",
    "feature_id": "847388",
    "feature_name": "Las Vegas",
    "state_alpha": "NV",
    "county_name": "Clark",
    "county_numeric": "003",
    "prim_lat_dec": "36.1749705",
    "prim_long_dec": "-115.137223",
    "elev_in_m": "610",
    "elev_in_ft": "2001",
    "lat": 36.1749705,
    "long": -115.137223
  },
  {
    "globaleventid": 254973913,
    "sqldate": 20130516,
    "monthyear": 201305,
    "year": 2013,
    "fractiondate": "2013.3726",
    "eventcode": 173,
    "quadclass": 4,
    "nummentions": 10,
    "numsources": 1,
    "numarticles": 10,
    "avgtone": "2.7027027027027",
    "sourceurl": "http://www.payvand.com/news/13/may/1122.html",
    "feature_id": "531871",
    "feature_name": "Washington",
    "state_alpha": "DC",
    "county_name": "District of Columbia",
    "county_numeric": "001",
    "prim_lat_dec": "38.8951118",
    "prim_long_dec": "-77.0363658",
    "elev_in_m": "7",
    "elev_in_ft": "23",
    "lat": 38.8951118,
    "long": -77.0363658
  },
  {
    "globaleventid": 254973911,
    "sqldate": 20130516,
    "monthyear": 201305,
    "year": 2013,
    "fractiondate": "2013.3726",
    "eventcode": 173,
    "quadclass": 4,
    "nummentions": 1,
    "numsources": 1,
    "numarticles": 1,
    "avgtone": "0.416666666666667",
    "sourceurl": "http://www.xe.com/news/2013/05/16/3356981.htm?utm_source=RSS&utm_medium=TL&utm_content=NOGEO&utm_campaign=News_RSS_Art11",
    "feature_id": "423587",
    "feature_name": "Chicago",
    "state_alpha": "IL",
    "county_name": "Cook",
    "county_numeric": "031",
    "prim_lat_dec": "41.850033",
    "prim_long_dec": "-87.6500523",
    "elev_in_m": "179",
    "elev_in_ft": "587",
    "lat": 41.850033,
    "long": -87.6500523
  },
  {
    "globaleventid": 254973909,
    "sqldate": 20130516,
    "monthyear": 201305,
    "year": 2013,
    "fractiondate": "2013.3726",
    "eventcode": 166,
    "quadclass": 4,
    "nummentions": 2,
    "numsources": 1,
    "numarticles": 2,
    "avgtone": "1.52091254752852",
    "sourceurl": "http://www.nj.com/union/index.ssf/2013/05/post_10.html",
    "feature_id": "879585",
    "feature_name": "Rahway",
    "state_alpha": "NJ",
    "county_name": "Union",
    "county_numeric": "039",
    "prim_lat_dec": "40.6081591",
    "prim_long_dec": "-74.2776468",
    "elev_in_m": "6",
    "elev_in_ft": "20",
    "lat": 40.6081591,
    "long": -74.2776468
  },
  {
    "globaleventid": 254973908,
    "sqldate": 20130516,
    "monthyear": 201305,
    "year": 2013,
    "fractiondate": "2013.3726",
    "eventcode": 166,
    "quadclass": 4,
    "nummentions": 1,
    "numsources": 1,
    "numarticles": 1,
    "avgtone": "1.52091254752852",
    "sourceurl": "http://www.nj.com/union/index.ssf/2013/05/post_10.html",
    "feature_id": "879585",
    "feature_name": "Rahway",
    "state_alpha": "NJ",
    "county_name": "Union",
    "county_numeric": "039",
    "prim_lat_dec": "40.6081591",
    "prim_long_dec": "-74.2776468",
    "elev_in_m": "6",
    "elev_in_ft": "20",
    "lat": 40.6081591,
    "long": -74.2776468
  },
  {
    "globaleventid": 254973907,
    "sqldate": 20130516,
    "monthyear": 201305,
    "year": 2013,
    "fractiondate": "2013.3726",
    "eventcode": 1124,
    "quadclass": 3,
    "nummentions": 1,
    "numsources": 1,
    "numarticles": 1,
    "avgtone": "6.03318250377074",
    "sourceurl": "http://www.ethanolproducer.com/articles/9874/moniz-confirmed-as-secretary-of-energy",
    "feature_id": "531871",
    "feature_name": "Washington",
    "state_alpha": "DC",
    "county_name": "District of Columbia",
    "county_numeric": "001",
    "prim_lat_dec": "38.8951118",
    "prim_long_dec": "-77.0363658",
    "elev_in_m": "7",
    "elev_in_ft": "23",
    "lat": 38.8951118,
    "long": -77.0363658
  },
  {
    "globaleventid": 255206632,
    "sqldate": 20130516,
    "monthyear": 201305,
    "year": 2013,
    "fractiondate": "2013.3726",
    "eventcode": 193,
    "quadclass": 4,
    "nummentions": 4,
    "numsources": 1,
    "numarticles": 4,
    "avgtone": "0.173010380622837",
    "sourceurl": "http://www.newschannel5.com/story/22411533/defense-releases-photos-texts-of-trayvon-martin",
    "feature_id": "288240",
    "feature_name": "Orlando",
    "state_alpha": "FL",
    "county_name": "Orange",
    "county_numeric": "095",
    "prim_lat_dec": "28.5383355",
    "prim_long_dec": "-81.3792365",
    "elev_in_m": "31",
    "elev_in_ft": "102",
    "lat": 28.5383355,
    "long": -81.3792365
  },
  {
    "globaleventid": 255206521,
    "sqldate": 20130516,
    "monthyear": 201305,
    "year": 2013,
    "fractiondate": "2013.3726",
    "eventcode": 190,
    "quadclass": 4,
    "nummentions": 6,
    "numsources": 1,
    "numarticles": 6,
    "avgtone": "1.78082191780822",
    "sourceurl": "http://www.politico.com/story/2013/05/the-mystery-night-91788.html",
    "feature_id": "847388",
    "feature_name": "Las Vegas",
    "state_alpha": "NV",
    "county_name": "Clark",
    "county_numeric": "003",
    "prim_lat_dec": "36.1749705",
    "prim_long_dec": "-115.137223",
    "elev_in_m": "610",
    "elev_in_ft": "2001",
    "lat": 36.1749705,
    "long": -115.137223
  },
  {
    "globaleventid": 254973902,
    "sqldate": 20130516,
    "monthyear": 201305,
    "year": 2013,
    "fractiondate": "2013.3726",
    "eventcode": 112,
    "quadclass": 3,
    "nummentions": 3,
    "numsources": 3,
    "numarticles": 3,
    "avgtone": "2.77042369138232",
    "sourceurl": "http://host.madison.com/news/national/government-and-politics/interior-issues-new-drilling-rule-on-public-land/article_8ade984f-5e61-5df1-8199-fed330da7281.html",
    "feature_id": "529313",
    "feature_name": "Capitol Hill",
    "state_alpha": "DC",
    "county_name": "District of Columbia",
    "county_numeric": "001",
    "prim_lat_dec": "38.8890009",
    "prim_long_dec": "-77.0002537",
    "elev_in_m": "28",
    "elev_in_ft": "92",
    "lat": 38.8890009,
    "long": -77.0002537
  },
  {
    "globaleventid": 254973678,
    "sqldate": 20130516,
    "monthyear": 201305,
    "year": 2013,
    "fractiondate": "2013.3726",
    "eventcode": 1125,
    "quadclass": 3,
    "nummentions": 3,
    "numsources": 1,
    "numarticles": 3,
    "avgtone": "1.98630136986301",
    "sourceurl": "http://cnsnews.com/news/article/bloomberg-uproar-ethics-flags-new-media",
    "feature_id": "221079",
    "feature_name": "Chiquita",
    "state_alpha": "CA",
    "county_name": "Sonoma",
    "county_numeric": "097",
    "prim_lat_dec": "38.6349099",
    "prim_long_dec": "-122.8744391",
    "elev_in_m": "48",
    "elev_in_ft": "157",
    "lat": 38.6349099,
    "long": -122.8744391
  },
  {
    "globaleventid": 254973677,
    "sqldate": 20130516,
    "monthyear": 201305,
    "year": 2013,
    "fractiondate": "2013.3726",
    "eventcode": 1125,
    "quadclass": 3,
    "nummentions": 18,
    "numsources": 3,
    "numarticles": 18,
    "avgtone": "1.98105453213916",
    "sourceurl": "http://www.npr.org/templates/story/story.php?storyId=184426798&ft=1&f=",
    "feature_id": "1066650",
    "feature_name": "Cincinnati",
    "state_alpha": "OH",
    "county_name": "Hamilton",
    "county_numeric": "061",
    "prim_lat_dec": "39.1620036",
    "prim_long_dec": "-84.4568863",
    "elev_in_m": "191",
    "elev_in_ft": "627",
    "lat": 39.1620036,
    "long": -84.4568863
  },
  {
    "globaleventid": 254973675,
    "sqldate": 20130516,
    "monthyear": 201305,
    "year": 2013,
    "fractiondate": "2013.3726",
    "eventcode": 111,
    "quadclass": 3,
    "nummentions": 20,
    "numsources": 2,
    "numarticles": 20,
    "avgtone": "0.894867675545595",
    "sourceurl": "http://www.businessweek.com/news/2013-05-16/platts-retains-energy-trader-confidence-amid-price-fix-probe-1",
    "feature_id": "174841",
    "feature_name": "Carbondale",
    "state_alpha": "CO",
    "county_name": "Garfield",
    "county_numeric": "045",
    "prim_lat_dec": "39.4022054",
    "prim_long_dec": "-107.2111628",
    "elev_in_m": "1881",
    "elev_in_ft": "6171",
    "lat": 39.4022054,
    "long": -107.2111628
  },
  {
    "globaleventid": 254973477,
    "sqldate": 20130516,
    "monthyear": 201305,
    "year": 2013,
    "fractiondate": "2013.3726",
    "eventcode": 120,
    "quadclass": 3,
    "nummentions": 15,
    "numsources": 3,
    "numarticles": 15,
    "avgtone": "0.79473033309695",
    "sourceurl": "http://www.trust.org/item/20130516233330-rkmw9/?source%20=%20hpbreaking",
    "feature_id": "531871",
    "feature_name": "Washington",
    "state_alpha": "DC",
    "county_name": "District of Columbia",
    "county_numeric": "001",
    "prim_lat_dec": "38.8951118",
    "prim_long_dec": "-77.0363658",
    "elev_in_m": "7",
    "elev_in_ft": "23",
    "lat": 38.8951118,
    "long": -77.0363658
  },
  {
    "globaleventid": 254973468,
    "sqldate": 20130516,
    "monthyear": 201305,
    "year": 2013,
    "fractiondate": "2013.3726",
    "eventcode": 182,
    "quadclass": 4,
    "nummentions": 6,
    "numsources": 1,
    "numarticles": 6,
    "avgtone": "2.77777777777778",
    "sourceurl": "http://www.usatoday.com/story/news/nation/2013/05/16/wash-legal-pot/2189627/?utm_source=feedburner&utm_medium=feed&utm_campaign=Feed%3A+usatoday-NewsTopStories+%28News+-+Top+Stories%29",
    "feature_id": "531871",
    "feature_name": "Washington",
    "state_alpha": "DC",
    "county_name": "District of Columbia",
    "county_numeric": "001",
    "prim_lat_dec": "38.8951118",
    "prim_long_dec": "-77.0363658",
    "elev_in_m": "7",
    "elev_in_ft": "23",
    "lat": 38.8951118,
    "long": -77.0363658
  },
  {
    "globaleventid": 254973465,
    "sqldate": 20130516,
    "monthyear": 201305,
    "year": 2013,
    "fractiondate": "2013.3726",
    "eventcode": 130,
    "quadclass": 3,
    "nummentions": 10,
    "numsources": 1,
    "numarticles": 10,
    "avgtone": "2.5089605734767",
    "sourceurl": "http://www.dw.de/los-angeles-goes-after-deutsche-bank/a-16813149?maca=en-rss-en-top-1022-rdf",
    "feature_id": "1662328",
    "feature_name": "Los Angeles",
    "state_alpha": "CA",
    "county_name": "Los Angeles",
    "county_numeric": "037",
    "prim_lat_dec": "34.0522342",
    "prim_long_dec": "-118.2436849",
    "elev_in_m": "89",
    "elev_in_ft": "292",
    "lat": 34.0522342,
    "long": -118.2436849
  },
  {
    "globaleventid": 254972818,
    "sqldate": 20130516,
    "monthyear": 201305,
    "year": 2013,
    "fractiondate": "2013.3726",
    "eventcode": 190,
    "quadclass": 4,
    "nummentions": 4,
    "numsources": 1,
    "numarticles": 4,
    "avgtone": "3.42771982116244",
    "sourceurl": "http://www.nst.com.my/latest/myanmar-president-on-landmark-us-visit-monday-1.280298?localLinksEnabled=false",
    "feature_id": "531871",
    "feature_name": "Washington",
    "state_alpha": "DC",
    "county_name": "District of Columbia",
    "county_numeric": "001",
    "prim_lat_dec": "38.8951118",
    "prim_long_dec": "-77.0363658",
    "elev_in_m": "7",
    "elev_in_ft": "23",
    "lat": 38.8951118,
    "long": -77.0363658
  },
  {
    "globaleventid": 254972803,
    "sqldate": 20130516,
    "monthyear": 201305,
    "year": 2013,
    "fractiondate": "2013.3726",
    "eventcode": 173,
    "quadclass": 4,
    "nummentions": 6,
    "numsources": 2,
    "numarticles": 6,
    "avgtone": "1.04068403080258",
    "sourceurl": "http://www.dailymail.co.uk/news/article-2325714/Dr-Kermit-Gosnell-case-We-plunged-sink-babys-arm-came-reveals-cop.html?ITO=1490&ns_mchannel=rss&ns_campaign=1490",
    "feature_id": "1209052",
    "feature_name": "Philadelphia",
    "state_alpha": "PA",
    "county_name": "Philadelphia",
    "county_numeric": "101",
    "prim_lat_dec": "39.952335",
    "prim_long_dec": "-75.163789",
    "elev_in_m": "14",
    "elev_in_ft": "46",
    "lat": 39.952335,
    "long": -75.163789
  },
  {
    "globaleventid": 254972473,
    "sqldate": 20130516,
    "monthyear": 201305,
    "year": 2013,
    "fractiondate": "2013.3726",
    "eventcode": 171,
    "quadclass": 4,
    "nummentions": 4,
    "numsources": 1,
    "numarticles": 4,
    "avgtone": "3.71318822023047",
    "sourceurl": "http://www.dailymail.co.uk/tvshowbiz/article-2325694/Cannes-Film-Festival-2013-Emma-Watson-takes-centre-stage-monochrome-Chanel-gown-Bling-Ring-premiere.html?ITO=1490&ns_mchannel=rss&ns_campaign=1490",
    "feature_id": "332012",
    "feature_name": "Hollywood",
    "state_alpha": "GA",
    "county_name": "Habersham",
    "county_numeric": "137",
    "prim_lat_dec": "34.6495408",
    "prim_long_dec": "-83.4473898",
    "elev_in_m": "464",
    "elev_in_ft": "1522",
    "lat": 34.6495408,
    "long": -83.4473898
  },
  {
    "globaleventid": 254972427,
    "sqldate": 20130516,
    "monthyear": 201305,
    "year": 2013,
    "fractiondate": "2013.3726",
    "eventcode": 181,
    "quadclass": 4,
    "nummentions": 6,
    "numsources": 1,
    "numarticles": 6,
    "avgtone": "1.01351351351351",
    "sourceurl": "http://www.philippinetimes.com/index.php/sid/214549136/scat/2411cd3571b4f088",
    "feature_id": "1066654",
    "feature_name": "Cleveland",
    "state_alpha": "OH",
    "county_name": "Cuyahoga",
    "county_numeric": "035",
    "prim_lat_dec": "41.4994954",
    "prim_long_dec": "-81.6954088",
    "elev_in_m": "199",
    "elev_in_ft": "653",
    "lat": 41.4994954,
    "long": -81.6954088
  },
  {
    "globaleventid": 254972423,
    "sqldate": 20130516,
    "monthyear": 201305,
    "year": 2013,
    "fractiondate": "2013.3726",
    "eventcode": 173,
    "quadclass": 4,
    "nummentions": 2,
    "numsources": 1,
    "numarticles": 2,
    "avgtone": "1.01351351351351",
    "sourceurl": "http://www.philippinetimes.com/index.php/sid/214549136/scat/2411cd3571b4f088",
    "feature_id": "1066654",
    "feature_name": "Cleveland",
    "state_alpha": "OH",
    "county_name": "Cuyahoga",
    "county_numeric": "035",
    "prim_lat_dec": "41.4994954",
    "prim_long_dec": "-81.6954088",
    "elev_in_m": "199",
    "elev_in_ft": "653",
    "lat": 41.4994954,
    "long": -81.6954088
  },
  {
    "globaleventid": 254972421,
    "sqldate": 20130516,
    "monthyear": 201305,
    "year": 2013,
    "fractiondate": "2013.3726",
    "eventcode": 181,
    "quadclass": 4,
    "nummentions": 1,
    "numsources": 1,
    "numarticles": 1,
    "avgtone": "1.01351351351351",
    "sourceurl": "http://www.philippinetimes.com/index.php/sid/214549136/scat/2411cd3571b4f088",
    "feature_id": "1066654",
    "feature_name": "Cleveland",
    "state_alpha": "OH",
    "county_name": "Cuyahoga",
    "county_numeric": "035",
    "prim_lat_dec": "41.4994954",
    "prim_long_dec": "-81.6954088",
    "elev_in_m": "199",
    "elev_in_ft": "653",
    "lat": 41.4994954,
    "long": -81.6954088
  },
  {
    "globaleventid": 254972381,
    "sqldate": 20130516,
    "monthyear": 201305,
    "year": 2013,
    "fractiondate": "2013.3726",
    "eventcode": 181,
    "quadclass": 4,
    "nummentions": 1,
    "numsources": 1,
    "numarticles": 1,
    "avgtone": "1.01351351351351",
    "sourceurl": "http://www.philippinetimes.com/index.php/sid/214549136/scat/2411cd3571b4f088",
    "feature_id": "1066654",
    "feature_name": "Cleveland",
    "state_alpha": "OH",
    "county_name": "Cuyahoga",
    "county_numeric": "035",
    "prim_lat_dec": "41.4994954",
    "prim_long_dec": "-81.6954088",
    "elev_in_m": "199",
    "elev_in_ft": "653",
    "lat": 41.4994954,
    "long": -81.6954088
  },
  {
    "globaleventid": 254971903,
    "sqldate": 20130516,
    "monthyear": 201305,
    "year": 2013,
    "fractiondate": "2013.3726",
    "eventcode": 111,
    "quadclass": 3,
    "nummentions": 8,
    "numsources": 1,
    "numarticles": 8,
    "avgtone": "0.0",
    "sourceurl": "http://www.irishsun.com/index.php/sid/214556825/scat/2411cd3571b4f088",
    "feature_id": "1066654",
    "feature_name": "Cleveland",
    "state_alpha": "OH",
    "county_name": "Cuyahoga",
    "county_numeric": "035",
    "prim_lat_dec": "41.4994954",
    "prim_long_dec": "-81.6954088",
    "elev_in_m": "199",
    "elev_in_ft": "653",
    "lat": 41.4994954,
    "long": -81.6954088
  },
  {
    "globaleventid": 254971305,
    "sqldate": 20130516,
    "monthyear": 201305,
    "year": 2013,
    "fractiondate": "2013.3726",
    "eventcode": 114,
    "quadclass": 3,
    "nummentions": 4,
    "numsources": 1,
    "numarticles": 4,
    "avgtone": "0.993377483443709",
    "sourceurl": "http://www.philippinetimes.com/index.php/sid/214556371/scat/2411cd3571b4f088",
    "feature_id": "1066654",
    "feature_name": "Cleveland",
    "state_alpha": "OH",
    "county_name": "Cuyahoga",
    "county_numeric": "035",
    "prim_lat_dec": "41.4994954",
    "prim_long_dec": "-81.6954088",
    "elev_in_m": "199",
    "elev_in_ft": "653",
    "lat": 41.4994954,
    "long": -81.6954088
  },
  {
    "globaleventid": 254971161,
    "sqldate": 20130516,
    "monthyear": 201305,
    "year": 2013,
    "fractiondate": "2013.3726",
    "eventcode": 111,
    "quadclass": 3,
    "nummentions": 1,
    "numsources": 1,
    "numarticles": 1,
    "avgtone": "2.32974910394265",
    "sourceurl": "http://news.yahoo.com/afghan-conflict-decided-144838028.html",
    "feature_id": "531871",
    "feature_name": "Washington",
    "state_alpha": "DC",
    "county_name": "District of Columbia",
    "county_numeric": "001",
    "prim_lat_dec": "38.8951118",
    "prim_long_dec": "-77.0363658",
    "elev_in_m": "7",
    "elev_in_ft": "23",
    "lat": 38.8951118,
    "long": -77.0363658
  },
  {
    "globaleventid": 254971147,
    "sqldate": 20130516,
    "monthyear": 201305,
    "year": 2013,
    "fractiondate": "2013.3726",
    "eventcode": 190,
    "quadclass": 4,
    "nummentions": 10,
    "numsources": 1,
    "numarticles": 10,
    "avgtone": "0.641025641025641",
    "sourceurl": "http://www.philippinetimes.com/index.php/sid/214550459/scat/2411cd3571b4f088",
    "feature_id": "1066654",
    "feature_name": "Cleveland",
    "state_alpha": "OH",
    "county_name": "Cuyahoga",
    "county_numeric": "035",
    "prim_lat_dec": "41.4994954",
    "prim_long_dec": "-81.6954088",
    "elev_in_m": "199",
    "elev_in_ft": "653",
    "lat": 41.4994954,
    "long": -81.6954088
  },
  {
    "globaleventid": 254971117,
    "sqldate": 20130516,
    "monthyear": 201305,
    "year": 2013,
    "fractiondate": "2013.3726",
    "eventcode": 111,
    "quadclass": 3,
    "nummentions": 30,
    "numsources": 3,
    "numarticles": 30,
    "avgtone": "1.1540230525861",
    "sourceurl": "http://www.contracostatimes.com/breaking-news/ci_23258162/afghanistan-suicide-bombing-kills-15-including-6-americans?source=rss",
    "feature_id": "531871",
    "feature_name": "Washington",
    "state_alpha": "DC",
    "county_name": "District of Columbia",
    "county_numeric": "001",
    "prim_lat_dec": "38.8951118",
    "prim_long_dec": "-77.0363658",
    "elev_in_m": "7",
    "elev_in_ft": "23",
    "lat": 38.8951118,
    "long": -77.0363658
  },
  {
    "globaleventid": 254971116,
    "sqldate": 20130516,
    "monthyear": 201305,
    "year": 2013,
    "fractiondate": "2013.3726",
    "eventcode": 111,
    "quadclass": 3,
    "nummentions": 10,
    "numsources": 1,
    "numarticles": 10,
    "avgtone": "1.86046511627907",
    "sourceurl": "http://www.startribune.com/world/207807141.html",
    "feature_id": "1662328",
    "feature_name": "Los Angeles",
    "state_alpha": "CA",
    "county_name": "Los Angeles",
    "county_numeric": "037",
    "prim_lat_dec": "34.0522342",
    "prim_long_dec": "-118.2436849",
    "elev_in_m": "89",
    "elev_in_ft": "292",
    "lat": 34.0522342,
    "long": -118.2436849
  },
  {
    "globaleventid": 254971062,
    "sqldate": 20130516,
    "monthyear": 201305,
    "year": 2013,
    "fractiondate": "2013.3726",
    "eventcode": 1832,
    "quadclass": 4,
    "nummentions": 10,
    "numsources": 2,
    "numarticles": 10,
    "avgtone": "1.09409190371991",
    "sourceurl": "http://www.contracostatimes.com/breaking-news/ci_23258162/afghanistan-suicide-bombing-kills-15-including-6-americans?source=rss",
    "feature_id": "531871",
    "feature_name": "Washington",
    "state_alpha": "DC",
    "county_name": "District of Columbia",
    "county_numeric": "001",
    "prim_lat_dec": "38.8951118",
    "prim_long_dec": "-77.0363658",
    "elev_in_m": "7",
    "elev_in_ft": "23",
    "lat": 38.8951118,
    "long": -77.0363658
  },
  {
    "globaleventid": 254971050,
    "sqldate": 20130516,
    "monthyear": 201305,
    "year": 2013,
    "fractiondate": "2013.3726",
    "eventcode": 194,
    "quadclass": 4,
    "nummentions": 5,
    "numsources": 1,
    "numarticles": 5,
    "avgtone": "0.651465798045603",
    "sourceurl": "http://www.breakingnews.ie/world/us-troops-among-kabul-blast-victims-594623.html",
    "feature_id": "531871",
    "feature_name": "Washington",
    "state_alpha": "DC",
    "county_name": "District of Columbia",
    "county_numeric": "001",
    "prim_lat_dec": "38.8951118",
    "prim_long_dec": "-77.0363658",
    "elev_in_m": "7",
    "elev_in_ft": "23",
    "lat": 38.8951118,
    "long": -77.0363658
  },
  {
    "globaleventid": 254971045,
    "sqldate": 20130516,
    "monthyear": 201305,
    "year": 2013,
    "fractiondate": "2013.3726",
    "eventcode": 190,
    "quadclass": 4,
    "nummentions": 18,
    "numsources": 1,
    "numarticles": 18,
    "avgtone": "1.16279069767442",
    "sourceurl": "http://www.independent.co.uk/news/world/asia/two-american-soldiers-among-15-killed-in-kabul-suicide-bomb-attack-on-afghan-nato-convoy-8618168.html",
    "feature_id": "531871",
    "feature_name": "Washington",
    "state_alpha": "DC",
    "county_name": "District of Columbia",
    "county_numeric": "001",
    "prim_lat_dec": "38.8951118",
    "prim_long_dec": "-77.0363658",
    "elev_in_m": "7",
    "elev_in_ft": "23",
    "lat": 38.8951118,
    "long": -77.0363658
  },
  {
    "globaleventid": 254971031,
    "sqldate": 20130516,
    "monthyear": 201305,
    "year": 2013,
    "fractiondate": "2013.3726",
    "eventcode": 1831,
    "quadclass": 4,
    "nummentions": 8,
    "numsources": 1,
    "numarticles": 8,
    "avgtone": "1.27388535031847",
    "sourceurl": "http://www.foxnews.com/world/2013/05/16/at-least-6-dead-after-car-bomb-hits-nato-convoy-in-afghanistan/",
    "feature_id": "531871",
    "feature_name": "Washington",
    "state_alpha": "DC",
    "county_name": "District of Columbia",
    "county_numeric": "001",
    "prim_lat_dec": "38.8951118",
    "prim_long_dec": "-77.0363658",
    "elev_in_m": "7",
    "elev_in_ft": "23",
    "lat": 38.8951118,
    "long": -77.0363658
  },
  {
    "globaleventid": 254971022,
    "sqldate": 20130516,
    "monthyear": 201305,
    "year": 2013,
    "fractiondate": "2013.3726",
    "eventcode": 183,
    "quadclass": 4,
    "nummentions": 7,
    "numsources": 1,
    "numarticles": 7,
    "avgtone": "1.11982082866741",
    "sourceurl": "http://www.3news.co.nz/Bomb-kills-6-Americans-in-Afghanistan/tabid/417/articleID/298101/Default.aspx?utm_source=feedburner&utm_medium=feed&utm_campaign=Feed%3A+co%2FHCaY+%283News-+Latest+News%29",
    "feature_id": "531871",
    "feature_name": "Washington",
    "state_alpha": "DC",
    "county_name": "District of Columbia",
    "county_numeric": "001",
    "prim_lat_dec": "38.8951118",
    "prim_long_dec": "-77.0363658",
    "elev_in_m": "7",
    "elev_in_ft": "23",
    "lat": 38.8951118,
    "long": -77.0363658
  },
  {
    "globaleventid": 254971020,
    "sqldate": 20130516,
    "monthyear": 201305,
    "year": 2013,
    "fractiondate": "2013.3726",
    "eventcode": 183,
    "quadclass": 4,
    "nummentions": 1,
    "numsources": 1,
    "numarticles": 1,
    "avgtone": "1.45903479236813",
    "sourceurl": "http://www.wcpo.com/dpp/news/world/suicide-car-bomb-kills-15-including-6-americans-in-afghanistan",
    "feature_id": "1495526",
    "feature_name": "Falls Church",
    "state_alpha": "VA",
    "county_name": "Falls Church (city)",
    "county_numeric": "610",
    "prim_lat_dec": "38.882334",
    "prim_long_dec": "-77.1710914",
    "elev_in_m": "100",
    "elev_in_ft": "328",
    "lat": 38.882334,
    "long": -77.1710914
  },
  {
    "globaleventid": 254970969,
    "sqldate": 20130516,
    "monthyear": 201305,
    "year": 2013,
    "fractiondate": "2013.3726",
    "eventcode": 190,
    "quadclass": 4,
    "nummentions": 8,
    "numsources": 1,
    "numarticles": 8,
    "avgtone": "0.0",
    "sourceurl": "http://www.philippinetimes.com/index.php/sid/214548383/scat/2411cd3571b4f088",
    "feature_id": "1066654",
    "feature_name": "Cleveland",
    "state_alpha": "OH",
    "county_name": "Cuyahoga",
    "county_numeric": "035",
    "prim_lat_dec": "41.4994954",
    "prim_long_dec": "-81.6954088",
    "elev_in_m": "199",
    "elev_in_ft": "653",
    "lat": 41.4994954,
    "long": -81.6954088
  },
  {
    "globaleventid": 254970901,
    "sqldate": 20130516,
    "monthyear": 201305,
    "year": 2013,
    "fractiondate": "2013.3726",
    "eventcode": 194,
    "quadclass": 4,
    "nummentions": 25,
    "numsources": 3,
    "numarticles": 25,
    "avgtone": "1.03928569805276",
    "sourceurl": "http://www.independent.co.uk/news/world/asia/two-killed-in-kabul-suicide-car-bomb-attack-on-nato-convoy-8618168.html",
    "feature_id": "531871",
    "feature_name": "Washington",
    "state_alpha": "DC",
    "county_name": "District of Columbia",
    "county_numeric": "001",
    "prim_lat_dec": "38.8951118",
    "prim_long_dec": "-77.0363658",
    "elev_in_m": "7",
    "elev_in_ft": "23",
    "lat": 38.8951118,
    "long": -77.0363658
  },
  {
    "globaleventid": 254970894,
    "sqldate": 20130516,
    "monthyear": 201305,
    "year": 2013,
    "fractiondate": "2013.3726",
    "eventcode": 190,
    "quadclass": 4,
    "nummentions": 16,
    "numsources": 2,
    "numarticles": 16,
    "avgtone": "1.22014570011503",
    "sourceurl": "http://www.airforcetimes.com/article/20130516/NEWS/305160002",
    "feature_id": "531871",
    "feature_name": "Washington",
    "state_alpha": "DC",
    "county_name": "District of Columbia",
    "county_numeric": "001",
    "prim_lat_dec": "38.8951118",
    "prim_long_dec": "-77.0363658",
    "elev_in_m": "7",
    "elev_in_ft": "23",
    "lat": 38.8951118,
    "long": -77.0363658
  },
  {
    "globaleventid": 254970884,
    "sqldate": 20130516,
    "monthyear": 201305,
    "year": 2013,
    "fractiondate": "2013.3726",
    "eventcode": 1832,
    "quadclass": 4,
    "nummentions": 21,
    "numsources": 2,
    "numarticles": 21,
    "avgtone": "1.25876101195205",
    "sourceurl": "http://www.usatoday.com/story/news/world/2013/05/16/afghanistan-kabul-car-bomb/2165261/?utm_source=feedburner&utm_medium=feed&utm_campaign=Feed%3A+UsatodaycomWorld-TopStories+%28News+-+World+-+Top+Stories%29",
    "feature_id": "531871",
    "feature_name": "Washington",
    "state_alpha": "DC",
    "county_name": "District of Columbia",
    "county_numeric": "001",
    "prim_lat_dec": "38.8951118",
    "prim_long_dec": "-77.0363658",
    "elev_in_m": "7",
    "elev_in_ft": "23",
    "lat": 38.8951118,
    "long": -77.0363658
  },
  {
    "globaleventid": 254970845,
    "sqldate": 20130516,
    "monthyear": 201305,
    "year": 2013,
    "fractiondate": "2013.3726",
    "eventcode": 195,
    "quadclass": 4,
    "nummentions": 6,
    "numsources": 1,
    "numarticles": 6,
    "avgtone": "3.53200883002207",
    "sourceurl": "http://www.metroweekly.com/poliglot/2013/05/san-francisco-pride-and-the-lgbt-divide-over-bradl.html",
    "feature_id": "277593",
    "feature_name": "San Francisco",
    "state_alpha": "CA",
    "county_name": "San Francisco",
    "county_numeric": "075",
    "prim_lat_dec": "37.775",
    "prim_long_dec": "-122.4194444",
    "elev_in_m": "16",
    "elev_in_ft": "52",
    "lat": 37.775,
    "long": -122.4194444
  },
  {
    "globaleventid": 254970844,
    "sqldate": 20130516,
    "monthyear": 201305,
    "year": 2013,
    "fractiondate": "2013.3726",
    "eventcode": 190,
    "quadclass": 4,
    "nummentions": 10,
    "numsources": 1,
    "numarticles": 10,
    "avgtone": "1.33333333333333",
    "sourceurl": "http://www.breakingnews.ie/world/nato-deaths-in-kabul-suicide-blast-594601.html",
    "feature_id": "531871",
    "feature_name": "Washington",
    "state_alpha": "DC",
    "county_name": "District of Columbia",
    "county_numeric": "001",
    "prim_lat_dec": "38.8951118",
    "prim_long_dec": "-77.0363658",
    "elev_in_m": "7",
    "elev_in_ft": "23",
    "lat": 38.8951118,
    "long": -77.0363658
  },
  {
    "globaleventid": 254970841,
    "sqldate": 20130516,
    "monthyear": 201305,
    "year": 2013,
    "fractiondate": "2013.3726",
    "eventcode": 1831,
    "quadclass": 4,
    "nummentions": 7,
    "numsources": 3,
    "numarticles": 7,
    "avgtone": "1.27521394687583",
    "sourceurl": "http://www.news24.com/World/News/Kabul-suicide-car-bomb-kills-12-20130516",
    "feature_id": "531871",
    "feature_name": "Washington",
    "state_alpha": "DC",
    "county_name": "District of Columbia",
    "county_numeric": "001",
    "prim_lat_dec": "38.8951118",
    "prim_long_dec": "-77.0363658",
    "elev_in_m": "7",
    "elev_in_ft": "23",
    "lat": 38.8951118,
    "long": -77.0363658
  },
  {
    "globaleventid": 256269070,
    "sqldate": 20130516,
    "monthyear": 201305,
    "year": 2013,
    "fractiondate": "2013.3726",
    "eventcode": 180,
    "quadclass": 4,
    "nummentions": 4,
    "numsources": 1,
    "numarticles": 4,
    "avgtone": "1.22699386503067",
    "sourceurl": "http://www.alamogordonews.com/opinion/ci_23470175/ag-gary-kings-bogus-story-about-animal-cruelty",
    "feature_id": "903054",
    "feature_name": "Alamogordo",
    "state_alpha": "NM",
    "county_name": "Otero",
    "county_numeric": "035",
    "prim_lat_dec": "32.8995325",
    "prim_long_dec": "-105.960265",
    "elev_in_m": "1323",
    "elev_in_ft": "4340",
    "lat": 32.8995325,
    "long": -105.960265
  },
  {
    "globaleventid": 256269067,
    "sqldate": 20130516,
    "monthyear": 201305,
    "year": 2013,
    "fractiondate": "2013.3726",
    "eventcode": 115,
    "quadclass": 3,
    "nummentions": 1,
    "numsources": 1,
    "numarticles": 1,
    "avgtone": "2.08333333333333",
    "sourceurl": "http://www.kvoa.com/news/pinal-county-sheriff-s-office-aide-sues-county/",
    "feature_id": "44784",
    "feature_name": "Phoenix",
    "state_alpha": "AZ",
    "county_name": "Maricopa",
    "county_numeric": "013",
    "prim_lat_dec": "33.4483771",
    "prim_long_dec": "-112.0740373",
    "elev_in_m": "331",
    "elev_in_ft": "1086",
    "lat": 33.4483771,
    "long": -112.0740373
  },
  {
    "globaleventid": 256268666,
    "sqldate": 20130516,
    "monthyear": 201305,
    "year": 2013,
    "fractiondate": "2013.3726",
    "eventcode": 190,
    "quadclass": 4,
    "nummentions": 4,
    "numsources": 1,
    "numarticles": 2,
    "avgtone": "2.53841015364061",
    "sourceurl": "http://www.news-journalonline.com/article/20130615/NEWS/306159990/1040?Title=Family-spends-Father-s-Day-waiting-for-Dad-s-return-from-war",
    "feature_id": "295049",
    "feature_name": "Palm Coast",
    "state_alpha": "FL",
    "county_name": "Flagler",
    "county_numeric": "035",
    "prim_lat_dec": "29.5849736",
    "prim_long_dec": "-81.2078411",
    "elev_in_m": "3",
    "elev_in_ft": "10",
    "lat": 29.5849736,
    "long": -81.2078411
  },
  {
    "globaleventid": 297506701,
    "sqldate": 20130516,
    "monthyear": 201305,
    "year": 2013,
    "fractiondate": "2013.3726",
    "eventcode": 190,
    "quadclass": 4,
    "nummentions": 1,
    "numsources": 1,
    "numarticles": 1,
    "avgtone": "0.923482849604222",
    "sourceurl": "http://www.squamishchief.com/new-york-man-who-cut-off-ankle-monitor-before-raping-girl-killing-mother-sentenced-to-life-1.1064191",
    "feature_id": "966966",
    "feature_name": "Syracuse",
    "state_alpha": "NY",
    "county_name": "Onondaga",
    "county_numeric": "067",
    "prim_lat_dec": "43.0481221",
    "prim_long_dec": "-76.1474244",
    "elev_in_m": "121",
    "elev_in_ft": "397",
    "lat": 43.0481221,
    "long": -76.1474244
  },
  {
    "globaleventid": 297506699,
    "sqldate": 20130516,
    "monthyear": 201305,
    "year": 2013,
    "fractiondate": "2013.3726",
    "eventcode": 190,
    "quadclass": 4,
    "nummentions": 1,
    "numsources": 1,
    "numarticles": 1,
    "avgtone": "0.923482849604222",
    "sourceurl": "http://www.squamishchief.com/new-york-man-who-cut-off-ankle-monitor-before-raping-girl-killing-mother-sentenced-to-life-1.1064191",
    "feature_id": "966966",
    "feature_name": "Syracuse",
    "state_alpha": "NY",
    "county_name": "Onondaga",
    "county_numeric": "067",
    "prim_lat_dec": "43.0481221",
    "prim_long_dec": "-76.1474244",
    "elev_in_m": "121",
    "elev_in_ft": "397",
    "lat": 43.0481221,
    "long": -76.1474244
  },
  {
    "globaleventid": 297506696,
    "sqldate": 20130516,
    "monthyear": 201305,
    "year": 2013,
    "fractiondate": "2013.3726",
    "eventcode": 173,
    "quadclass": 4,
    "nummentions": 1,
    "numsources": 1,
    "numarticles": 1,
    "avgtone": "1.0752688172043",
    "sourceurl": "http://cnsnews.com/news/article/ny-man-who-raped-girl-killed-mom-gets-life-term",
    "feature_id": "966966",
    "feature_name": "Syracuse",
    "state_alpha": "NY",
    "county_name": "Onondaga",
    "county_numeric": "067",
    "prim_lat_dec": "43.0481221",
    "prim_long_dec": "-76.1474244",
    "elev_in_m": "121",
    "elev_in_ft": "397",
    "lat": 43.0481221,
    "long": -76.1474244
  },
  {
    "globaleventid": 297506694,
    "sqldate": 20130516,
    "monthyear": 201305,
    "year": 2013,
    "fractiondate": "2013.3726",
    "eventcode": 173,
    "quadclass": 4,
    "nummentions": 5,
    "numsources": 2,
    "numarticles": 5,
    "avgtone": "1.04491162368428",
    "sourceurl": "http://www.squamishchief.com/new-york-man-who-cut-off-ankle-monitor-before-raping-girl-killing-mother-sentenced-to-life-1.1064191",
    "feature_id": "966966",
    "feature_name": "Syracuse",
    "state_alpha": "NY",
    "county_name": "Onondaga",
    "county_numeric": "067",
    "prim_lat_dec": "43.0481221",
    "prim_long_dec": "-76.1474244",
    "elev_in_m": "121",
    "elev_in_ft": "397",
    "lat": 43.0481221,
    "long": -76.1474244
  },
  {
    "globaleventid": 297506683,
    "sqldate": 20130516,
    "monthyear": 201305,
    "year": 2013,
    "fractiondate": "2013.3726",
    "eventcode": 112,
    "quadclass": 3,
    "nummentions": 4,
    "numsources": 1,
    "numarticles": 4,
    "avgtone": "2.15658696671355",
    "sourceurl": "http://www.washingtonpost.com/blogs/post-politics/wp/2014/05/16/read-in-friday-may-16-2014-no-earmarks-in-wrrda-ernst-leads-iowa-field-crossroads-lands-in-alaska-white-house-has-commitment-from-boehner-and-bidens-book-royalties/",
    "feature_id": "1136645",
    "feature_name": "Portland",
    "state_alpha": "OR",
    "county_name": "Multnomah",
    "county_numeric": "051",
    "prim_lat_dec": "45.5234515",
    "prim_long_dec": "-122.6762071",
    "elev_in_m": "10",
    "elev_in_ft": "33",
    "lat": 45.5234515,
    "long": -122.6762071
  },
  {
    "globaleventid": 297506679,
    "sqldate": 20130516,
    "monthyear": 201305,
    "year": 2013,
    "fractiondate": "2013.3726",
    "eventcode": 112,
    "quadclass": 3,
    "nummentions": 4,
    "numsources": 1,
    "numarticles": 4,
    "avgtone": "2.15658696671355",
    "sourceurl": "http://www.washingtonpost.com/blogs/post-politics/wp/2014/05/16/read-in-friday-may-16-2014-no-earmarks-in-wrrda-ernst-leads-iowa-field-crossroads-lands-in-alaska-white-house-has-commitment-from-boehner-and-bidens-book-royalties/",
    "feature_id": "1136645",
    "feature_name": "Portland",
    "state_alpha": "OR",
    "county_name": "Multnomah",
    "county_numeric": "051",
    "prim_lat_dec": "45.5234515",
    "prim_long_dec": "-122.6762071",
    "elev_in_m": "10",
    "elev_in_ft": "33",
    "lat": 45.5234515,
    "long": -122.6762071
  },
  {
    "globaleventid": 297506673,
    "sqldate": 20130516,
    "monthyear": 201305,
    "year": 2013,
    "fractiondate": "2013.3726",
    "eventcode": 190,
    "quadclass": 4,
    "nummentions": 2,
    "numsources": 1,
    "numarticles": 2,
    "avgtone": "5.44061302681992",
    "sourceurl": "http://www.telegram.com/article/20140516/NEWS/305169343/1116",
    "feature_id": "617867",
    "feature_name": "Worcester",
    "state_alpha": "MA",
    "county_name": "Worcester",
    "county_numeric": "027",
    "prim_lat_dec": "42.2625932",
    "prim_long_dec": "-71.8022934",
    "elev_in_m": "146",
    "elev_in_ft": "479",
    "lat": 42.2625932,
    "long": -71.8022934
  },
  {
    "globaleventid": 297506662,
    "sqldate": 20130516,
    "monthyear": 201305,
    "year": 2013,
    "fractiondate": "2013.3726",
    "eventcode": 120,
    "quadclass": 3,
    "nummentions": 8,
    "numsources": 1,
    "numarticles": 8,
    "avgtone": "4.01002506265664",
    "sourceurl": "http://www.ocregister.com/articles/immigration-614444-house-reform.html",
    "feature_id": "531871",
    "feature_name": "Washington",
    "state_alpha": "DC",
    "county_name": "District of Columbia",
    "county_numeric": "001",
    "prim_lat_dec": "38.8951118",
    "prim_long_dec": "-77.0363658",
    "elev_in_m": "7",
    "elev_in_ft": "23",
    "lat": 38.8951118,
    "long": -77.0363658
  },
  {
    "globaleventid": 297506648,
    "sqldate": 20130516,
    "monthyear": 201305,
    "year": 2013,
    "fractiondate": "2013.3726",
    "eventcode": 110,
    "quadclass": 3,
    "nummentions": 6,
    "numsources": 1,
    "numarticles": 6,
    "avgtone": "2.85714285714286",
    "sourceurl": "http://juneauempire.com/outdoors/2014-05-16/gold-fever-ails-alaska-borders",
    "feature_id": "1423039",
    "feature_name": "Ketchikan",
    "state_alpha": "AK",
    "county_name": "Ketchikan Gateway",
    "county_numeric": "130",
    "prim_lat_dec": "55.3422222",
    "prim_long_dec": "-131.6461111",
    "elev_in_m": "6",
    "elev_in_ft": "20",
    "lat": 55.3422222,
    "long": -131.6461111
  },
  {
    "globaleventid": 297506637,
    "sqldate": 20130516,
    "monthyear": 201305,
    "year": 2013,
    "fractiondate": "2013.3726",
    "eventcode": 112,
    "quadclass": 3,
    "nummentions": 4,
    "numsources": 1,
    "numarticles": 4,
    "avgtone": "2.15658696671355",
    "sourceurl": "http://www.washingtonpost.com/blogs/post-politics/wp/2014/05/16/read-in-friday-may-16-2014-no-earmarks-in-wrrda-ernst-leads-iowa-field-crossroads-lands-in-alaska-white-house-has-commitment-from-boehner-and-bidens-book-royalties/",
    "feature_id": "1136645",
    "feature_name": "Portland",
    "state_alpha": "OR",
    "county_name": "Multnomah",
    "county_numeric": "051",
    "prim_lat_dec": "45.5234515",
    "prim_long_dec": "-122.6762071",
    "elev_in_m": "10",
    "elev_in_ft": "33",
    "lat": 45.5234515,
    "long": -122.6762071
  },
  {
    "globaleventid": 297506627,
    "sqldate": 20130516,
    "monthyear": 201305,
    "year": 2013,
    "fractiondate": "2013.3726",
    "eventcode": 173,
    "quadclass": 4,
    "nummentions": 2,
    "numsources": 1,
    "numarticles": 2,
    "avgtone": "0.260416666666667",
    "sourceurl": "http://www.latimes.com/local/lanow/la-me-ln-redondo-beach-killing-suspect-utah-20140515-story.html",
    "feature_id": "243197",
    "feature_name": "Harbor City",
    "state_alpha": "CA",
    "county_name": "Los Angeles",
    "county_numeric": "037",
    "prim_lat_dec": "33.7900173",
    "prim_long_dec": "-118.2978496",
    "elev_in_m": "15",
    "elev_in_ft": "49",
    "lat": 33.7900173,
    "long": -118.2978496
  },
  {
    "globaleventid": 297506622,
    "sqldate": 20130516,
    "monthyear": 201305,
    "year": 2013,
    "fractiondate": "2013.3726",
    "eventcode": 190,
    "quadclass": 4,
    "nummentions": 21,
    "numsources": 1,
    "numarticles": 21,
    "avgtone": "2.4390243902439",
    "sourceurl": "http://www.defensenews.com/article/20140516/DEFREG02/305190008",
    "feature_id": "531871",
    "feature_name": "Washington",
    "state_alpha": "DC",
    "county_name": "District of Columbia",
    "county_numeric": "001",
    "prim_lat_dec": "38.8951118",
    "prim_long_dec": "-77.0363658",
    "elev_in_m": "7",
    "elev_in_ft": "23",
    "lat": 38.8951118,
    "long": -77.0363658
  },
  {
    "globaleventid": 297506614,
    "sqldate": 20130516,
    "monthyear": 201305,
    "year": 2013,
    "fractiondate": "2013.3726",
    "eventcode": 110,
    "quadclass": 3,
    "nummentions": 2,
    "numsources": 1,
    "numarticles": 2,
    "avgtone": "2.85714285714286",
    "sourceurl": "http://juneauempire.com/outdoors/2014-05-16/gold-fever-ails-alaska-borders",
    "feature_id": "1423039",
    "feature_name": "Ketchikan",
    "state_alpha": "AK",
    "county_name": "Ketchikan Gateway",
    "county_numeric": "130",
    "prim_lat_dec": "55.3422222",
    "prim_long_dec": "-131.6461111",
    "elev_in_m": "6",
    "elev_in_ft": "20",
    "lat": 55.3422222,
    "long": -131.6461111
  },
  {
    "globaleventid": 297506606,
    "sqldate": 20130516,
    "monthyear": 201305,
    "year": 2013,
    "fractiondate": "2013.3726",
    "eventcode": 112,
    "quadclass": 3,
    "nummentions": 4,
    "numsources": 1,
    "numarticles": 4,
    "avgtone": "2.15658696671355",
    "sourceurl": "http://www.washingtonpost.com/blogs/post-politics/wp/2014/05/16/read-in-friday-may-16-2014-no-earmarks-in-wrrda-ernst-leads-iowa-field-crossroads-lands-in-alaska-white-house-has-commitment-from-boehner-and-bidens-book-royalties/",
    "feature_id": "1136645",
    "feature_name": "Portland",
    "state_alpha": "OR",
    "county_name": "Multnomah",
    "county_numeric": "051",
    "prim_lat_dec": "45.5234515",
    "prim_long_dec": "-122.6762071",
    "elev_in_m": "10",
    "elev_in_ft": "33",
    "lat": 45.5234515,
    "long": -122.6762071
  },
  {
    "globaleventid": 297506577,
    "sqldate": 20130516,
    "monthyear": 201305,
    "year": 2013,
    "fractiondate": "2013.3726",
    "eventcode": 173,
    "quadclass": 4,
    "nummentions": 30,
    "numsources": 3,
    "numarticles": 30,
    "avgtone": "1.51515151515152",
    "sourceurl": "http://www.twincities.com/news/ci_25776956/data-dhs-freed-thousands-convicted-immigrants",
    "feature_id": "531871",
    "feature_name": "Washington",
    "state_alpha": "DC",
    "county_name": "District of Columbia",
    "county_numeric": "001",
    "prim_lat_dec": "38.8951118",
    "prim_long_dec": "-77.0363658",
    "elev_in_m": "7",
    "elev_in_ft": "23",
    "lat": 38.8951118,
    "long": -77.0363658
  },
  {
    "globaleventid": 297506574,
    "sqldate": 20130516,
    "monthyear": 201305,
    "year": 2013,
    "fractiondate": "2013.3726",
    "eventcode": 173,
    "quadclass": 4,
    "nummentions": 6,
    "numsources": 2,
    "numarticles": 6,
    "avgtone": "1.74103711741037",
    "sourceurl": "http://www.islandpacket.com/2014/05/16/3114147/data-dhs-freed-thousands-of-convicted.html",
    "feature_id": "531871",
    "feature_name": "Washington",
    "state_alpha": "DC",
    "county_name": "District of Columbia",
    "county_numeric": "001",
    "prim_lat_dec": "38.8951118",
    "prim_long_dec": "-77.0363658",
    "elev_in_m": "7",
    "elev_in_ft": "23",
    "lat": 38.8951118,
    "long": -77.0363658
  },