[
  {
    "globaleventid": 298640935,
    "sqldate": 20130525,
    "monthyear": 201305,
    "year": 2013,
    "fractiondate": "2013.3973",
    "eventcode": 190,
    "quadclass": 4,
    "nummentions": 6,
    "numsources": 1,
    "numarticles": 6,
    "avgtone": "3.88513513513514",
    "sourceurl": "http://www.utsandiego.com/news/2014/may/25/san-diego-dronenburg-assessor-lgbt-election/",
    "feature_id": "1661377",
    "feature_name": "San Diego",
    "state_alpha": "CA",
    "county_name": "San Diego",
    "county_numeric": "073",
    "prim_lat_dec": "32.7153292",
    "prim_long_dec": "-117.1572551",
    "elev_in_m": "19",
    "elev_in_ft": "62",
    "lat": 32.7153292,
    "long": -117.1572551
  },
  {
    "globaleventid": 298640934,
    "sqldate": 20130525,
    "monthyear": 201305,
    "year": 2013,
    "fractiondate": "2013.3973",
    "eventcode": 172,
    "quadclass": 4,
    "nummentions": 10,
    "numsources": 1,
    "numarticles": 10,
    "avgtone": "3.88513513513514",
    "sourceurl": "http://www.utsandiego.com/news/2014/may/25/san-diego-dronenburg-assessor-lgbt-election/",
    "feature_id": "1652708",
    "feature_name": "Fallbrook",
    "state_alpha": "CA",
    "county_name": "San Diego",
    "county_numeric": "073",
    "prim_lat_dec": "33.3764196",
    "prim_long_dec": "-117.2511466",
    "elev_in_m": "208",
    "elev_in_ft": "682",
    "lat": 33.3764196,
    "long": -117.2511466
  },
  {
    "globaleventid": 298640926,
    "sqldate": 20130525,
    "monthyear": 201305,
    "year": 2013,
    "fractiondate": "2013.3973",
    "eventcode": 190,
    "quadclass": 4,
    "nummentions": 2,
    "numsources": 1,
    "numarticles": 2,
    "avgtone": "4.09266409266409",
    "sourceurl": "http://www.yourhoustonnews.com/magnolia/news/band-of-brothers-brandon-smitherman-s-company-reunites-with-him/article_d0be81b9-77b3-546b-8706-78b16ac098c8.html",
    "feature_id": "1380948",
    "feature_name": "Houston",
    "state_alpha": "TX",
    "county_name": "Harris",
    "county_numeric": "201",
    "prim_lat_dec": "29.7632836",
    "prim_long_dec": "-95.3632715",
    "elev_in_m": "11",
    "elev_in_ft": "36",
    "lat": 29.7632836,
    "long": -95.3632715
  },
  {
    "globaleventid": 298640925,
    "sqldate": 20130525,
    "monthyear": 201305,
    "year": 2013,
    "fractiondate": "2013.3973",
    "eventcode": 190,
    "quadclass": 4,
    "nummentions": 2,
    "numsources": 1,
    "numarticles": 2,
    "avgtone": "4.09266409266409",
    "sourceurl": "http://www.yourhoustonnews.com/magnolia/news/band-of-brothers-brandon-smitherman-s-company-reunites-with-him/article_d0be81b9-77b3-546b-8706-78b16ac098c8.html",
    "feature_id": "1380948",
    "feature_name": "Houston",
    "state_alpha": "TX",
    "county_name": "Harris",
    "county_numeric": "201",
    "prim_lat_dec": "29.7632836",
    "prim_long_dec": "-95.3632715",
    "elev_in_m": "11",
    "elev_in_ft": "36",
    "lat": 29.7632836,
    "long": -95.3632715
  },
  {
    "globaleventid": 298640906,
    "sqldate": 20130525,
    "monthyear": 201305,
    "year": 2013,
    "fractiondate": "2013.3973",
    "eventcode": 190,
    "quadclass": 4,
    "nummentions": 8,
    "numsources": 1,
    "numarticles": 8,
    "avgtone": "2.40384615384615",
    "sourceurl": "http://www.sltrib.com/sltrib/opinion/57981100-82/gun-district-judge-balance.html.csp",
    "feature_id": "529313",
    "feature_name": "Capitol Hill",
    "state_alpha": "DC",
    "county_name": "District of Columbia",
    "county_numeric": "001",
    "prim_lat_dec": "38.8890009",
    "prim_long_dec": "-77.0002537",
    "elev_in_m": "28",
    "elev_in_ft": "92",
    "lat": 38.8890009,
    "long": -77.0002537
  },
  {
    "globaleventid": 298640892,
    "sqldate": 20130525,
    "monthyear": 201305,
    "year": 2013,
    "fractiondate": "2013.3973",
    "eventcode": 180,
    "quadclass": 4,
    "nummentions": 6,
    "numsources": 2,
    "numarticles": 6,
    "avgtone": "0.0",
    "sourceurl": "http://www.ktbs.com/story/25607526/arkansas-man-withdraws-motion-for-new-trial",
    "feature_id": "731549",
    "feature_name": "Cape Girardeau",
    "state_alpha": "MO",
    "county_name": "Cape Girardeau",
    "county_numeric": "031",
    "prim_lat_dec": "37.3058839",
    "prim_long_dec": "-89.5181476",
    "elev_in_m": "108",
    "elev_in_ft": "354",
    "lat": 37.3058839,
    "long": -89.5181476
  },
  {
    "globaleventid": 298640890,
    "sqldate": 20130525,
    "monthyear": 201305,
    "year": 2013,
    "fractiondate": "2013.3973",
    "eventcode": 180,
    "quadclass": 4,
    "nummentions": 6,
    "numsources": 2,
    "numarticles": 6,
    "avgtone": "0.0",
    "sourceurl": "http://www.ktbs.com/story/25607526/arkansas-man-withdraws-motion-for-new-trial",
    "feature_id": "731549",
    "feature_name": "Cape Girardeau",
    "state_alpha": "MO",
    "county_name": "Cape Girardeau",
    "county_numeric": "031",
    "prim_lat_dec": "37.3058839",
    "prim_long_dec": "-89.5181476",
    "elev_in_m": "108",
    "elev_in_ft": "354",
    "lat": 37.3058839,
    "long": -89.5181476
  },
  {
    "globaleventid": 298640644,
    "sqldate": 20130525,
    "monthyear": 201305,
    "year": 2013,
    "fractiondate": "2013.3973",
    "eventcode": 125,
    "quadclass": 3,
    "nummentions": 5,
    "numsources": 1,
    "numarticles": 5,
    "avgtone": "2.95652173913043",
    "sourceurl": "http://www.pcmag.com/article2/0,2817,2458482,00.asp",
    "feature_id": "531871",
    "feature_name": "Washington",
    "state_alpha": "DC",
    "county_name": "District of Columbia",
    "county_numeric": "001",
    "prim_lat_dec": "38.8951118",
    "prim_long_dec": "-77.0363658",
    "elev_in_m": "7",
    "elev_in_ft": "23",
    "lat": 38.8951118,
    "long": -77.0363658
  },
  {
    "globaleventid": 298640643,
    "sqldate": 20130525,
    "monthyear": 201305,
    "year": 2013,
    "fractiondate": "2013.3973",
    "eventcode": 120,
    "quadclass": 3,
    "nummentions": 1,
    "numsources": 1,
    "numarticles": 1,
    "avgtone": "2.95652173913043",
    "sourceurl": "http://www.pcmag.com/article2/0,2817,2458482,00.asp",
    "feature_id": "531871",
    "feature_name": "Washington",
    "state_alpha": "DC",
    "county_name": "District of Columbia",
    "county_numeric": "001",
    "prim_lat_dec": "38.8951118",
    "prim_long_dec": "-77.0363658",
    "elev_in_m": "7",
    "elev_in_ft": "23",
    "lat": 38.8951118,
    "long": -77.0363658
  },
  {
    "globaleventid": 298640598,
    "sqldate": 20130525,
    "monthyear": 201305,
    "year": 2013,
    "fractiondate": "2013.3973",
    "eventcode": 100,
    "quadclass": 3,
    "nummentions": 2,
    "numsources": 1,
    "numarticles": 2,
    "avgtone": "2.72904483430799",
    "sourceurl": "http://politicalnews.me/?id=28607&c=Z3TLlq-xk6HMbwetjsZ_0fNKRKT64x8nmZAMKgAnNxs&mkt=en-us",
    "feature_id": "1032490",
    "feature_name": "Tioga",
    "state_alpha": "ND",
    "county_name": "Williams",
    "county_numeric": "105",
    "prim_lat_dec": "48.3972443",
    "prim_long_dec": "-102.938238",
    "elev_in_m": "684",
    "elev_in_ft": "2244",
    "lat": 48.3972443,
    "long": -102.938238
  },
  {
    "globaleventid": 298640537,
    "sqldate": 20130525,
    "monthyear": 201305,
    "year": 2013,
    "fractiondate": "2013.3973",
    "eventcode": 141,
    "quadclass": 3,
    "nummentions": 4,
    "numsources": 1,
    "numarticles": 4,
    "avgtone": "2.4822695035461",
    "sourceurl": "http://www.wtsp.com/story/news/local/2014/05/25/monsanto-brevard-march-gmo/9566619/",
    "feature_id": "286684",
    "feature_name": "Melbourne Beach",
    "state_alpha": "FL",
    "county_name": "Brevard",
    "county_numeric": "009",
    "prim_lat_dec": "28.0683496",
    "prim_long_dec": "-80.5603303",
    "elev_in_m": "3",
    "elev_in_ft": "10",
    "lat": 28.0683496,
    "long": -80.5603303
  },
  {
    "globaleventid": 298640435,
    "sqldate": 20130525,
    "monthyear": 201305,
    "year": 2013,
    "fractiondate": "2013.3973",
    "eventcode": 145,
    "quadclass": 3,
    "nummentions": 2,
    "numsources": 1,
    "numarticles": 2,
    "avgtone": "6.44257703081232",
    "sourceurl": "http://www.scmp.com/news/world/article/1519443/turkish-drama-winter-sleep-wins-palme-dor-top-prize-cannes",
    "feature_id": "1660757",
    "feature_name": "Hollywood",
    "state_alpha": "CA",
    "county_name": "Los Angeles",
    "county_numeric": "037",
    "prim_lat_dec": "34.0983425",
    "prim_long_dec": "-118.3267434",
    "elev_in_m": "108",
    "elev_in_ft": "354",
    "lat": 34.0983425,
    "long": -118.3267434
  },
  {
    "globaleventid": 298640414,
    "sqldate": 20130525,
    "monthyear": 201305,
    "year": 2013,
    "fractiondate": "2013.3973",
    "eventcode": 141,
    "quadclass": 3,
    "nummentions": 2,
    "numsources": 1,
    "numarticles": 2,
    "avgtone": "6.77506775067751",
    "sourceurl": "http://www.english.rfi.fr/culture/20140525-turkeys-ceylan-takes-cannes-palme-dor-anti-erdogan-dedication",
    "feature_id": "1660757",
    "feature_name": "Hollywood",
    "state_alpha": "CA",
    "county_name": "Los Angeles",
    "county_numeric": "037",
    "prim_lat_dec": "34.0983425",
    "prim_long_dec": "-118.3267434",
    "elev_in_m": "108",
    "elev_in_ft": "354",
    "lat": 34.0983425,
    "long": -118.3267434
  },
  {
    "globaleventid": 298640321,
    "sqldate": 20130525,
    "monthyear": 201305,
    "year": 2013,
    "fractiondate": "2013.3973",
    "eventcode": 120,
    "quadclass": 3,
    "nummentions": 10,
    "numsources": 1,
    "numarticles": 10,
    "avgtone": "1.6564952048823",
    "sourceurl": "http://www.tribstar.com/local/x1396863662/MIKE-LUNSFORD-Work-ethic-travels-over-the-years-with-bus-driver",
    "feature_id": "444648",
    "feature_name": "Terre Haute",
    "state_alpha": "IN",
    "county_name": "Vigo",
    "county_numeric": "167",
    "prim_lat_dec": "39.4667034",
    "prim_long_dec": "-87.4139092",
    "elev_in_m": "152",
    "elev_in_ft": "499",
    "lat": 39.4667034,
    "long": -87.4139092
  },
  {
    "globaleventid": 257273347,
    "sqldate": 20130525,
    "monthyear": 201305,
    "year": 2013,
    "fractiondate": "2013.3973",
    "eventcode": 190,
    "quadclass": 4,
    "nummentions": 2,
    "numsources": 1,
    "numarticles": 2,
    "avgtone": "2.68817204301075",
    "sourceurl": "http://www.myfoxhouston.com/story/22666557/2013/06/24/fallen-texas-firefighters-remembered-at-annual-conference",
    "feature_id": "1380948",
    "feature_name": "Houston",
    "state_alpha": "TX",
    "county_name": "Harris",
    "county_numeric": "201",
    "prim_lat_dec": "29.7632836",
    "prim_long_dec": "-95.3632715",
    "elev_in_m": "11",
    "elev_in_ft": "36",
    "lat": 29.7632836,
    "long": -95.3632715
  },
  {
    "globaleventid": 257273314,
    "sqldate": 20130525,
    "monthyear": 201305,
    "year": 2013,
    "fractiondate": "2013.3973",
    "eventcode": 190,
    "quadclass": 4,
    "nummentions": 2,
    "numsources": 1,
    "numarticles": 2,
    "avgtone": "2.68817204301075",
    "sourceurl": "http://www.myfoxhouston.com/story/22666557/2013/06/24/fallen-texas-firefighters-remembered-at-annual-conference",
    "feature_id": "1380948",
    "feature_name": "Houston",
    "state_alpha": "TX",
    "county_name": "Harris",
    "county_numeric": "201",
    "prim_lat_dec": "29.7632836",
    "prim_long_dec": "-95.3632715",
    "elev_in_m": "11",
    "elev_in_ft": "36",
    "lat": 29.7632836,
    "long": -95.3632715
  },
  {
    "globaleventid": 257273301,
    "sqldate": 20130525,
    "monthyear": 201305,
    "year": 2013,
    "fractiondate": "2013.3973",
    "eventcode": 190,
    "quadclass": 4,
    "nummentions": 4,
    "numsources": 2,
    "numarticles": 4,
    "avgtone": "1.64849282446576",
    "sourceurl": "http://siouxcityjournal.com/news/state-and-regional/south-dakota/manchester-s-d-recalls-tornado-of/article_f89b0ef6-b587-5532-8246-598804ee51c7.html",
    "feature_id": "1092512",
    "feature_name": "El Reno",
    "state_alpha": "OK",
    "county_name": "Canadian",
    "county_numeric": "017",
    "prim_lat_dec": "35.5322741",
    "prim_long_dec": "-97.9550494",
    "elev_in_m": "414",
    "elev_in_ft": "1358",
    "lat": 35.5322741,
    "long": -97.9550494
  },
  {
    "globaleventid": 257273300,
    "sqldate": 20130525,
    "monthyear": 201305,
    "year": 2013,
    "fractiondate": "2013.3973",
    "eventcode": 190,
    "quadclass": 4,
    "nummentions": 8,
    "numsources": 2,
    "numarticles": 8,
    "avgtone": "1.64849282446576",
    "sourceurl": "http://siouxcityjournal.com/news/state-and-regional/south-dakota/manchester-s-d-recalls-tornado-of/article_f89b0ef6-b587-5532-8246-598804ee51c7.html",
    "feature_id": "1092512",
    "feature_name": "El Reno",
    "state_alpha": "OK",
    "county_name": "Canadian",
    "county_numeric": "017",
    "prim_lat_dec": "35.5322741",
    "prim_long_dec": "-97.9550494",
    "elev_in_m": "414",
    "elev_in_ft": "1358",
    "lat": 35.5322741,
    "long": -97.9550494
  },
  {
    "globaleventid": 257273269,
    "sqldate": 20130525,
    "monthyear": 201305,
    "year": 2013,
    "fractiondate": "2013.3973",
    "eventcode": 173,
    "quadclass": 4,
    "nummentions": 8,
    "numsources": 1,
    "numarticles": 8,
    "avgtone": "1.41342756183746",
    "sourceurl": "http://www.kfdi.com/news/local/212778411.html",
    "feature_id": "473862",
    "feature_name": "Wichita",
    "state_alpha": "KS",
    "county_name": "Sedgwick",
    "county_numeric": "173",
    "prim_lat_dec": "37.6922361",
    "prim_long_dec": "-97.3375448",
    "elev_in_m": "397",
    "elev_in_ft": "1302",
    "lat": 37.6922361,
    "long": -97.3375448
  },
  {
    "globaleventid": 257273268,
    "sqldate": 20130525,
    "monthyear": 201305,
    "year": 2013,
    "fractiondate": "2013.3973",
    "eventcode": 173,
    "quadclass": 4,
    "nummentions": 2,
    "numsources": 1,
    "numarticles": 2,
    "avgtone": "1.41342756183746",
    "sourceurl": "http://www.kfdi.com/news/local/212778411.html",
    "feature_id": "473862",
    "feature_name": "Wichita",
    "state_alpha": "KS",
    "county_name": "Sedgwick",
    "county_numeric": "173",
    "prim_lat_dec": "37.6922361",
    "prim_long_dec": "-97.3375448",
    "elev_in_m": "397",
    "elev_in_ft": "1302",
    "lat": 37.6922361,
    "long": -97.3375448
  },
  {
    "globaleventid": 257272909,
    "sqldate": 20130525,
    "monthyear": 201305,
    "year": 2013,
    "fractiondate": "2013.3973",
    "eventcode": 130,
    "quadclass": 3,
    "nummentions": 4,
    "numsources": 1,
    "numarticles": 4,
    "avgtone": "4.41025641025641",
    "sourceurl": "http://www.ohio.com/news/a-guide-to-scams-how-to-protect-yourself-1.408243",
    "feature_id": "1064305",
    "feature_name": "Akron",
    "state_alpha": "OH",
    "county_name": "Summit",
    "county_numeric": "153",
    "prim_lat_dec": "41.0814447",
    "prim_long_dec": "-81.5190053",
    "elev_in_m": "293",
    "elev_in_ft": "961",
    "lat": 41.0814447,
    "long": -81.5190053
  },
  {
    "globaleventid": 255304402,
    "sqldate": 20130525,
    "monthyear": 201305,
    "year": 2013,
    "fractiondate": "2013.3973",
    "eventcode": 100,
    "quadclass": 3,
    "nummentions": 2,
    "numsources": 1,
    "numarticles": 2,
    "avgtone": "1.30662020905923",
    "sourceurl": "http://www.bloomberg.com/news/2013-05-26/army-probes-base-commander-amid-sexual-misconduct-report.html",
    "feature_id": "531871",
    "feature_name": "Washington",
    "state_alpha": "DC",
    "county_name": "District of Columbia",
    "county_numeric": "001",
    "prim_lat_dec": "38.8951118",
    "prim_long_dec": "-77.0363658",
    "elev_in_m": "7",
    "elev_in_ft": "23",
    "lat": 38.8951118,
    "long": -77.0363658
  },
  {
    "globaleventid": 255303089,
    "sqldate": 20130525,
    "monthyear": 201305,
    "year": 2013,
    "fractiondate": "2013.3973",
    "eventcode": 110,
    "quadclass": 3,
    "nummentions": 6,
    "numsources": 1,
    "numarticles": 6,
    "avgtone": "1.72711571675302",
    "sourceurl": "http://www.guardian.co.uk/commentisfree/2013/may/25/boston-marathon-bombing-muslim-reflection",
    "feature_id": "617565",
    "feature_name": "Boston",
    "state_alpha": "MA",
    "county_name": "Suffolk",
    "county_numeric": "025",
    "prim_lat_dec": "42.3584308",
    "prim_long_dec": "-71.0597732",
    "elev_in_m": "14",
    "elev_in_ft": "46",
    "lat": 42.3584308,
    "long": -71.0597732
  },
  {
    "globaleventid": 255303087,
    "sqldate": 20130525,
    "monthyear": 201305,
    "year": 2013,
    "fractiondate": "2013.3973",
    "eventcode": 141,
    "quadclass": 3,
    "nummentions": 6,
    "numsources": 1,
    "numarticles": 6,
    "avgtone": "3.18627450980392",
    "sourceurl": "http://www.washingtonpost.com/politics/marchers-in-over-400-cities-protest-monsanto/2013/05/25/938dd988-c59b-11e2-914f-a7aba60512a7_story.html?wprss=rss_politics",
    "feature_id": "1662328",
    "feature_name": "Los Angeles",
    "state_alpha": "CA",
    "county_name": "Los Angeles",
    "county_numeric": "037",
    "prim_lat_dec": "34.0522342",
    "prim_long_dec": "-118.2436849",
    "elev_in_m": "89",
    "elev_in_ft": "292",
    "lat": 34.0522342,
    "long": -118.2436849
  },
  {
    "globaleventid": 255303074,
    "sqldate": 20130525,
    "monthyear": 201305,
    "year": 2013,
    "fractiondate": "2013.3973",
    "eventcode": 138,
    "quadclass": 3,
    "nummentions": 6,
    "numsources": 1,
    "numarticles": 6,
    "avgtone": "2.49307791802958",
    "sourceurl": "http://www.csmonitor.com/USA/DC-Decoder/2013/0524/Would-a-US-drone-court-to-authorize-drone-strikes-be-a-good-idea-video?utm_source=feedburner&utm_medium=feed&utm_campaign=Feed%3A+feeds%2Fusa+%28Christian+Science+Monitor+%7C+USA%29",
    "feature_id": "531871",
    "feature_name": "Washington",
    "state_alpha": "DC",
    "county_name": "District of Columbia",
    "county_numeric": "001",
    "prim_lat_dec": "38.8951118",
    "prim_long_dec": "-77.0363658",
    "elev_in_m": "7",
    "elev_in_ft": "23",
    "lat": 38.8951118,
    "long": -77.0363658
  },
  {
    "globaleventid": 255302911,
    "sqldate": 20130525,
    "monthyear": 201305,
    "year": 2013,
    "fractiondate": "2013.3973",
    "eventcode": 112,
    "quadclass": 3,
    "nummentions": 1,
    "numsources": 1,
    "numarticles": 1,
    "avgtone": "2.74621212121212",
    "sourceurl": "http://www.golocalprov.com/politics/travis-rowley-sheldon-whitehouse-radical-embarrassment/",
    "feature_id": "44784",
    "feature_name": "Phoenix",
    "state_alpha": "AZ",
    "county_name": "Maricopa",
    "county_numeric": "013",
    "prim_lat_dec": "33.4483771",
    "prim_long_dec": "-112.0740373",
    "elev_in_m": "331",
    "elev_in_ft": "1086",
    "lat": 33.4483771,
    "long": -112.0740373
  },
  {
    "globaleventid": 255302887,
    "sqldate": 20130525,
    "monthyear": 201305,
    "year": 2013,
    "fractiondate": "2013.3973",
    "eventcode": 173,
    "quadclass": 4,
    "nummentions": 1,
    "numsources": 1,
    "numarticles": 1,
    "avgtone": "1.32275132275132",
    "sourceurl": "http://www.startribune.com/local/208912641.html",
    "feature_id": "423587",
    "feature_name": "Chicago",
    "state_alpha": "IL",
    "county_name": "Cook",
    "county_numeric": "031",
    "prim_lat_dec": "41.850033",
    "prim_long_dec": "-87.6500523",
    "elev_in_m": "179",
    "elev_in_ft": "587",
    "lat": 41.850033,
    "long": -87.6500523
  },
  {
    "globaleventid": 255302886,
    "sqldate": 20130525,
    "monthyear": 201305,
    "year": 2013,
    "fractiondate": "2013.3973",
    "eventcode": 173,
    "quadclass": 4,
    "nummentions": 2,
    "numsources": 1,
    "numarticles": 2,
    "avgtone": "1.44092219020173",
    "sourceurl": "http://www.detroitnews.com/article/20130524/SPORTS0101/305240392/1361/Charges-pile-up-for-ex-Lion-Titus-Young",
    "feature_id": "1661104",
    "feature_name": "Newport Beach",
    "state_alpha": "CA",
    "county_name": "Orange",
    "county_numeric": "059",
    "prim_lat_dec": "33.6189101",
    "prim_long_dec": "-117.9289469",
    "elev_in_m": "3",
    "elev_in_ft": "10",
    "lat": 33.6189101,
    "long": -117.9289469
  },
  {
    "globaleventid": 255302885,
    "sqldate": 20130525,
    "monthyear": 201305,
    "year": 2013,
    "fractiondate": "2013.3973",
    "eventcode": 173,
    "quadclass": 4,
    "nummentions": 4,
    "numsources": 1,
    "numarticles": 4,
    "avgtone": "1.28205128205128",
    "sourceurl": "http://www.ksl.com/?sid=25315946&nid=148&s_cid=rss-extlink",
    "feature_id": "1454997",
    "feature_name": "Salt Lake City",
    "state_alpha": "UT",
    "county_name": "Salt Lake",
    "county_numeric": "035",
    "prim_lat_dec": "40.7607794",
    "prim_long_dec": "-111.8910474",
    "elev_in_m": "1300",
    "elev_in_ft": "4265",
    "lat": 40.7607794,
    "long": -111.8910474
  },
  {
    "globaleventid": 255302870,
    "sqldate": 20130525,
    "monthyear": 201305,
    "year": 2013,
    "fractiondate": "2013.3973",
    "eventcode": 114,
    "quadclass": 3,
    "nummentions": 10,
    "numsources": 1,
    "numarticles": 10,
    "avgtone": "1.28205128205128",
    "sourceurl": "http://www.ksl.com/?sid=25315946&nid=148&s_cid=rss-extlink",
    "feature_id": "1454997",
    "feature_name": "Salt Lake City",
    "state_alpha": "UT",
    "county_name": "Salt Lake",
    "county_numeric": "035",
    "prim_lat_dec": "40.7607794",
    "prim_long_dec": "-111.8910474",
    "elev_in_m": "1300",
    "elev_in_ft": "4265",
    "lat": 40.7607794,
    "long": -111.8910474
  },
  {
    "globaleventid": 255302869,
    "sqldate": 20130525,
    "monthyear": 201305,
    "year": 2013,
    "fractiondate": "2013.3973",
    "eventcode": 112,
    "quadclass": 3,
    "nummentions": 6,
    "numsources": 1,
    "numarticles": 6,
    "avgtone": "1.28205128205128",
    "sourceurl": "http://www.ksl.com/?sid=25315946&nid=148&s_cid=rss-extlink",
    "feature_id": "1454997",
    "feature_name": "Salt Lake City",
    "state_alpha": "UT",
    "county_name": "Salt Lake",
    "county_numeric": "035",
    "prim_lat_dec": "40.7607794",
    "prim_long_dec": "-111.8910474",
    "elev_in_m": "1300",
    "elev_in_ft": "4265",
    "lat": 40.7607794,
    "long": -111.8910474
  },
  {
    "globaleventid": 255302850,
    "sqldate": 20130525,
    "monthyear": 201305,
    "year": 2013,
    "fractiondate": "2013.3973",
    "eventcode": 100,
    "quadclass": 3,
    "nummentions": 8,
    "numsources": 1,
    "numarticles": 8,
    "avgtone": "2.29621125143513",
    "sourceurl": "http://www.nypost.com/p/news/local/hagel_tells_military_point_cadets_VQHU7DWJ4oXxSlpZVckyxH?utm_medium=rss&utm_content=Local",
    "feature_id": "970844",
    "feature_name": "West Point",
    "state_alpha": "NY",
    "county_name": "Orange",
    "county_numeric": "071",
    "prim_lat_dec": "41.3914827",
    "prim_long_dec": "-73.9559721",
    "elev_in_m": "48",
    "elev_in_ft": "157",
    "lat": 41.3914827,
    "long": -73.9559721
  },
  {
    "globaleventid": 255302849,
    "sqldate": 20130525,
    "monthyear": 201305,
    "year": 2013,
    "fractiondate": "2013.3973",
    "eventcode": 100,
    "quadclass": 3,
    "nummentions": 2,
    "numsources": 1,
    "numarticles": 2,
    "avgtone": "1.79310344827586",
    "sourceurl": "http://www.startribune.com/nation/208934541.html",
    "feature_id": "531871",
    "feature_name": "Washington",
    "state_alpha": "DC",
    "county_name": "District of Columbia",
    "county_numeric": "001",
    "prim_lat_dec": "38.8951118",
    "prim_long_dec": "-77.0363658",
    "elev_in_m": "7",
    "elev_in_ft": "23",
    "lat": 38.8951118,
    "long": -77.0363658
  },
  {
    "globaleventid": 255302848,
    "sqldate": 20130525,
    "monthyear": 201305,
    "year": 2013,
    "fractiondate": "2013.3973",
    "eventcode": 180,
    "quadclass": 4,
    "nummentions": 11,
    "numsources": 5,
    "numarticles": 11,
    "avgtone": "1.70381542941079",
    "sourceurl": "http://www.upi.com/Top_News/US/2013/05/25/Hagel-New-generation-of-officers-must-end-military-sex-assaults/UPI-44481369513777/",
    "feature_id": "970844",
    "feature_name": "West Point",
    "state_alpha": "NY",
    "county_name": "Orange",
    "county_numeric": "071",
    "prim_lat_dec": "41.3914827",
    "prim_long_dec": "-73.9559721",
    "elev_in_m": "48",
    "elev_in_ft": "157",
    "lat": 41.3914827,
    "long": -73.9559721
  },
  {
    "globaleventid": 255302847,
    "sqldate": 20130525,
    "monthyear": 201305,
    "year": 2013,
    "fractiondate": "2013.3973",
    "eventcode": 180,
    "quadclass": 4,
    "nummentions": 18,
    "numsources": 2,
    "numarticles": 18,
    "avgtone": "1.82959982264431",
    "sourceurl": "http://www.voanews.com/content/us-defense-chief-urges-end-to-military-sexual-assault-scourge/1668354.html",
    "feature_id": "970844",
    "feature_name": "West Point",
    "state_alpha": "NY",
    "county_name": "Orange",
    "county_numeric": "071",
    "prim_lat_dec": "41.3914827",
    "prim_long_dec": "-73.9559721",
    "elev_in_m": "48",
    "elev_in_ft": "157",
    "lat": 41.3914827,
    "long": -73.9559721
  },
  {
    "globaleventid": 255302840,
    "sqldate": 20130525,
    "monthyear": 201305,
    "year": 2013,
    "fractiondate": "2013.3973",
    "eventcode": 100,
    "quadclass": 3,
    "nummentions": 2,
    "numsources": 1,
    "numarticles": 2,
    "avgtone": "2.29621125143513",
    "sourceurl": "http://www.nypost.com/p/news/local/hagel_tells_military_point_cadets_VQHU7DWJ4oXxSlpZVckyxH?utm_medium=rss&utm_content=Local",
    "feature_id": "970844",
    "feature_name": "West Point",
    "state_alpha": "NY",
    "county_name": "Orange",
    "county_numeric": "071",
    "prim_lat_dec": "41.3914827",
    "prim_long_dec": "-73.9559721",
    "elev_in_m": "48",
    "elev_in_ft": "157",
    "lat": 41.3914827,
    "long": -73.9559721
  },
  {
    "globaleventid": 255302831,
    "sqldate": 20130525,
    "monthyear": 201305,
    "year": 2013,
    "fractiondate": "2013.3973",
    "eventcode": 190,
    "quadclass": 4,
    "nummentions": 20,
    "numsources": 1,
    "numarticles": 20,
    "avgtone": "2.71966527196653",
    "sourceurl": "http://www.politico.com/story/2013/05/chuck-hagel-west-point-speech-sex-assault-91889.html",
    "feature_id": "970844",
    "feature_name": "West Point",
    "state_alpha": "NY",
    "county_name": "Orange",
    "county_numeric": "071",
    "prim_lat_dec": "41.3914827",
    "prim_long_dec": "-73.9559721",
    "elev_in_m": "48",
    "elev_in_ft": "157",
    "lat": 41.3914827,
    "long": -73.9559721
  },
  {
    "globaleventid": 255302828,
    "sqldate": 20130525,
    "monthyear": 201305,
    "year": 2013,
    "fractiondate": "2013.3973",
    "eventcode": 180,
    "quadclass": 4,
    "nummentions": 22,
    "numsources": 2,
    "numarticles": 22,
    "avgtone": "2.68116945191822",
    "sourceurl": "http://www.nypost.com/p/news/local/hagel_tells_military_point_cadets_VQHU7DWJ4oXxSlpZVckyxH?utm_medium=rss&utm_content=Local",
    "feature_id": "970844",
    "feature_name": "West Point",
    "state_alpha": "NY",
    "county_name": "Orange",
    "county_numeric": "071",
    "prim_lat_dec": "41.3914827",
    "prim_long_dec": "-73.9559721",
    "elev_in_m": "48",
    "elev_in_ft": "157",
    "lat": 41.3914827,
    "long": -73.9559721
  },
  {
    "globaleventid": 255302804,
    "sqldate": 20130525,
    "monthyear": 201305,
    "year": 2013,
    "fractiondate": "2013.3973",
    "eventcode": 110,
    "quadclass": 3,
    "nummentions": 2,
    "numsources": 1,
    "numarticles": 2,
    "avgtone": "3.4965034965035",
    "sourceurl": "http://www.latimes.com/news/nationworld/nation/la-na-obama-transparency-20130526,0,947466.story?track=rss&utm_source=feedburner&utm_medium=feed&utm_campaign=Feed%3A+latimes%2Fnews%2Fnationworld%2Fnation+%28L.A.+Times+-+National+News%29",
    "feature_id": "531871",
    "feature_name": "Washington",
    "state_alpha": "DC",
    "county_name": "District of Columbia",
    "county_numeric": "001",
    "prim_lat_dec": "38.8951118",
    "prim_long_dec": "-77.0363658",
    "elev_in_m": "7",
    "elev_in_ft": "23",
    "lat": 38.8951118,
    "long": -77.0363658
  },
  {
    "globaleventid": 255302801,
    "sqldate": 20130525,
    "monthyear": 201305,
    "year": 2013,
    "fractiondate": "2013.3973",
    "eventcode": 190,
    "quadclass": 4,
    "nummentions": 16,
    "numsources": 1,
    "numarticles": 16,
    "avgtone": "2.71966527196653",
    "sourceurl": "http://www.politico.com/story/2013/05/chuck-hagel-west-point-speech-sex-assault-91889.html",
    "feature_id": "970844",
    "feature_name": "West Point",
    "state_alpha": "NY",
    "county_name": "Orange",
    "county_numeric": "071",
    "prim_lat_dec": "41.3914827",
    "prim_long_dec": "-73.9559721",
    "elev_in_m": "48",
    "elev_in_ft": "157",
    "lat": 41.3914827,
    "long": -73.9559721
  },
  {
    "globaleventid": 255302800,
    "sqldate": 20130525,
    "monthyear": 201305,
    "year": 2013,
    "fractiondate": "2013.3973",
    "eventcode": 190,
    "quadclass": 4,
    "nummentions": 30,
    "numsources": 1,
    "numarticles": 30,
    "avgtone": "1.86721991701245",
    "sourceurl": "http://www.foxnews.com/politics/2013/05/25/obama-tries-again-to-nominate-top-lawyer-on-embattled-labor-relations-board/?utm_source=feedburner&utm_medium=feed&utm_campaign=Feed%3A+foxnews%2Fmost-popular+%28Internal+-+Most+Popular+Content%29",
    "feature_id": "531871",
    "feature_name": "Washington",
    "state_alpha": "DC",
    "county_name": "District of Columbia",
    "county_numeric": "001",
    "prim_lat_dec": "38.8951118",
    "prim_long_dec": "-77.0363658",
    "elev_in_m": "7",
    "elev_in_ft": "23",
    "lat": 38.8951118,
    "long": -77.0363658
  },
  {
    "globaleventid": 255302797,
    "sqldate": 20130525,
    "monthyear": 201305,
    "year": 2013,
    "fractiondate": "2013.3973",
    "eventcode": 180,
    "quadclass": 4,
    "nummentions": 16,
    "numsources": 1,
    "numarticles": 16,
    "avgtone": "2.71966527196653",
    "sourceurl": "http://www.politico.com/story/2013/05/chuck-hagel-west-point-speech-sex-assault-91889.html",
    "feature_id": "970844",
    "feature_name": "West Point",
    "state_alpha": "NY",
    "county_name": "Orange",
    "county_numeric": "071",
    "prim_lat_dec": "41.3914827",
    "prim_long_dec": "-73.9559721",
    "elev_in_m": "48",
    "elev_in_ft": "157",
    "lat": 41.3914827,
    "long": -73.9559721
  },
  {
    "globaleventid": 255302788,
    "sqldate": 20130525,
    "monthyear": 201305,
    "year": 2013,
    "fractiondate": "2013.3973",
    "eventcode": 120,
    "quadclass": 3,
    "nummentions": 92,
    "numsources": 6,
    "numarticles": 92,
    "avgtone": "1.34948058164558",
    "sourceurl": "http://www.seattlepi.com/news/politics/article/Obama-refocuses-terror-threat-to-pre-9-11-level-4548371.php",
    "feature_id": "531871",
    "feature_name": "Washington",
    "state_alpha": "DC",
    "county_name": "District of Columbia",
    "county_numeric": "001",
    "prim_lat_dec": "38.8951118",
    "prim_long_dec": "-77.0363658",
    "elev_in_m": "7",
    "elev_in_ft": "23",
    "lat": 38.8951118,
    "long": -77.0363658
  },
  {
    "globaleventid": 255302734,
    "sqldate": 20130525,
    "monthyear": 201305,
    "year": 2013,
    "fractiondate": "2013.3973",
    "eventcode": 138,
    "quadclass": 3,
    "nummentions": 2,
    "numsources": 1,
    "numarticles": 2,
    "avgtone": "1.20805369127517",
    "sourceurl": "http://www.csmonitor.com/USA/DC-Decoder/2013/0524/Has-Obama-tightened-US-drone-strike-policy-or-not?utm_source=feedburner&utm_medium=feed&utm_campaign=Feed%3A+feeds%2Fusa+%28Christian+Science+Monitor+%7C+USA%29",
    "feature_id": "531871",
    "feature_name": "Washington",
    "state_alpha": "DC",
    "county_name": "District of Columbia",
    "county_numeric": "001",
    "prim_lat_dec": "38.8951118",
    "prim_long_dec": "-77.0363658",
    "elev_in_m": "7",
    "elev_in_ft": "23",
    "lat": 38.8951118,
    "long": -77.0363658
  },
  {
    "globaleventid": 255302714,
    "sqldate": 20130525,
    "monthyear": 201305,
    "year": 2013,
    "fractiondate": "2013.3973",
    "eventcode": 130,
    "quadclass": 3,
    "nummentions": 4,
    "numsources": 1,
    "numarticles": 4,
    "avgtone": "3.3096926713948",
    "sourceurl": "http://www.nypost.com/p/news/local/split_personality_aQwklgdFq8zppEhPp9CbJI?utm_medium=rss&utm_content=Local",
    "feature_id": "531871",
    "feature_name": "Washington",
    "state_alpha": "DC",
    "county_name": "District of Columbia",
    "county_numeric": "001",
    "prim_lat_dec": "38.8951118",
    "prim_long_dec": "-77.0363658",
    "elev_in_m": "7",
    "elev_in_ft": "23",
    "lat": 38.8951118,
    "long": -77.0363658
  },
  {
    "globaleventid": 255302699,
    "sqldate": 20130525,
    "monthyear": 201305,
    "year": 2013,
    "fractiondate": "2013.3973",
    "eventcode": 161,
    "quadclass": 4,
    "nummentions": 6,
    "numsources": 1,
    "numarticles": 6,
    "avgtone": "2.15789473684211",
    "sourceurl": "http://www.yalibnan.com/2013/05/25/assads-not-so-secret-weapon-syrian-businessmen/",
    "feature_id": "531871",
    "feature_name": "Washington",
    "state_alpha": "DC",
    "county_name": "District of Columbia",
    "county_numeric": "001",
    "prim_lat_dec": "38.8951118",
    "prim_long_dec": "-77.0363658",
    "elev_in_m": "7",
    "elev_in_ft": "23",
    "lat": 38.8951118,
    "long": -77.0363658
  },
  {
    "globaleventid": 255302676,
    "sqldate": 20130525,
    "monthyear": 201305,
    "year": 2013,
    "fractiondate": "2013.3973",
    "eventcode": 180,
    "quadclass": 4,
    "nummentions": 10,
    "numsources": 2,
    "numarticles": 10,
    "avgtone": "2.49406876689368",
    "sourceurl": "http://www.chinapost.com.tw/international/americas/2013/05/26/379539/Obama-urges.htm",
    "feature_id": "531871",
    "feature_name": "Washington",
    "state_alpha": "DC",
    "county_name": "District of Columbia",
    "county_numeric": "001",
    "prim_lat_dec": "38.8951118",
    "prim_long_dec": "-77.0363658",
    "elev_in_m": "7",
    "elev_in_ft": "23",
    "lat": 38.8951118,
    "long": -77.0363658
  },
  {
    "globaleventid": 255302675,
    "sqldate": 20130525,
    "monthyear": 201305,
    "year": 2013,
    "fractiondate": "2013.3973",
    "eventcode": 180,
    "quadclass": 4,
    "nummentions": 50,
    "numsources": 2,
    "numarticles": 50,
    "avgtone": "1.75317589872848",
    "sourceurl": "http://www.csmonitor.com/USA/Military/2013/0525/Obama-Hagel-tell-young-officers-You-must-lead-in-ridding-US-military-of-sexual-assault-video?utm_source=feedburner&utm_medium=feed&utm_campaign=Feed%3A+feeds%2Fusa+%28Christian+Science+Monitor+%7C+USA%29",
    "feature_id": "1371189",
    "feature_name": "West Point",
    "state_alpha": "TX",
    "county_name": "Fayette",
    "county_numeric": "149",
    "prim_lat_dec": "29.9438347",
    "prim_long_dec": "-97.0369289",
    "elev_in_m": "104",
    "elev_in_ft": "341",
    "lat": 29.9438347,
    "long": -97.0369289
  },
  {
    "globaleventid": 255302659,
    "sqldate": 20130525,
    "monthyear": 201305,
    "year": 2013,
    "fractiondate": "2013.3973",
    "eventcode": 110,
    "quadclass": 3,
    "nummentions": 2,
    "numsources": 1,
    "numarticles": 2,
    "avgtone": "3.14861460957179",
    "sourceurl": "http://lubbockonline.com/local-news/2013-05-24/lubbock-city-council-appoints-oil-and-gas-citizen-advisory-committee",
    "feature_id": "1374760",
    "feature_name": "Lubbock",
    "state_alpha": "TX",
    "county_name": "Lubbock",
    "county_numeric": "303",
    "prim_lat_dec": "33.5778631",
    "prim_long_dec": "-101.8551665",
    "elev_in_m": "976",
    "elev_in_ft": "3202",
    "lat": 33.5778631,
    "long": -101.8551665
  },
  {
    "globaleventid": 255302653,
    "sqldate": 20130525,
    "monthyear": 201305,
    "year": 2013,
    "fractiondate": "2013.3973",
    "eventcode": 100,
    "quadclass": 3,
    "nummentions": 3,
    "numsources": 1,
    "numarticles": 3,
    "avgtone": "1.34175217048145",
    "sourceurl": "http://www.seattlepi.com/news/politics/article/Furlough-Friday-Unpaid-day-off-for-many-in-gov-t-4546976.php",
    "feature_id": "531871",
    "feature_name": "Washington",
    "state_alpha": "DC",
    "county_name": "District of Columbia",
    "county_numeric": "001",
    "prim_lat_dec": "38.8951118",
    "prim_long_dec": "-77.0363658",
    "elev_in_m": "7",
    "elev_in_ft": "23",
    "lat": 38.8951118,
    "long": -77.0363658
  },
  {
    "globaleventid": 255302626,
    "sqldate": 20130525,
    "monthyear": 201305,
    "year": 2013,
    "fractiondate": "2013.3973",
    "eventcode": 110,
    "quadclass": 3,
    "nummentions": 10,
    "numsources": 1,
    "numarticles": 10,
    "avgtone": "2.64550264550265",
    "sourceurl": "http://www.menafn.com/menafn/1093638486/Obama-resets-war-on-terror?src=RSS",
    "feature_id": "531871",
    "feature_name": "Washington",
    "state_alpha": "DC",
    "county_name": "District of Columbia",
    "county_numeric": "001",
    "prim_lat_dec": "38.8951118",
    "prim_long_dec": "-77.0363658",
    "elev_in_m": "7",
    "elev_in_ft": "23",
    "lat": 38.8951118,
    "long": -77.0363658
  },
  {
    "globaleventid": 255302442,
    "sqldate": 20130525,
    "monthyear": 201305,
    "year": 2013,
    "fractiondate": "2013.3973",
    "eventcode": 173,
    "quadclass": 4,
    "nummentions": 8,
    "numsources": 1,
    "numarticles": 8,
    "avgtone": "0.421940928270042",
    "sourceurl": "http://www.sun-sentinel.com/news/broward/fort-lauderdale/fl-beaten-cab-driver-arrests-20130525,0,2860357.story",
    "feature_id": "282693",
    "feature_name": "Fort Lauderdale",
    "state_alpha": "FL",
    "county_name": "Broward",
    "county_numeric": "011",
    "prim_lat_dec": "26.1223084",
    "prim_long_dec": "-80.1433786",
    "elev_in_m": "1",
    "elev_in_ft": "3",
    "lat": 26.1223084,
    "long": -80.1433786
  },
  {
    "globaleventid": 255302441,
    "sqldate": 20130525,
    "monthyear": 201305,
    "year": 2013,
    "fractiondate": "2013.3973",
    "eventcode": 173,
    "quadclass": 4,
    "nummentions": 2,
    "numsources": 1,
    "numarticles": 2,
    "avgtone": "1.74927113702624",
    "sourceurl": "http://www.mercurynews.com/breaking-news/ci_23317682/hayward-man-indicted-theft-gold-rush-era-jewelry",
    "feature_id": "1659598",
    "feature_name": "Santa Rita",
    "state_alpha": "CA",
    "county_name": "Monterey",
    "county_numeric": "053",
    "prim_lat_dec": "36.7238477",
    "prim_long_dec": "-121.6560572",
    "elev_in_m": "24",
    "elev_in_ft": "79",
    "lat": 36.7238477,
    "long": -121.6560572
  },
  {
    "globaleventid": 255302423,
    "sqldate": 20130525,
    "monthyear": 201305,
    "year": 2013,
    "fractiondate": "2013.3973",
    "eventcode": 112,
    "quadclass": 3,
    "nummentions": 4,
    "numsources": 1,
    "numarticles": 4,
    "avgtone": "1.28205128205128",
    "sourceurl": "http://www.ksl.com/?sid=25315946&nid=148&s_cid=rss-extlink",
    "feature_id": "1454997",
    "feature_name": "Salt Lake City",
    "state_alpha": "UT",
    "county_name": "Salt Lake",
    "county_numeric": "035",
    "prim_lat_dec": "40.7607794",
    "prim_long_dec": "-111.8910474",
    "elev_in_m": "1300",
    "elev_in_ft": "4265",
    "lat": 40.7607794,
    "long": -111.8910474
  },
  {
    "globaleventid": 255302410,
    "sqldate": 20130525,
    "monthyear": 201305,
    "year": 2013,
    "fractiondate": "2013.3973",
    "eventcode": 120,
    "quadclass": 3,
    "nummentions": 2,
    "numsources": 1,
    "numarticles": 2,
    "avgtone": "1.92307692307692",
    "sourceurl": "http://bdnews24.com/world/2013/05/25/in-syria-s-shadow-iraq-violence-is-the-new-test-for-us",
    "feature_id": "531871",
    "feature_name": "Washington",
    "state_alpha": "DC",
    "county_name": "District of Columbia",
    "county_numeric": "001",
    "prim_lat_dec": "38.8951118",
    "prim_long_dec": "-77.0363658",
    "elev_in_m": "7",
    "elev_in_ft": "23",
    "lat": 38.8951118,
    "long": -77.0363658
  },
  {
    "globaleventid": 255302398,
    "sqldate": 20130525,
    "monthyear": 201305,
    "year": 2013,
    "fractiondate": "2013.3973",
    "eventcode": 194,
    "quadclass": 4,
    "nummentions": 4,
    "numsources": 1,
    "numarticles": 4,
    "avgtone": "3.44234079173838",
    "sourceurl": "http://www.prnewswire.com/news-releases/atk-technologies-support-launch-of-ulas-delta-iv-rocket-carrying-wgs-5-208912421.html",
    "feature_id": "671750",
    "feature_name": "Iuka",
    "state_alpha": "MS",
    "county_name": "Tishomingo",
    "county_numeric": "141",
    "prim_lat_dec": "34.8117565",
    "prim_long_dec": "-88.1900415",
    "elev_in_m": "171",
    "elev_in_ft": "561",
    "lat": 34.8117565,
    "long": -88.1900415
  },
  {
    "globaleventid": 255302390,
    "sqldate": 20130525,
    "monthyear": 201305,
    "year": 2013,
    "fractiondate": "2013.3973",
    "eventcode": 100,
    "quadclass": 3,
    "nummentions": 28,
    "numsources": 3,
    "numarticles": 28,
    "avgtone": "1.927327765106",
    "sourceurl": "http://www.npr.org/templates/story/story.php?storyId=186586021&ft=1&f=",
    "feature_id": "531871",
    "feature_name": "Washington",
    "state_alpha": "DC",
    "county_name": "District of Columbia",
    "county_numeric": "001",
    "prim_lat_dec": "38.8951118",
    "prim_long_dec": "-77.0363658",
    "elev_in_m": "7",
    "elev_in_ft": "23",
    "lat": 38.8951118,
    "long": -77.0363658
  },
  {
    "globaleventid": 255302388,
    "sqldate": 20130525,
    "monthyear": 201305,
    "year": 2013,
    "fractiondate": "2013.3973",
    "eventcode": 100,
    "quadclass": 3,
    "nummentions": 2,
    "numsources": 1,
    "numarticles": 2,
    "avgtone": "2.29885057471264",
    "sourceurl": "http://www.npr.org/templates/story/story.php?storyId=186586021&ft=1&f=",
    "feature_id": "531871",
    "feature_name": "Washington",
    "state_alpha": "DC",
    "county_name": "District of Columbia",
    "county_numeric": "001",
    "prim_lat_dec": "38.8951118",
    "prim_long_dec": "-77.0363658",
    "elev_in_m": "7",
    "elev_in_ft": "23",
    "lat": 38.8951118,
    "long": -77.0363658
  },
  {
    "globaleventid": 255302328,
    "sqldate": 20130525,
    "monthyear": 201305,
    "year": 2013,
    "fractiondate": "2013.3973",
    "eventcode": 130,
    "quadclass": 3,
    "nummentions": 12,
    "numsources": 1,
    "numarticles": 12,
    "avgtone": "1.43884892086331",
    "sourceurl": "http://www.foxnews.com/politics/2013/05/25/top-gop-lawmakers-say-obama-is-icing-out-immigration-union-in-border-talks/?utm_source=feedburner&utm_medium=feed&utm_campaign=Feed%3A+foxnews%2Fmost-popular+%28Internal+-+Most+Popular+Content%29",
    "feature_id": "531871",
    "feature_name": "Washington",
    "state_alpha": "DC",
    "county_name": "District of Columbia",
    "county_numeric": "001",
    "prim_lat_dec": "38.8951118",
    "prim_long_dec": "-77.0363658",
    "elev_in_m": "7",
    "elev_in_ft": "23",
    "lat": 38.8951118,
    "long": -77.0363658
  },
  {
    "globaleventid": 255302322,
    "sqldate": 20130525,
    "monthyear": 201305,
    "year": 2013,
    "fractiondate": "2013.3973",
    "eventcode": 190,
    "quadclass": 4,
    "nummentions": 7,
    "numsources": 1,
    "numarticles": 7,
    "avgtone": "2.63770364623739",
    "sourceurl": "http://www.theglobeandmail.com/arts/books-and-media/book-reviews/annalee-newitzs-outlook-on-extinction-is-positively-optimistic/article12156322/?cmpid=rss1",
    "feature_id": "531871",
    "feature_name": "Washington",
    "state_alpha": "DC",
    "county_name": "District of Columbia",
    "county_numeric": "001",
    "prim_lat_dec": "38.8951118",
    "prim_long_dec": "-77.0363658",
    "elev_in_m": "7",
    "elev_in_ft": "23",
    "lat": 38.8951118,
    "long": -77.0363658
  },
  {
    "globaleventid": 255302319,
    "sqldate": 20130525,
    "monthyear": 201305,
    "year": 2013,
    "fractiondate": "2013.3973",
    "eventcode": 112,
    "quadclass": 3,
    "nummentions": 10,
    "numsources": 1,
    "numarticles": 10,
    "avgtone": "2.33147551023344",
    "sourceurl": "http://www.seattlepi.com/news/politics/article/Obama-s-drone-rules-provide-limits-ambiguity-4546990.php",
    "feature_id": "529313",
    "feature_name": "Capitol Hill",
    "state_alpha": "DC",
    "county_name": "District of Columbia",
    "county_numeric": "001",
    "prim_lat_dec": "38.8890009",
    "prim_long_dec": "-77.0002537",
    "elev_in_m": "28",
    "elev_in_ft": "92",
    "lat": 38.8890009,
    "long": -77.0002537
  },
  {
    "globaleventid": 255302272,
    "sqldate": 20130525,
    "monthyear": 201305,
    "year": 2013,
    "fractiondate": "2013.3973",
    "eventcode": 110,
    "quadclass": 3,
    "nummentions": 1,
    "numsources": 1,
    "numarticles": 1,
    "avgtone": "2.88534548215642",
    "sourceurl": "http://www.contracostatimes.com/breaking-news/ci_23320590/eminent-domain-could-be-used-battle-against-foreclosures?source=rss",
    "feature_id": "1659507",
    "feature_name": "Richmond",
    "state_alpha": "CA",
    "county_name": "Contra Costa",
    "county_numeric": "013",
    "prim_lat_dec": "37.9357576",
    "prim_long_dec": "-122.3477486",
    "elev_in_m": "14",
    "elev_in_ft": "46",
    "lat": 37.9357576,
    "long": -122.3477486
  },
  {
    "globaleventid": 255302271,
    "sqldate": 20130525,
    "monthyear": 201305,
    "year": 2013,
    "fractiondate": "2013.3973",
    "eventcode": 110,
    "quadclass": 3,
    "nummentions": 1,
    "numsources": 1,
    "numarticles": 1,
    "avgtone": "2.88534548215642",
    "sourceurl": "http://www.contracostatimes.com/breaking-news/ci_23320590/eminent-domain-could-be-used-battle-against-foreclosures?source=rss",
    "feature_id": "1659507",
    "feature_name": "Richmond",
    "state_alpha": "CA",
    "county_name": "Contra Costa",
    "county_numeric": "013",
    "prim_lat_dec": "37.9357576",
    "prim_long_dec": "-122.3477486",
    "elev_in_m": "14",
    "elev_in_ft": "46",
    "lat": 37.9357576,
    "long": -122.3477486
  },
  {
    "globaleventid": 255302256,
    "sqldate": 20130525,
    "monthyear": 201305,
    "year": 2013,
    "fractiondate": "2013.3973",
    "eventcode": 190,
    "quadclass": 4,
    "nummentions": 4,
    "numsources": 1,
    "numarticles": 4,
    "avgtone": "3.03285593934288",
    "sourceurl": "http://washington.cbslocal.com/2013/05/23/mccain-accuses-tea-party-colleagues-of-pushing-dems-too-far/",
    "feature_id": "531871",
    "feature_name": "Washington",
    "state_alpha": "DC",
    "county_name": "District of Columbia",
    "county_numeric": "001",
    "prim_lat_dec": "38.8951118",
    "prim_long_dec": "-77.0363658",
    "elev_in_m": "7",
    "elev_in_ft": "23",
    "lat": 38.8951118,
    "long": -77.0363658
  },
  {
    "globaleventid": 255302255,
    "sqldate": 20130525,
    "monthyear": 201305,
    "year": 2013,
    "fractiondate": "2013.3973",
    "eventcode": 138,
    "quadclass": 3,
    "nummentions": 4,
    "numsources": 1,
    "numarticles": 4,
    "avgtone": "3.03285593934288",
    "sourceurl": "http://washington.cbslocal.com/2013/05/23/mccain-accuses-tea-party-colleagues-of-pushing-dems-too-far/",
    "feature_id": "531871",
    "feature_name": "Washington",
    "state_alpha": "DC",
    "county_name": "District of Columbia",
    "county_numeric": "001",
    "prim_lat_dec": "38.8951118",
    "prim_long_dec": "-77.0363658",
    "elev_in_m": "7",
    "elev_in_ft": "23",
    "lat": 38.8951118,
    "long": -77.0363658
  },
  {
    "globaleventid": 255302254,
    "sqldate": 20130525,
    "monthyear": 201305,
    "year": 2013,
    "fractiondate": "2013.3973",
    "eventcode": 112,
    "quadclass": 3,
    "nummentions": 6,
    "numsources": 1,
    "numarticles": 6,
    "avgtone": "2.41448692152917",
    "sourceurl": "http://www.channelnewsasia.com/news/world/pentagon-chief-urges-end-to-sex-assault-/687310.html",
    "feature_id": "970844",
    "feature_name": "West Point",
    "state_alpha": "NY",
    "county_name": "Orange",
    "county_numeric": "071",
    "prim_lat_dec": "41.3914827",
    "prim_long_dec": "-73.9559721",
    "elev_in_m": "48",
    "elev_in_ft": "157",
    "lat": 41.3914827,
    "long": -73.9559721
  },
  {
    "globaleventid": 255302230,
    "sqldate": 20130525,
    "monthyear": 201305,
    "year": 2013,
    "fractiondate": "2013.3973",
    "eventcode": 111,
    "quadclass": 3,
    "nummentions": 10,
    "numsources": 1,
    "numarticles": 10,
    "avgtone": "2.18340611353712",
    "sourceurl": "http://www.google.com/hostednews/afp/article/ALeqM5iusKXIO9QIH_JnsGsj6uzCA6oNJQ?docId=CNG.89006ae98198c3d990b3c23bc8bfa6a5.821",
    "feature_id": "531871",
    "feature_name": "Washington",
    "state_alpha": "DC",
    "county_name": "District of Columbia",
    "county_numeric": "001",
    "prim_lat_dec": "38.8951118",
    "prim_long_dec": "-77.0363658",
    "elev_in_m": "7",
    "elev_in_ft": "23",
    "lat": 38.8951118,
    "long": -77.0363658
  },
  {
    "globaleventid": 255302103,
    "sqldate": 20130525,
    "monthyear": 201305,
    "year": 2013,
    "fractiondate": "2013.3973",
    "eventcode": 130,
    "quadclass": 3,
    "nummentions": 4,
    "numsources": 1,
    "numarticles": 4,
    "avgtone": "3.3096926713948",
    "sourceurl": "http://www.nypost.com/p/news/local/split_personality_aQwklgdFq8zppEhPp9CbJI?utm_medium=rss&utm_content=Local",
    "feature_id": "531871",
    "feature_name": "Washington",
    "state_alpha": "DC",
    "county_name": "District of Columbia",
    "county_numeric": "001",
    "prim_lat_dec": "38.8951118",
    "prim_long_dec": "-77.0363658",
    "elev_in_m": "7",
    "elev_in_ft": "23",
    "lat": 38.8951118,
    "long": -77.0363658
  },
  {
    "globaleventid": 255302024,
    "sqldate": 20130525,
    "monthyear": 201305,
    "year": 2013,
    "fractiondate": "2013.3973",
    "eventcode": 112,
    "quadclass": 3,
    "nummentions": 2,
    "numsources": 1,
    "numarticles": 2,
    "avgtone": "0.416666666666667",
    "sourceurl": "http://www.upi.com/Top_News/World-News/2013/05/25/Kerry-Nigeria-must-stop-rights-abuses-in-fight-against-insurgents/UPI-49291369496744/",
    "feature_id": "531871",
    "feature_name": "Washington",
    "state_alpha": "DC",
    "county_name": "District of Columbia",
    "county_numeric": "001",
    "prim_lat_dec": "38.8951118",
    "prim_long_dec": "-77.0363658",
    "elev_in_m": "7",
    "elev_in_ft": "23",
    "lat": 38.8951118,
    "long": -77.0363658
  },
  {
    "globaleventid": 255301986,
    "sqldate": 20130525,
    "monthyear": 201305,
    "year": 2013,
    "fractiondate": "2013.3973",
    "eventcode": 141,
    "quadclass": 3,
    "nummentions": 9,
    "numsources": 3,
    "numarticles": 9,
    "avgtone": "2.21916086984825",
    "sourceurl": "http://www.usatoday.com/story/news/world/2013/05/25/global-protests-monsanto/2361007/",
    "feature_id": "1662328",
    "feature_name": "Los Angeles",
    "state_alpha": "CA",
    "county_name": "Los Angeles",
    "county_numeric": "037",
    "prim_lat_dec": "34.0522342",
    "prim_long_dec": "-118.2436849",
    "elev_in_m": "89",
    "elev_in_ft": "292",
    "lat": 34.0522342,
    "long": -118.2436849
  },
  {
    "globaleventid": 255301985,
    "sqldate": 20130525,
    "monthyear": 201305,
    "year": 2013,
    "fractiondate": "2013.3973",
    "eventcode": 141,
    "quadclass": 3,
    "nummentions": 8,
    "numsources": 1,
    "numarticles": 8,
    "avgtone": "2.28758169934641",
    "sourceurl": "http://www.latimes.com/local/lanow/la-me-ln-monsanto-protest-20130525,0,6534145.story",
    "feature_id": "1660855",
    "feature_name": "La Jolla",
    "state_alpha": "CA",
    "county_name": "San Diego",
    "county_numeric": "073",
    "prim_lat_dec": "32.8472695",
    "prim_long_dec": "-117.274204",
    "elev_in_m": "32",
    "elev_in_ft": "105",
    "lat": 32.8472695,
    "long": -117.274204
  },
  {
    "globaleventid": 255301984,
    "sqldate": 20130525,
    "monthyear": 201305,
    "year": 2013,
    "fractiondate": "2013.3973",
    "eventcode": 141,
    "quadclass": 3,
    "nummentions": 3,
    "numsources": 1,
    "numarticles": 3,
    "avgtone": "2.27027027027027",
    "sourceurl": "http://www.chron.com/news/science/article/Protesters-across-globe-rally-against-Monsanto-4548549.php",
    "feature_id": "1380948",
    "feature_name": "Houston",
    "state_alpha": "TX",
    "county_name": "Harris",
    "county_numeric": "201",
    "prim_lat_dec": "29.7632836",
    "prim_long_dec": "-95.3632715",
    "elev_in_m": "11",
    "elev_in_ft": "36",
    "lat": 29.7632836,
    "long": -95.3632715
  },
  {
    "globaleventid": 255301964,
    "sqldate": 20130525,
    "monthyear": 201305,
    "year": 2013,
    "fractiondate": "2013.3973",
    "eventcode": 154,
    "quadclass": 4,
    "nummentions": 6,
    "numsources": 4,
    "numarticles": 6,
    "avgtone": "1.18126365860818",
    "sourceurl": "http://www.foxnews.com/us/2013/05/25/ohio-doctor-accused-raping-injecting-pregnant-woman-with-heroin/?utm_source=feedburner&utm_medium=feed&utm_campaign=Feed%3A+foxnews%2Fmost-popular+%28Internal+-+Most+Popular+Content%29",
    "feature_id": "184198",
    "feature_name": "Columbus",
    "state_alpha": "CO",
    "county_name": "La Plata",
    "county_numeric": "067",
    "prim_lat_dec": "37.3277806",
    "prim_long_dec": "-107.6300588",
    "elev_in_m": "2220",
    "elev_in_ft": "7283",
    "lat": 37.3277806,
    "long": -107.6300588
  },
  {
    "globaleventid": 255301952,
    "sqldate": 20130525,
    "monthyear": 201305,
    "year": 2013,
    "fractiondate": "2013.3973",
    "eventcode": 180,
    "quadclass": 4,
    "nummentions": 37,
    "numsources": 10,
    "numarticles": 37,
    "avgtone": "1.88256795140712",
    "sourceurl": "http://www.npr.org/templates/story/story.php?storyId=186586021&ft=1&f=",
    "feature_id": "970844",
    "feature_name": "West Point",
    "state_alpha": "NY",
    "county_name": "Orange",
    "county_numeric": "071",
    "prim_lat_dec": "41.3914827",
    "prim_long_dec": "-73.9559721",
    "elev_in_m": "48",
    "elev_in_ft": "157",
    "lat": 41.3914827,
    "long": -73.9559721
  },
  {
    "globaleventid": 255301951,
    "sqldate": 20130525,
    "monthyear": 201305,
    "year": 2013,
    "fractiondate": "2013.3973",
    "eventcode": 180,
    "quadclass": 4,
    "nummentions": 62,
    "numsources": 10,
    "numarticles": 62,
    "avgtone": "1.74869916098229",
    "sourceurl": "http://www.upi.com/Top_News/US/2013/05/25/Hagel-New-generation-of-officers-must-end-military-sex-assaults/UPI-44481369513777/",
    "feature_id": "970844",
    "feature_name": "West Point",
    "state_alpha": "NY",
    "county_name": "Orange",
    "county_numeric": "071",
    "prim_lat_dec": "41.3914827",
    "prim_long_dec": "-73.9559721",
    "elev_in_m": "48",
    "elev_in_ft": "157",
    "lat": 41.3914827,
    "long": -73.9559721
  },
  {
    "globaleventid": 255301950,
    "sqldate": 20130525,
    "monthyear": 201305,
    "year": 2013,
    "fractiondate": "2013.3973",
    "eventcode": 180,
    "quadclass": 4,
    "nummentions": 4,
    "numsources": 1,
    "numarticles": 4,
    "avgtone": "0.0",
    "sourceurl": "http://www.upi.com/Top_News/US/2013/05/25/Hagel-New-generation-of-officers-must-end-military-sex-assaults/UPI-44481369513777/",
    "feature_id": "595031",
    "feature_name": "Annapolis",
    "state_alpha": "MD",
    "county_name": "Anne Arundel",
    "county_numeric": "003",
    "prim_lat_dec": "38.9784453",
    "prim_long_dec": "-76.4921829",
    "elev_in_m": "13",
    "elev_in_ft": "43",
    "lat": 38.9784453,
    "long": -76.4921829
  },
  {
    "globaleventid": 255301949,
    "sqldate": 20130525,
    "monthyear": 201305,
    "year": 2013,
    "fractiondate": "2013.3973",
    "eventcode": 180,
    "quadclass": 4,
    "nummentions": 2,
    "numsources": 1,
    "numarticles": 2,
    "avgtone": "1.86567164179104",
    "sourceurl": "http://www.washingtonpost.com/national/defense-secretary-chuck-hagel-to-address-west-point-grads-amid-sexual-misconduct-incidents/2013/05/25/1379b958-c53f-11e2-9642-a56177f1cdf7_story.html",
    "feature_id": "970844",
    "feature_name": "West Point",
    "state_alpha": "NY",
    "county_name": "Orange",
    "county_numeric": "071",
    "prim_lat_dec": "41.3914827",
    "prim_long_dec": "-73.9559721",
    "elev_in_m": "48",
    "elev_in_ft": "157",
    "lat": 41.3914827,
    "long": -73.9559721
  },
  {
    "globaleventid": 255301948,
    "sqldate": 20130525,
    "monthyear": 201305,
    "year": 2013,
    "fractiondate": "2013.3973",
    "eventcode": 112,
    "quadclass": 3,
    "nummentions": 4,
    "numsources": 1,
    "numarticles": 4,
    "avgtone": "1.69971671388102",
    "sourceurl": "http://www.bloomberg.com/news/2013-05-25/hagel-calls-on-army-cadets-to-build-culture-of-respect-.html",
    "feature_id": "970844",
    "feature_name": "West Point",
    "state_alpha": "NY",
    "county_name": "Orange",
    "county_numeric": "071",
    "prim_lat_dec": "41.3914827",
    "prim_long_dec": "-73.9559721",
    "elev_in_m": "48",
    "elev_in_ft": "157",
    "lat": 41.3914827,
    "long": -73.9559721
  },
  {
    "globaleventid": 255301835,
    "sqldate": 20130525,
    "monthyear": 201305,
    "year": 2013,
    "fractiondate": "2013.3973",
    "eventcode": 112,
    "quadclass": 3,
    "nummentions": 2,
    "numsources": 1,
    "numarticles": 2,
    "avgtone": "1.25786163522013",
    "sourceurl": "http://www.dailymail.co.uk/news/article-2330904/Shock-16-year-old-confesses-luring-classmate-house-stabbing-death-premeditated-attack.html",
    "feature_id": "1555161",
    "feature_name": "Morgantown",
    "state_alpha": "WV",
    "county_name": "Monongalia",
    "county_numeric": "061",
    "prim_lat_dec": "39.629526",
    "prim_long_dec": "-79.9558968",
    "elev_in_m": "271",
    "elev_in_ft": "889",
    "lat": 39.629526,
    "long": -79.9558968
  },
  {
    "globaleventid": 255301792,
    "sqldate": 20130525,
    "monthyear": 201305,
    "year": 2013,
    "fractiondate": "2013.3973",
    "eventcode": 141,
    "quadclass": 3,
    "nummentions": 20,
    "numsources": 1,
    "numarticles": 20,
    "avgtone": "2.16110853790335",
    "sourceurl": "http://www.nzherald.co.nz/business/news/article.cfm?c_id=3&objectid=10886230&ref=rss",
    "feature_id": "1662328",
    "feature_name": "Los Angeles",
    "state_alpha": "CA",
    "county_name": "Los Angeles",
    "county_numeric": "037",
    "prim_lat_dec": "34.0522342",
    "prim_long_dec": "-118.2436849",
    "elev_in_m": "89",
    "elev_in_ft": "292",
    "lat": 34.0522342,
    "long": -118.2436849
  },
  {
    "globaleventid": 255301771,
    "sqldate": 20130525,
    "monthyear": 201305,
    "year": 2013,
    "fractiondate": "2013.3973",
    "eventcode": 120,
    "quadclass": 3,
    "nummentions": 22,
    "numsources": 6,
    "numarticles": 22,
    "avgtone": "1.85032331722006",
    "sourceurl": "http://bdnews24.com/world/2013/05/25/in-syria-s-shadow-iraq-violence-is-the-new-test-for-us",
    "feature_id": "531871",
    "feature_name": "Washington",
    "state_alpha": "DC",
    "county_name": "District of Columbia",
    "county_numeric": "001",
    "prim_lat_dec": "38.8951118",
    "prim_long_dec": "-77.0363658",
    "elev_in_m": "7",
    "elev_in_ft": "23",
    "lat": 38.8951118,
    "long": -77.0363658
  },
  {
    "globaleventid": 255301746,
    "sqldate": 20130525,
    "monthyear": 201305,
    "year": 2013,
    "fractiondate": "2013.3973",
    "eventcode": 190,
    "quadclass": 4,
    "nummentions": 10,
    "numsources": 1,
    "numarticles": 10,
    "avgtone": "1.96687370600414",
    "sourceurl": "http://www.thenews.com.pk/article-102381-Obama''s-drone-speech-could-improve-Pakistan-ties",
    "feature_id": "531871",
    "feature_name": "Washington",
    "state_alpha": "DC",
    "county_name": "District of Columbia",
    "county_numeric": "001",
    "prim_lat_dec": "38.8951118",
    "prim_long_dec": "-77.0363658",
    "elev_in_m": "7",
    "elev_in_ft": "23",
    "lat": 38.8951118,
    "long": -77.0363658
  },
  {
    "globaleventid": 255301697,
    "sqldate": 20130525,
    "monthyear": 201305,
    "year": 2013,
    "fractiondate": "2013.3973",
    "eventcode": 120,
    "quadclass": 3,
    "nummentions": 2,
    "numsources": 1,
    "numarticles": 2,
    "avgtone": "1.34175217048145",
    "sourceurl": "http://www.seattlepi.com/news/politics/article/Furlough-Friday-Unpaid-day-off-for-many-in-gov-t-4546976.php",
    "feature_id": "531871",
    "feature_name": "Washington",
    "state_alpha": "DC",
    "county_name": "District of Columbia",
    "county_numeric": "001",
    "prim_lat_dec": "38.8951118",
    "prim_long_dec": "-77.0363658",
    "elev_in_m": "7",
    "elev_in_ft": "23",
    "lat": 38.8951118,
    "long": -77.0363658
  },
  {
    "globaleventid": 255301691,
    "sqldate": 20130525,
    "monthyear": 201305,
    "year": 2013,
    "fractiondate": "2013.3973",
    "eventcode": 190,
    "quadclass": 4,
    "nummentions": 13,
    "numsources": 1,
    "numarticles": 8,
    "avgtone": "1.28755364806867",
    "sourceurl": "http://www.usatoday.com/videos/news/2013/05/25/2360835/",
    "feature_id": "1380951",
    "feature_name": "San Antonio",
    "state_alpha": "TX",
    "county_name": "Bexar",
    "county_numeric": "029",
    "prim_lat_dec": "29.4241219",
    "prim_long_dec": "-98.4936282",
    "elev_in_m": "198",
    "elev_in_ft": "650",
    "lat": 29.4241219,
    "long": -98.4936282
  },
  {
    "globaleventid": 255301690,
    "sqldate": 20130525,
    "monthyear": 201305,
    "year": 2013,
    "fractiondate": "2013.3973",
    "eventcode": 180,
    "quadclass": 4,
    "nummentions": 2,
    "numsources": 1,
    "numarticles": 2,
    "avgtone": "1.65562913907285",
    "sourceurl": "http://www.sun-sentinel.com/news/local/crime/fl-doctor-pain-clinic-civil-20130524,0,1953517.story",
    "feature_id": "283628",
    "feature_name": "Hallandale Beach",
    "state_alpha": "FL",
    "county_name": "Broward",
    "county_numeric": "011",
    "prim_lat_dec": "25.9812025",
    "prim_long_dec": "-80.148379",
    "elev_in_m": "2",
    "elev_in_ft": "7",
    "lat": 25.9812025,
    "long": -80.148379
  },
  {
    "globaleventid": 255301689,
    "sqldate": 20130525,
    "monthyear": 201305,
    "year": 2013,
    "fractiondate": "2013.3973",
    "eventcode": 180,
    "quadclass": 4,
    "nummentions": 2,
    "numsources": 1,
    "numarticles": 2,
    "avgtone": "1.65562913907285",
    "sourceurl": "http://www.sun-sentinel.com/news/local/crime/fl-doctor-pain-clinic-civil-20130524,0,1953517.story",
    "feature_id": "283628",
    "feature_name": "Hallandale Beach",
    "state_alpha": "FL",
    "county_name": "Broward",
    "county_numeric": "011",
    "prim_lat_dec": "25.9812025",
    "prim_long_dec": "-80.148379",
    "elev_in_m": "2",
    "elev_in_ft": "7",
    "lat": 25.9812025,
    "long": -80.148379
  },
  {
    "globaleventid": 255301679,
    "sqldate": 20130525,
    "monthyear": 201305,
    "year": 2013,
    "fractiondate": "2013.3973",
    "eventcode": 166,
    "quadclass": 4,
    "nummentions": 6,
    "numsources": 3,
    "numarticles": 6,
    "avgtone": "1.13645216264179",
    "sourceurl": "http://www.reuters.com/article/2013/05/26/us-usa-weather-floods-idUSBRE94O0B320130526?feedType=RSS&feedName=topNews",
    "feature_id": "1380951",
    "feature_name": "San Antonio",
    "state_alpha": "TX",
    "county_name": "Bexar",
    "county_numeric": "029",
    "prim_lat_dec": "29.4241219",
    "prim_long_dec": "-98.4936282",
    "elev_in_m": "198",
    "elev_in_ft": "650",
    "lat": 29.4241219,
    "long": -98.4936282
  },
  {
    "globaleventid": 255301677,
    "sqldate": 20130525,
    "monthyear": 201305,
    "year": 2013,
    "fractiondate": "2013.3973",
    "eventcode": 130,
    "quadclass": 3,
    "nummentions": 4,
    "numsources": 1,
    "numarticles": 4,
    "avgtone": "3.87143900657414",
    "sourceurl": "http://abcnews.go.com/Politics/top-2013-commencement-speeches-politicians/story?id=19252965",
    "feature_id": "611641",
    "feature_name": "Framingham",
    "state_alpha": "MA",
    "county_name": "Middlesex",
    "county_numeric": "017",
    "prim_lat_dec": "42.2792625",
    "prim_long_dec": "-71.416172",
    "elev_in_m": "50",
    "elev_in_ft": "164",
    "lat": 42.2792625,
    "long": -71.416172
  },
  {
    "globaleventid": 255301587,
    "sqldate": 20130525,
    "monthyear": 201305,
    "year": 2013,
    "fractiondate": "2013.3973",
    "eventcode": 112,
    "quadclass": 3,
    "nummentions": 2,
    "numsources": 1,
    "numarticles": 2,
    "avgtone": "2.98769771528998",
    "sourceurl": "http://www.guardian.co.uk/technology/2013/may/26/silicon-valley-elite-san-francisco?utm_source=feedburner&utm_medium=feed&utm_campaign=Feed%3A+theguardian%2Fmedia%2Frss+%28Media%29",
    "feature_id": "277593",
    "feature_name": "San Francisco",
    "state_alpha": "CA",
    "county_name": "San Francisco",
    "county_numeric": "075",
    "prim_lat_dec": "37.775",
    "prim_long_dec": "-122.4194444",
    "elev_in_m": "16",
    "elev_in_ft": "52",
    "lat": 37.775,
    "long": -122.4194444
  },
  {
    "globaleventid": 255301509,
    "sqldate": 20130525,
    "monthyear": 201305,
    "year": 2013,
    "fractiondate": "2013.3973",
    "eventcode": 173,
    "quadclass": 4,
    "nummentions": 8,
    "numsources": 1,
    "numarticles": 8,
    "avgtone": "1.82815356489945",
    "sourceurl": "http://hamptonroads.com/2013/05/mom-34-convicted-mooning-suffolk-school-bus",
    "feature_id": "1500187",
    "feature_name": "Suffolk",
    "state_alpha": "VA",
    "county_name": "Suffolk (city)",
    "county_numeric": "800",
    "prim_lat_dec": "36.7282054",
    "prim_long_dec": "-76.5835621",
    "elev_in_m": "15",
    "elev_in_ft": "49",
    "lat": 36.7282054,
    "long": -76.5835621
  },
  {
    "globaleventid": 255301499,
    "sqldate": 20130525,
    "monthyear": 201305,
    "year": 2013,
    "fractiondate": "2013.3973",
    "eventcode": 138,
    "quadclass": 3,
    "nummentions": 2,
    "numsources": 1,
    "numarticles": 2,
    "avgtone": "1.41843971631206",
    "sourceurl": "http://news.yahoo.com/ore-teen-accused-planning-attack-school-013925952.html",
    "feature_id": "1136645",
    "feature_name": "Portland",
    "state_alpha": "OR",
    "county_name": "Multnomah",
    "county_numeric": "051",
    "prim_lat_dec": "45.5234515",
    "prim_long_dec": "-122.6762071",
    "elev_in_m": "10",
    "elev_in_ft": "33",
    "lat": 45.5234515,
    "long": -122.6762071
  },
  {
    "globaleventid": 255301494,
    "sqldate": 20130525,
    "monthyear": 201305,
    "year": 2013,
    "fractiondate": "2013.3973",
    "eventcode": 1123,
    "quadclass": 3,
    "nummentions": 1,
    "numsources": 1,
    "numarticles": 1,
    "avgtone": "1.41843971631206",
    "sourceurl": "http://news.yahoo.com/ore-teen-accused-planning-attack-school-013925952.html",
    "feature_id": "1136645",
    "feature_name": "Portland",
    "state_alpha": "OR",
    "county_name": "Multnomah",
    "county_numeric": "051",
    "prim_lat_dec": "45.5234515",
    "prim_long_dec": "-122.6762071",
    "elev_in_m": "10",
    "elev_in_ft": "33",
    "lat": 45.5234515,
    "long": -122.6762071
  },
  {
    "globaleventid": 255301493,
    "sqldate": 20130525,
    "monthyear": 201305,
    "year": 2013,
    "fractiondate": "2013.3973",
    "eventcode": 1123,
    "quadclass": 3,
    "nummentions": 16,
    "numsources": 2,
    "numarticles": 16,
    "avgtone": "2.05630513751946",
    "sourceurl": "http://www.miamiherald.com/2013/05/25/3417051/ore-teen-accused-of-planning-to.html",
    "feature_id": "1136645",
    "feature_name": "Portland",
    "state_alpha": "OR",
    "county_name": "Multnomah",
    "county_numeric": "051",
    "prim_lat_dec": "45.5234515",
    "prim_long_dec": "-122.6762071",
    "elev_in_m": "10",
    "elev_in_ft": "33",
    "lat": 45.5234515,
    "long": -122.6762071
  },
  {
    "globaleventid": 255301423,
    "sqldate": 20130525,
    "monthyear": 201305,
    "year": 2013,
    "fractiondate": "2013.3973",
    "eventcode": 1724,
    "quadclass": 4,
    "nummentions": 6,
    "numsources": 2,
    "numarticles": 6,
    "avgtone": "1.47929600262257",
    "sourceurl": "http://www.theprovince.com/news/Quick+long+term+fixes+works+Wash+bridge+motorists+should+expect/8435916/story.html",
    "feature_id": "531871",
    "feature_name": "Washington",
    "state_alpha": "DC",
    "county_name": "District of Columbia",
    "county_numeric": "001",
    "prim_lat_dec": "38.8951118",
    "prim_long_dec": "-77.0363658",
    "elev_in_m": "7",
    "elev_in_ft": "23",
    "lat": 38.8951118,
    "long": -77.0363658
  },
  {
    "globaleventid": 255301376,
    "sqldate": 20130525,
    "monthyear": 201305,
    "year": 2013,
    "fractiondate": "2013.3973",
    "eventcode": 173,
    "quadclass": 4,
    "nummentions": 2,
    "numsources": 1,
    "numarticles": 2,
    "avgtone": "1.61662817551963",
    "sourceurl": "http://www.miamiherald.com/2013/05/25/3414863/killers-wife-set-to-inherit-victims.html",
    "feature_id": "285368",
    "feature_name": "Lauderhill",
    "state_alpha": "FL",
    "county_name": "Broward",
    "county_numeric": "011",
    "prim_lat_dec": "26.1403635",
    "prim_long_dec": "-80.2133808",
    "elev_in_m": "2",
    "elev_in_ft": "7",
    "lat": 26.1403635,
    "long": -80.2133808
  },
  {
    "globaleventid": 255301375,
    "sqldate": 20130525,
    "monthyear": 201305,
    "year": 2013,
    "fractiondate": "2013.3973",
    "eventcode": 173,
    "quadclass": 4,
    "nummentions": 2,
    "numsources": 1,
    "numarticles": 2,
    "avgtone": "1.61662817551963",
    "sourceurl": "http://www.miamiherald.com/2013/05/25/3414863/killers-wife-set-to-inherit-victims.html",
    "feature_id": "285368",
    "feature_name": "Lauderhill",
    "state_alpha": "FL",
    "county_name": "Broward",
    "county_numeric": "011",
    "prim_lat_dec": "26.1403635",
    "prim_long_dec": "-80.2133808",
    "elev_in_m": "2",
    "elev_in_ft": "7",
    "lat": 26.1403635,
    "long": -80.2133808
  },
  {
    "globaleventid": 255301374,
    "sqldate": 20130525,
    "monthyear": 201305,
    "year": 2013,
    "fractiondate": "2013.3973",
    "eventcode": 173,
    "quadclass": 4,
    "nummentions": 6,
    "numsources": 1,
    "numarticles": 6,
    "avgtone": "1.61662817551963",
    "sourceurl": "http://www.miamiherald.com/2013/05/25/3414863/killers-wife-set-to-inherit-victims.html",
    "feature_id": "1867201",
    "feature_name": "Sawgrass",
    "state_alpha": "FL",
    "county_name": "St. Johns",
    "county_numeric": "109",
    "prim_lat_dec": "30.1927427",
    "prim_long_dec": "-81.3706368",
    "elev_in_m": "1",
    "elev_in_ft": "3",
    "lat": 30.1927427,
    "long": -81.3706368
  },
  {
    "globaleventid": 255301370,
    "sqldate": 20130525,
    "monthyear": 201305,
    "year": 2013,
    "fractiondate": "2013.3973",
    "eventcode": 111,
    "quadclass": 3,
    "nummentions": 3,
    "numsources": 1,
    "numarticles": 3,
    "avgtone": "2.74621212121212",
    "sourceurl": "http://www.golocalprov.com/politics/travis-rowley-sheldon-whitehouse-radical-embarrassment/",
    "feature_id": "44784",
    "feature_name": "Phoenix",
    "state_alpha": "AZ",
    "county_name": "Maricopa",
    "county_numeric": "013",
    "prim_lat_dec": "33.4483771",
    "prim_long_dec": "-112.0740373",
    "elev_in_m": "331",
    "elev_in_ft": "1086",
    "lat": 33.4483771,
    "long": -112.0740373
  },
  {
    "globaleventid": 255301363,
    "sqldate": 20130525,
    "monthyear": 201305,
    "year": 2013,
    "fractiondate": "2013.3973",
    "eventcode": 192,
    "quadclass": 4,
    "nummentions": 7,
    "numsources": 7,
    "numarticles": 7,
    "avgtone": "1.62512493914762",
    "sourceurl": "http://minnesota.publicradio.org/display/web/2013/05/25/news/new-cause-for-former-radical-sara-jane-olson?refid=0&utm_source=feedburner&utm_medium=feed&utm_campaign=Feed%3A+MPR_NewsFeatures+%28News+%26+Features+from+Minnesota+Public+Radio%29",
    "feature_id": "531871",
    "feature_name": "Washington",
    "state_alpha": "DC",
    "county_name": "District of Columbia",
    "county_numeric": "001",
    "prim_lat_dec": "38.8951118",
    "prim_long_dec": "-77.0363658",
    "elev_in_m": "7",
    "elev_in_ft": "23",
    "lat": 38.8951118,
    "long": -77.0363658
  },
  {
    "globaleventid": 255301360,
    "sqldate": 20130525,
    "monthyear": 201305,
    "year": 2013,
    "fractiondate": "2013.3973",
    "eventcode": 190,
    "quadclass": 4,
    "nummentions": 10,
    "numsources": 1,
    "numarticles": 10,
    "avgtone": "2.98507462686567",
    "sourceurl": "http://www.chicagotribune.com/news/local/ct-met-congress-20130525,0,7776893.story?track=rss",
    "feature_id": "423587",
    "feature_name": "Chicago",
    "state_alpha": "IL",
    "county_name": "Cook",
    "county_numeric": "031",
    "prim_lat_dec": "41.850033",
    "prim_long_dec": "-87.6500523",
    "elev_in_m": "179",
    "elev_in_ft": "587",
    "lat": 41.850033,
    "long": -87.6500523
  },
  {
    "globaleventid": 255301359,
    "sqldate": 20130525,
    "monthyear": 201305,
    "year": 2013,
    "fractiondate": "2013.3973",
    "eventcode": 190,
    "quadclass": 4,
    "nummentions": 2,
    "numsources": 1,
    "numarticles": 2,
    "avgtone": "1.81818181818182",
    "sourceurl": "http://www.upi.com/Top_News/US/2013/05/25/Manson-family-members-tapes-reviewed/UPI-58171369512076/",
    "feature_id": "1662328",
    "feature_name": "Los Angeles",
    "state_alpha": "CA",
    "county_name": "Los Angeles",
    "county_numeric": "037",
    "prim_lat_dec": "34.0522342",
    "prim_long_dec": "-118.2436849",
    "elev_in_m": "89",
    "elev_in_ft": "292",
    "lat": 34.0522342,
    "long": -118.2436849
  },
  {
    "globaleventid": 255301358,
    "sqldate": 20130525,
    "monthyear": 201305,
    "year": 2013,
    "fractiondate": "2013.3973",
    "eventcode": 190,
    "quadclass": 4,
    "nummentions": 2,
    "numsources": 1,
    "numarticles": 2,
    "avgtone": "1.81818181818182",
    "sourceurl": "http://www.upi.com/Top_News/US/2013/05/25/Manson-family-members-tapes-reviewed/UPI-58171369512076/",
    "feature_id": "1662328",
    "feature_name": "Los Angeles",
    "state_alpha": "CA",
    "county_name": "Los Angeles",
    "county_numeric": "037",
    "prim_lat_dec": "34.0522342",
    "prim_long_dec": "-118.2436849",
    "elev_in_m": "89",
    "elev_in_ft": "292",
    "lat": 34.0522342,
    "long": -118.2436849
  },
  {
    "globaleventid": 255301356,
    "sqldate": 20130525,
    "monthyear": 201305,
    "year": 2013,
    "fractiondate": "2013.3973",
    "eventcode": 190,
    "quadclass": 4,
    "nummentions": 10,
    "numsources": 1,
    "numarticles": 10,
    "avgtone": "0.0",
    "sourceurl": "http://www.chron.com/news/houston-texas/houston/article/Driver-in-fatal-police-chase-faces-felony-murder-4546540.php",
    "feature_id": "1380948",
    "feature_name": "Houston",
    "state_alpha": "TX",
    "county_name": "Harris",
    "county_numeric": "201",
    "prim_lat_dec": "29.7632836",
    "prim_long_dec": "-95.3632715",
    "elev_in_m": "11",
    "elev_in_ft": "36",
    "lat": 29.7632836,
    "long": -95.3632715
  },
  {
    "globaleventid": 255301352,
    "sqldate": 20130525,
    "monthyear": 201305,
    "year": 2013,
    "fractiondate": "2013.3973",
    "eventcode": 180,
    "quadclass": 4,
    "nummentions": 2,
    "numsources": 1,
    "numarticles": 2,
    "avgtone": "1.61662817551963",
    "sourceurl": "http://www.miamiherald.com/2013/05/25/3414863/killers-wife-set-to-inherit-victims.html",
    "feature_id": "1867201",
    "feature_name": "Sawgrass",
    "state_alpha": "FL",
    "county_name": "St. Johns",
    "county_numeric": "109",
    "prim_lat_dec": "30.1927427",
    "prim_long_dec": "-81.3706368",
    "elev_in_m": "1",
    "elev_in_ft": "3",
    "lat": 30.1927427,
    "long": -81.3706368
  },
  {
    "globaleventid": 255301347,
    "sqldate": 20130525,
    "monthyear": 201305,
    "year": 2013,
    "fractiondate": "2013.3973",
    "eventcode": 173,
    "quadclass": 4,
    "nummentions": 8,
    "numsources": 1,
    "numarticles": 8,
    "avgtone": "1.7259978425027",
    "sourceurl": "http://www.dailymail.co.uk/tvshowbiz/article-2330073/Police-arrest-Amanda-Bynes-alleged-possession-marijuana-New-York-City-apartment.html",
    "feature_id": "942957",
    "feature_name": "Baltimore",
    "state_alpha": "NY",
    "county_name": "Cortland",
    "county_numeric": "023",
    "prim_lat_dec": "42.7353458",
    "prim_long_dec": "-76.1257596",
    "elev_in_m": "362",
    "elev_in_ft": "1188",
    "lat": 42.7353458,
    "long": -76.1257596
  },
  {
    "globaleventid": 255301344,
    "sqldate": 20130525,
    "monthyear": 201305,
    "year": 2013,
    "fractiondate": "2013.3973",
    "eventcode": 173,
    "quadclass": 4,
    "nummentions": 2,
    "numsources": 1,
    "numarticles": 2,
    "avgtone": "1.7259978425027",
    "sourceurl": "http://www.dailymail.co.uk/tvshowbiz/article-2330073/Police-arrest-Amanda-Bynes-alleged-possession-marijuana-New-York-City-apartment.html",
    "feature_id": "1136386",
    "feature_name": "Hollywood",
    "state_alpha": "OR",
    "county_name": "Multnomah",
    "county_numeric": "051",
    "prim_lat_dec": "45.5353963",
    "prim_long_dec": "-122.622317",
    "elev_in_m": "49",
    "elev_in_ft": "161",
    "lat": 45.5353963,
    "long": -122.622317
  },
  {
    "globaleventid": 255301340,
    "sqldate": 20130525,
    "monthyear": 201305,
    "year": 2013,
    "fractiondate": "2013.3973",
    "eventcode": 112,
    "quadclass": 3,
    "nummentions": 2,
    "numsources": 1,
    "numarticles": 2,
    "avgtone": "0.0",
    "sourceurl": "http://www.chron.com/news/houston-texas/houston/article/Driver-in-fatal-police-chase-faces-felony-murder-4546540.php",
    "feature_id": "1380948",
    "feature_name": "Houston",
    "state_alpha": "TX",
    "county_name": "Harris",
    "county_numeric": "201",
    "prim_lat_dec": "29.7632836",
    "prim_long_dec": "-95.3632715",
    "elev_in_m": "11",
    "elev_in_ft": "36",
    "lat": 29.7632836,
    "long": -95.3632715
  },
  {
    "globaleventid": 255301339,
    "sqldate": 20130525,
    "monthyear": 201305,
    "year": 2013,
    "fractiondate": "2013.3973",
    "eventcode": 112,
    "quadclass": 3,
    "nummentions": 6,
    "numsources": 1,
    "numarticles": 6,
    "avgtone": "0.0",
    "sourceurl": "http://www.chron.com/news/houston-texas/houston/article/Driver-in-fatal-police-chase-faces-felony-murder-4546540.php",
    "feature_id": "1380948",
    "feature_name": "Houston",
    "state_alpha": "TX",
    "county_name": "Harris",
    "county_numeric": "201",
    "prim_lat_dec": "29.7632836",
    "prim_long_dec": "-95.3632715",
    "elev_in_m": "11",
    "elev_in_ft": "36",
    "lat": 29.7632836,
    "long": -95.3632715
  },
  {
    "globaleventid": 255301338,
    "sqldate": 20130525,
    "monthyear": 201305,
    "year": 2013,
    "fractiondate": "2013.3973",
    "eventcode": 112,
    "quadclass": 3,
    "nummentions": 2,
    "numsources": 1,
    "numarticles": 2,
    "avgtone": "0.0",
    "sourceurl": "http://www.chron.com/news/houston-texas/houston/article/Driver-in-fatal-police-chase-faces-felony-murder-4546540.php",
    "feature_id": "1375601",
    "feature_name": "Quitman",
    "state_alpha": "TX",
    "county_name": "Wood",
    "county_numeric": "499",
    "prim_lat_dec": "32.7959605",
    "prim_long_dec": "-95.4510641",
    "elev_in_m": "126",
    "elev_in_ft": "413",
    "lat": 32.7959605,
    "long": -95.4510641
  },
  {
    "globaleventid": 255301337,
    "sqldate": 20130525,
    "monthyear": 201305,
    "year": 2013,
    "fractiondate": "2013.3973",
    "eventcode": 110,
    "quadclass": 3,
    "nummentions": 4,
    "numsources": 2,
    "numarticles": 4,
    "avgtone": "0.529567932394787",
    "sourceurl": "http://www.huffingtonpost.com/2013/05/25/arizona-racial-profiling_n_3336217.html",
    "feature_id": "44784",
    "feature_name": "Phoenix",
    "state_alpha": "AZ",
    "county_name": "Maricopa",
    "county_numeric": "013",
    "prim_lat_dec": "33.4483771",
    "prim_long_dec": "-112.0740373",
    "elev_in_m": "331",
    "elev_in_ft": "1086",
    "lat": 33.4483771,
    "long": -112.0740373
  },
  {
    "globaleventid": 255301272,
    "sqldate": 20130525,
    "monthyear": 201305,
    "year": 2013,
    "fractiondate": "2013.3973",
    "eventcode": 190,
    "quadclass": 4,
    "nummentions": 7,
    "numsources": 1,
    "numarticles": 7,
    "avgtone": "2.93637846655791",
    "sourceurl": "http://www.startribune.com/business/208942501.html",
    "feature_id": "1024242",
    "feature_name": "Raleigh",
    "state_alpha": "NC",
    "county_name": "Wake",
    "county_numeric": "183",
    "prim_lat_dec": "35.772096",
    "prim_long_dec": "-78.6386145",
    "elev_in_m": "96",
    "elev_in_ft": "315",
    "lat": 35.772096,
    "long": -78.6386145
  },
  {
    "globaleventid": 255301268,
    "sqldate": 20130525,
    "monthyear": 201305,
    "year": 2013,
    "fractiondate": "2013.3973",
    "eventcode": 1712,
    "quadclass": 4,
    "nummentions": 5,
    "numsources": 1,
    "numarticles": 5,
    "avgtone": "4.26829268292683",
    "sourceurl": "http://www.sciencerecorder.com/news/sandy-impacted-shore-tops-americas-best-beach-list/",
    "feature_id": "949093",
    "feature_name": "East Hampton",
    "state_alpha": "NY",
    "county_name": "Suffolk",
    "county_numeric": "103",
    "prim_lat_dec": "40.9634335",
    "prim_long_dec": "-72.184801",
    "elev_in_m": "10",
    "elev_in_ft": "33",
    "lat": 40.9634335,
    "long": -72.184801
  },
  {
    "globaleventid": 255301267,
    "sqldate": 20130525,
    "monthyear": 201305,
    "year": 2013,
    "fractiondate": "2013.3973",
    "eventcode": 171,
    "quadclass": 4,
    "nummentions": 2,
    "numsources": 1,
    "numarticles": 2,
    "avgtone": "0.20703933747412",
    "sourceurl": "http://www.chicagotribune.com/news/local/breaking/chi-homeless-pair-charged-in-string-of-near-north-burglaries-20130525,0,2735084.story",
    "feature_id": "1772786",
    "feature_name": "Near North Side",
    "state_alpha": "IL",
    "county_name": "Cook",
    "county_numeric": "031",
    "prim_lat_dec": "41.9000327",
    "prim_long_dec": "-87.6344975",
    "elev_in_m": "179",
    "elev_in_ft": "587",
    "lat": 41.9000327,
    "long": -87.6344975
  },
  {
    "globaleventid": 255301262,
    "sqldate": 20130525,
    "monthyear": 201305,
    "year": 2013,
    "fractiondate": "2013.3973",
    "eventcode": 120,
    "quadclass": 3,
    "nummentions": 20,
    "numsources": 2,
    "numarticles": 20,
    "avgtone": "2.50926828379621",
    "sourceurl": "http://www.miamiherald.com/2013/05/25/3416324/automaker-tesla-takes-fight-to.html",
    "feature_id": "1005554",
    "feature_name": "Carolina",
    "state_alpha": "NC",
    "county_name": "Gaston",
    "county_numeric": "071",
    "prim_lat_dec": "35.3884665",
    "prim_long_dec": "-81.3714737",
    "elev_in_m": "284",
    "elev_in_ft": "932",
    "lat": 35.3884665,
    "long": -81.3714737
  },
  {
    "globaleventid": 255301261,
    "sqldate": 20130525,
    "monthyear": 201305,
    "year": 2013,
    "fractiondate": "2013.3973",
    "eventcode": 1124,
    "quadclass": 3,
    "nummentions": 4,
    "numsources": 1,
    "numarticles": 4,
    "avgtone": "1.86915887850467",
    "sourceurl": "http://www.washingtonpost.com/local/education/paul-tudor-jones-in-macro-trading-babies-are-a-killer-to-a-womans-focus/2013/05/23/1c0c6d4e-c3a6-11e2-9fe2-6ee52d0eb7c1_story.html",
    "feature_id": "531871",
    "feature_name": "Washington",
    "state_alpha": "DC",
    "county_name": "District of Columbia",
    "county_numeric": "001",
    "prim_lat_dec": "38.8951118",
    "prim_long_dec": "-77.0363658",
    "elev_in_m": "7",
    "elev_in_ft": "23",
    "lat": 38.8951118,
    "long": -77.0363658
  },
  {
    "globaleventid": 255301205,
    "sqldate": 20130525,
    "monthyear": 201305,
    "year": 2013,
    "fractiondate": "2013.3973",
    "eventcode": 1124,
    "quadclass": 3,
    "nummentions": 5,
    "numsources": 1,
    "numarticles": 5,
    "avgtone": "0.726392251815981",
    "sourceurl": "http://www.chicagotribune.com/business/chi-for-illinois-counties-fracking-taxes-could-be-too-little-too-late-20130524,0,3060596.story",
    "feature_id": "1604444",
    "feature_name": "Pinedale",
    "state_alpha": "WY",
    "county_name": "Sublette",
    "county_numeric": "035",
    "prim_lat_dec": "42.8666103",
    "prim_long_dec": "-109.8609864",
    "elev_in_m": "2189",
    "elev_in_ft": "7182",
    "lat": 42.8666103,
    "long": -109.8609864
  },
  {
    "globaleventid": 255301204,
    "sqldate": 20130525,
    "monthyear": 201305,
    "year": 2013,
    "fractiondate": "2013.3973",
    "eventcode": 112,
    "quadclass": 3,
    "nummentions": 2,
    "numsources": 1,
    "numarticles": 2,
    "avgtone": "2.90155440414508",
    "sourceurl": "http://www.orlandosentinel.com/health/sns-rt-us-marijuana-diabetesbre94m14c-20130523,0,6219017.story",
    "feature_id": "1662328",
    "feature_name": "Los Angeles",
    "state_alpha": "CA",
    "county_name": "Los Angeles",
    "county_numeric": "037",
    "prim_lat_dec": "34.0522342",
    "prim_long_dec": "-118.2436849",
    "elev_in_m": "89",
    "elev_in_ft": "292",
    "lat": 34.0522342,
    "long": -118.2436849
  },
  {
    "globaleventid": 255300119,
    "sqldate": 20130525,
    "monthyear": 201305,
    "year": 2013,
    "fractiondate": "2013.3973",
    "eventcode": 110,
    "quadclass": 3,
    "nummentions": 10,
    "numsources": 1,
    "numarticles": 10,
    "avgtone": "0.4",
    "sourceurl": "http://www.bbc.co.uk/news/world-europe-22665859#sa-ns_mchannel=rss&ns_source=PublicRSS20-sa",
    "feature_id": "617565",
    "feature_name": "Boston",
    "state_alpha": "MA",
    "county_name": "Suffolk",
    "county_numeric": "025",
    "prim_lat_dec": "42.3584308",
    "prim_long_dec": "-71.0597732",
    "elev_in_m": "14",
    "elev_in_ft": "46",
    "lat": 42.3584308,
    "long": -71.0597732
  },
  {
    "globaleventid": 255299367,
    "sqldate": 20130525,
    "monthyear": 201305,
    "year": 2013,
    "fractiondate": "2013.3973",
    "eventcode": 164,
    "quadclass": 4,
    "nummentions": 3,
    "numsources": 1,
    "numarticles": 3,
    "avgtone": "0.892857142857143",
    "sourceurl": "http://www.philippinetimes.com/index.php/sid/214761069/scat/2411cd3571b4f088",
    "feature_id": "531871",
    "feature_name": "Washington",
    "state_alpha": "DC",
    "county_name": "District of Columbia",
    "county_numeric": "001",
    "prim_lat_dec": "38.8951118",
    "prim_long_dec": "-77.0363658",
    "elev_in_m": "7",
    "elev_in_ft": "23",
    "lat": 38.8951118,
    "long": -77.0363658
  },
  {
    "globaleventid": 255299169,
    "sqldate": 20130525,
    "monthyear": 201305,
    "year": 2013,
    "fractiondate": "2013.3973",
    "eventcode": 164,
    "quadclass": 4,
    "nummentions": 3,
    "numsources": 1,
    "numarticles": 3,
    "avgtone": "0.892857142857143",
    "sourceurl": "http://www.philippinetimes.com/index.php/sid/214761069/scat/2411cd3571b4f088",
    "feature_id": "531871",
    "feature_name": "Washington",
    "state_alpha": "DC",
    "county_name": "District of Columbia",
    "county_numeric": "001",
    "prim_lat_dec": "38.8951118",
    "prim_long_dec": "-77.0363658",
    "elev_in_m": "7",
    "elev_in_ft": "23",
    "lat": 38.8951118,
    "long": -77.0363658
  },
  {
    "globaleventid": 255298918,
    "sqldate": 20130525,
    "monthyear": 201305,
    "year": 2013,
    "fractiondate": "2013.3973",
    "eventcode": 110,
    "quadclass": 3,
    "nummentions": 2,
    "numsources": 1,
    "numarticles": 2,
    "avgtone": "1.72711571675302",
    "sourceurl": "http://www.guardian.co.uk/commentisfree/2013/may/25/boston-marathon-bombing-muslim-reflection",
    "feature_id": "617565",
    "feature_name": "Boston",
    "state_alpha": "MA",
    "county_name": "Suffolk",
    "county_numeric": "025",
    "prim_lat_dec": "42.3584308",
    "prim_long_dec": "-71.0597732",
    "elev_in_m": "14",
    "elev_in_ft": "46",
    "lat": 42.3584308,
    "long": -71.0597732
  },
  {
    "globaleventid": 255297492,
    "sqldate": 20130525,
    "monthyear": 201305,
    "year": 2013,
    "fractiondate": "2013.3973",
    "eventcode": 111,
    "quadclass": 3,
    "nummentions": 1,
    "numsources": 1,
    "numarticles": 1,
    "avgtone": "2.09923664122137",
    "sourceurl": "http://www.sunstar.com.ph/breaking-news/2013/05/25/11-killed-sulu-clash-284106",
    "feature_id": "531871",
    "feature_name": "Washington",
    "state_alpha": "DC",
    "county_name": "District of Columbia",
    "county_numeric": "001",
    "prim_lat_dec": "38.8951118",
    "prim_long_dec": "-77.0363658",
    "elev_in_m": "7",
    "elev_in_ft": "23",
    "lat": 38.8951118,
    "long": -77.0363658
  },
  {
    "globaleventid": 255297491,
    "sqldate": 20130525,
    "monthyear": 201305,
    "year": 2013,
    "fractiondate": "2013.3973",
    "eventcode": 111,
    "quadclass": 3,
    "nummentions": 1,
    "numsources": 1,
    "numarticles": 1,
    "avgtone": "2.09923664122137",
    "sourceurl": "http://www.sunstar.com.ph/breaking-news/2013/05/25/11-killed-sulu-clash-284106",
    "feature_id": "531871",
    "feature_name": "Washington",
    "state_alpha": "DC",
    "county_name": "District of Columbia",
    "county_numeric": "001",
    "prim_lat_dec": "38.8951118",
    "prim_long_dec": "-77.0363658",
    "elev_in_m": "7",
    "elev_in_ft": "23",
    "lat": 38.8951118,
    "long": -77.0363658
  },
  {
    "globaleventid": 255297430,
    "sqldate": 20130525,
    "monthyear": 201305,
    "year": 2013,
    "fractiondate": "2013.3973",
    "eventcode": 190,
    "quadclass": 4,
    "nummentions": 8,
    "numsources": 1,
    "numarticles": 8,
    "avgtone": "0.649350649350649",
    "sourceurl": "http://www.foxnews.com/world/2013/05/25/at-least-7-filipino-marines-4-abu-sayyaf-militants-killed-in-clash-in-southern/?utm_source=feedburner&utm_medium=feed&utm_campaign=Feed%3A+foxnews%2Fworld+%28Internal+-+World+Latest+-+Text%29",
    "feature_id": "531871",
    "feature_name": "Washington",
    "state_alpha": "DC",
    "county_name": "District of Columbia",
    "county_numeric": "001",
    "prim_lat_dec": "38.8951118",
    "prim_long_dec": "-77.0363658",
    "elev_in_m": "7",
    "elev_in_ft": "23",
    "lat": 38.8951118,
    "long": -77.0363658
  },
  {
    "globaleventid": 255297425,
    "sqldate": 20130525,
    "monthyear": 201305,
    "year": 2013,
    "fractiondate": "2013.3973",
    "eventcode": 190,
    "quadclass": 4,
    "nummentions": 2,
    "numsources": 1,
    "numarticles": 2,
    "avgtone": "2.09923664122137",
    "sourceurl": "http://www.sunstar.com.ph/breaking-news/2013/05/25/11-killed-sulu-clash-284106",
    "feature_id": "531871",
    "feature_name": "Washington",
    "state_alpha": "DC",
    "county_name": "District of Columbia",
    "county_numeric": "001",
    "prim_lat_dec": "38.8951118",
    "prim_long_dec": "-77.0363658",
    "elev_in_m": "7",
    "elev_in_ft": "23",
    "lat": 38.8951118,
    "long": -77.0363658
  },
  {
    "globaleventid": 255296840,
    "sqldate": 20130525,
    "monthyear": 201305,
    "year": 2013,
    "fractiondate": "2013.3973",
    "eventcode": 110,
    "quadclass": 3,
    "nummentions": 3,
    "numsources": 3,
    "numarticles": 3,
    "avgtone": "2.52061161104452",
    "sourceurl": "http://www.haaretz.com/news/middle-east/syrian-opposition-talks-face-collapse-as-assad-s-foes-fail-to-cut-a-unity-deal-1.525871?localLinksEnabled=false",
    "feature_id": "531871",
    "feature_name": "Washington",
    "state_alpha": "DC",
    "county_name": "District of Columbia",
    "county_numeric": "001",
    "prim_lat_dec": "38.8951118",
    "prim_long_dec": "-77.0363658",
    "elev_in_m": "7",
    "elev_in_ft": "23",
    "lat": 38.8951118,
    "long": -77.0363658
  },
  {
    "globaleventid": 255295962,
    "sqldate": 20130525,
    "monthyear": 201305,
    "year": 2013,
    "fractiondate": "2013.3973",
    "eventcode": 112,
    "quadclass": 3,
    "nummentions": 2,
    "numsources": 1,
    "numarticles": 2,
    "avgtone": "2.98769771528998",
    "sourceurl": "http://www.guardian.co.uk/technology/2013/may/26/silicon-valley-elite-san-francisco?utm_source=feedburner&utm_medium=feed&utm_campaign=Feed%3A+theguardian%2Fmedia%2Frss+%28Media%29",
    "feature_id": "531871",
    "feature_name": "Washington",
    "state_alpha": "DC",
    "county_name": "District of Columbia",
    "county_numeric": "001",
    "prim_lat_dec": "38.8951118",
    "prim_long_dec": "-77.0363658",
    "elev_in_m": "7",
    "elev_in_ft": "23",
    "lat": 38.8951118,
    "long": -77.0363658
  },
  {
    "globaleventid": 255295950,
    "sqldate": 20130525,
    "monthyear": 201305,
    "year": 2013,
    "fractiondate": "2013.3973",
    "eventcode": 112,
    "quadclass": 3,
    "nummentions": 2,
    "numsources": 1,
    "numarticles": 2,
    "avgtone": "2.98769771528998",
    "sourceurl": "http://www.guardian.co.uk/technology/2013/may/26/silicon-valley-elite-san-francisco?utm_source=feedburner&utm_medium=feed&utm_campaign=Feed%3A+theguardian%2Fmedia%2Frss+%28Media%29",
    "feature_id": "277593",
    "feature_name": "San Francisco",
    "state_alpha": "CA",
    "county_name": "San Francisco",
    "county_numeric": "075",
    "prim_lat_dec": "37.775",
    "prim_long_dec": "-122.4194444",
    "elev_in_m": "16",
    "elev_in_ft": "52",
    "lat": 37.775,
    "long": -122.4194444
  },
  {
    "globaleventid": 255295909,
    "sqldate": 20130525,
    "monthyear": 201305,
    "year": 2013,
    "fractiondate": "2013.3973",
    "eventcode": 110,
    "quadclass": 3,
    "nummentions": 10,
    "numsources": 1,
    "numarticles": 10,
    "avgtone": "1.67364016736402",
    "sourceurl": "http://www.newsminer.com/news/local_news/march-to-raise-organic-awareness-fairbanks-will-participate-in-global/article_a9563d5a-c514-11e2-b441-001a4bcf6878.html",
    "feature_id": "1658521",
    "feature_name": "Fairbanks",
    "state_alpha": "CA",
    "county_name": "El Dorado",
    "county_numeric": "017",
    "prim_lat_dec": "38.8657356",
    "prim_long_dec": "-120.6702065",
    "elev_in_m": "1131",
    "elev_in_ft": "3711",
    "lat": 38.8657356,
    "long": -120.6702065
  },
  {
    "globaleventid": 255295665,
    "sqldate": 20130525,
    "monthyear": 201305,
    "year": 2013,
    "fractiondate": "2013.3973",
    "eventcode": 183,
    "quadclass": 4,
    "nummentions": 20,
    "numsources": 2,
    "numarticles": 20,
    "avgtone": "1.34228187919463",
    "sourceurl": "http://www.foxnews.com/world/2013/05/25/roadside-bomb-kills-2-yemeni-soldiers-in-area-where-military-is-fighting-al/?utm_source=feedburner&utm_medium=feed&utm_campaign=Feed%3A+foxnews%2Fworld+%28Internal+-+World+Latest+-+Text%29",
    "feature_id": "531871",
    "feature_name": "Washington",
    "state_alpha": "DC",
    "county_name": "District of Columbia",
    "county_numeric": "001",
    "prim_lat_dec": "38.8951118",
    "prim_long_dec": "-77.0363658",
    "elev_in_m": "7",
    "elev_in_ft": "23",
    "lat": 38.8951118,
    "long": -77.0363658
  },
  {
    "globaleventid": 255295660,
    "sqldate": 20130525,
    "monthyear": 201305,
    "year": 2013,
    "fractiondate": "2013.3973",
    "eventcode": 190,
    "quadclass": 4,
    "nummentions": 20,
    "numsources": 1,
    "numarticles": 20,
    "avgtone": "2.71966527196653",
    "sourceurl": "http://www.politico.com/story/2013/05/chuck-hagel-west-point-speech-sex-assault-91889.html",
    "feature_id": "970844",
    "feature_name": "West Point",
    "state_alpha": "NY",
    "county_name": "Orange",
    "county_numeric": "071",
    "prim_lat_dec": "41.3914827",
    "prim_long_dec": "-73.9559721",
    "elev_in_m": "48",
    "elev_in_ft": "157",
    "lat": 41.3914827,
    "long": -73.9559721
  },
  {
    "globaleventid": 255295246,
    "sqldate": 20130525,
    "monthyear": 201305,
    "year": 2013,
    "fractiondate": "2013.3973",
    "eventcode": 112,
    "quadclass": 3,
    "nummentions": 8,
    "numsources": 1,
    "numarticles": 8,
    "avgtone": "2.18068535825545",
    "sourceurl": "http://www.foxnews.com/politics/2013/05/24/us-attorney-ally-leak-probes/?utm_source=feedburner&utm_medium=feed&utm_campaign=Feed%3A+foxnews%2Fmost-popular+%28Internal+-+Most+Popular+Content%29",
    "feature_id": "531871",
    "feature_name": "Washington",
    "state_alpha": "DC",
    "county_name": "District of Columbia",
    "county_numeric": "001",
    "prim_lat_dec": "38.8951118",
    "prim_long_dec": "-77.0363658",
    "elev_in_m": "7",
    "elev_in_ft": "23",
    "lat": 38.8951118,
    "long": -77.0363658
  },
  {
    "globaleventid": 255294670,
    "sqldate": 20130525,
    "monthyear": 201305,
    "year": 2013,
    "fractiondate": "2013.3973",
    "eventcode": 120,
    "quadclass": 3,
    "nummentions": 10,
    "numsources": 1,
    "numarticles": 10,
    "avgtone": "3.88978930307942",
    "sourceurl": "http://video.msnbc.msn.com/the-rachel-maddow-show/51996768",
    "feature_id": "531871",
    "feature_name": "Washington",
    "state_alpha": "DC",
    "county_name": "District of Columbia",
    "county_numeric": "001",
    "prim_lat_dec": "38.8951118",
    "prim_long_dec": "-77.0363658",
    "elev_in_m": "7",
    "elev_in_ft": "23",
    "lat": 38.8951118,
    "long": -77.0363658
  },
  {
    "globaleventid": 255294615,
    "sqldate": 20130525,
    "monthyear": 201305,
    "year": 2013,
    "fractiondate": "2013.3973",
    "eventcode": 112,
    "quadclass": 3,
    "nummentions": 6,
    "numsources": 1,
    "numarticles": 6,
    "avgtone": "2.74621212121212",
    "sourceurl": "http://www.golocalprov.com/politics/travis-rowley-sheldon-whitehouse-radical-embarrassment/",
    "feature_id": "44784",
    "feature_name": "Phoenix",
    "state_alpha": "AZ",
    "county_name": "Maricopa",
    "county_numeric": "013",
    "prim_lat_dec": "33.4483771",
    "prim_long_dec": "-112.0740373",
    "elev_in_m": "331",
    "elev_in_ft": "1086",
    "lat": 33.4483771,
    "long": -112.0740373
  },
  {
    "globaleventid": 255294435,
    "sqldate": 20130525,
    "monthyear": 201305,
    "year": 2013,
    "fractiondate": "2013.3973",
    "eventcode": 141,
    "quadclass": 3,
    "nummentions": 2,
    "numsources": 1,
    "numarticles": 2,
    "avgtone": "1.72711571675302",
    "sourceurl": "http://www.guardian.co.uk/commentisfree/2013/may/25/boston-marathon-bombing-muslim-reflection",
    "feature_id": "617565",
    "feature_name": "Boston",
    "state_alpha": "MA",
    "county_name": "Suffolk",
    "county_numeric": "025",
    "prim_lat_dec": "42.3584308",
    "prim_long_dec": "-71.0597732",
    "elev_in_m": "14",
    "elev_in_ft": "46",
    "lat": 42.3584308,
    "long": -71.0597732
  },
  {
    "globaleventid": 255294434,
    "sqldate": 20130525,
    "monthyear": 201305,
    "year": 2013,
    "fractiondate": "2013.3973",
    "eventcode": 190,
    "quadclass": 4,
    "nummentions": 6,
    "numsources": 1,
    "numarticles": 6,
    "avgtone": "1.18694362017804",
    "sourceurl": "http://www.nypost.com/p/news/opinion/opedcolumnists/bam_mystery_night_j1wPAooDLENhjR5q8k1b0H?utm_medium=rss&utm_content=Oped%20Columnists",
    "feature_id": "847388",
    "feature_name": "Las Vegas",
    "state_alpha": "NV",
    "county_name": "Clark",
    "county_numeric": "003",
    "prim_lat_dec": "36.1749705",
    "prim_long_dec": "-115.137223",
    "elev_in_m": "610",
    "elev_in_ft": "2001",
    "lat": 36.1749705,
    "long": -115.137223
  },