[
  {
    "globaleventid": "316222095",
    "sqldate": "20140929",
    "monthyear": "201409",
    "year": "2014",
    "fractiondate": "2014.737",
    "eventcode": "190",
    "quadclass": "4",
    "nummentions": "4",
    "numsources": "1",
    "numarticles": "4",
    "avgtone": "3.003003003003",
    "sourceurl": "http://www.tallahassee.com/story/opinion/editorials/2014/09/29/others-say-cooperation/16290915/?from=global&sessionKey=&autologin=",
    "feature_id": "531871",
    "feature_name": "Washington",
    "state_alpha": "DC",
    "county_name": "District of Columbia",
    "county_numeric": "001",
    "prim_lat_dec": "38.8951",
    "prim_long_dec": "-77.0364",
    "elev_in_m": "7",
    "elev_in_ft": "23",
    "lat": 38.8951,
    "long": -77.0364
  },
  {
    "globaleventid": "316222094",
    "sqldate": "20140929",
    "monthyear": "201409",
    "year": "2014",
    "fractiondate": "2014.737",
    "eventcode": "190",
    "quadclass": "4",
    "nummentions": "6",
    "numsources": "1",
    "numarticles": "6",
    "avgtone": "1.18577075098814",
    "sourceurl": "http://www.kwwl.com/story/26650980/2014/09/29/braley-and-ernst-clash-in-first-senate-debate",
    "feature_id": "465961",
    "feature_name": "Des Moines",
    "state_alpha": "IA",
    "county_name": "Polk",
    "county_numeric": "153",
    "prim_lat_dec": "41.6005",
    "prim_long_dec": "-93.6091",
    "elev_in_m": "266",
    "elev_in_ft": "873",
    "lat": 41.6005,
    "long": -93.6091
  },
  {
    "globaleventid": "316222087",
    "sqldate": "20140929",
    "monthyear": "201409",
    "year": "2014",
    "fractiondate": "2014.737",
    "eventcode": "173",
    "quadclass": "4",
    "nummentions": "4",
    "numsources": "1",
    "numarticles": "4",
    "avgtone": "2.90178571428571",
    "sourceurl": "http://article.wn.com/view/2014/09/29/Govt_Keenly_Aware_of_GB_Challenges_DPM_says_Government_of_th/",
    "feature_id": "1335095",
    "feature_name": "Edinburg",
    "state_alpha": "TX",
    "county_name": "Hidalgo",
    "county_numeric": "215",
    "prim_lat_dec": "26.3017",
    "prim_long_dec": "-98.1633",
    "elev_in_m": "29",
    "elev_in_ft": "95",
    "lat": 26.3017,
    "long": -98.1633
  },
  {
    "globaleventid": "316222085",
    "sqldate": "20140929",
    "monthyear": "201409",
    "year": "2014",
    "fractiondate": "2014.737",
    "eventcode": "173",
    "quadclass": "4",
    "nummentions": "4",
    "numsources": "1",
    "numarticles": "4",
    "avgtone": "3.10344827586207",
    "sourceurl": "http://www.latimes.com/local/obituaries/la-me-melvin-brunetti3-2009nov03-story.html",
    "feature_id": "861100",
    "feature_name": "Reno",
    "state_alpha": "NV",
    "county_name": "Washoe",
    "county_numeric": "031",
    "prim_lat_dec": "39.5296",
    "prim_long_dec": "-119.814",
    "elev_in_m": "1373",
    "elev_in_ft": "4505",
    "lat": 39.5296,
    "long": -119.814
  },
  {
    "globaleventid": "316222084",
    "sqldate": "20140929",
    "monthyear": "201409",
    "year": "2014",
    "fractiondate": "2014.737",
    "eventcode": "173",
    "quadclass": "4",
    "nummentions": "4",
    "numsources": "1",
    "numarticles": "4",
    "avgtone": "3.08370044052863",
    "sourceurl": "http://www.cincinnati.com/story/news/politics/2014/09/29/george-glover-lobbyist-pleaded-guilty-bengals-ticket-dale-mallory/16448107/?from=global&sessionKey=&autologin=",
    "feature_id": "1066650",
    "feature_name": "Cincinnati",
    "state_alpha": "OH",
    "county_name": "Hamilton",
    "county_numeric": "061",
    "prim_lat_dec": "39.162",
    "prim_long_dec": "-84.4569",
    "elev_in_m": "191",
    "elev_in_ft": "627",
    "lat": 39.162,
    "long": -84.4569
  }
]