[
  {
    "globaleventid": "320592285",
    "sqldate": "20141027",
    "monthyear": "201410",
    "year": "2014",
    "fractiondate": "2014.8137",
    "eventcode": "190",
    "quadclass": "4",
    "nummentions": "2",
    "numsources": "1",
    "numarticles": "2",
    "avgtone": "1.90114068441065",
    "sourceurl": "http://www.wncn.com/story/27052877/man-pleads-guilty-to-womans-murder-outside-chapel-hill-elementary-school",
    "feature_id": "1024242",
    "feature_name": "Raleigh",
    "state_alpha": "NC",
    "county_name": "Wake",
    "county_numeric": "183",
    "prim_lat_dec": "35.7721",
    "prim_long_dec": "-78.6386",
    "elev_in_m": "96",
    "elev_in_ft": "315",
    "lat": 35.7721,
    "long": -78.6386
  },
  {
    "globaleventid": "320592284",
    "sqldate": "20141027",
    "monthyear": "201410",
    "year": "2014",
    "fractiondate": "2014.8137",
    "eventcode": "190",
    "quadclass": "4",
    "nummentions": "1",
    "numsources": "1",
    "numarticles": "1",
    "avgtone": "1.90114068441065",
    "sourceurl": "http://www.wncn.com/story/27052877/man-pleads-guilty-to-womans-murder-outside-chapel-hill-elementary-school",
    "feature_id": "1019601",
    "feature_name": "Chapel Hill",
    "state_alpha": "NC",
    "county_name": "Madison",
    "county_numeric": "115",
    "prim_lat_dec": "35.9429",
    "prim_long_dec": "-82.7088",
    "elev_in_m": "658",
    "elev_in_ft": "2159",
    "lat": 35.9429,
    "long": -82.7088
  },
  {
    "globaleventid": "320592282",
    "sqldate": "20141027",
    "monthyear": "201410",
    "year": "2014",
    "fractiondate": "2014.8137",
    "eventcode": "190",
    "quadclass": "4",
    "nummentions": "11",
    "numsources": "2",
    "numarticles": "11",
    "avgtone": "1.20294649968976",
    "sourceurl": "http://www.wral.com/husband-pleads-guilty-in-wife-s-chapel-hill-shooting-death/14119794/",
    "feature_id": "1019601",
    "feature_name": "Chapel Hill",
    "state_alpha": "NC",
    "county_name": "Madison",
    "county_numeric": "115",
    "prim_lat_dec": "35.9429",
    "prim_long_dec": "-82.7088",
    "elev_in_m": "658",
    "elev_in_ft": "2159",
    "lat": 35.9429,
    "long": -82.7088
  },
  {
    "globaleventid": "320592276",
    "sqldate": "20141027",
    "monthyear": "201410",
    "year": "2014",
    "fractiondate": "2014.8137",
    "eventcode": "182",
    "quadclass": "4",
    "nummentions": "4",
    "numsources": "2",
    "numarticles": "4",
    "avgtone": "1.93801361116536",
    "sourceurl": "http://www.fireengineering.com/articles/2014/10/osha-issues-citations-after-reno-museum-fire.html",
    "feature_id": "861100",
    "feature_name": "Reno",
    "state_alpha": "NV",
    "county_name": "Washoe",
    "county_numeric": "031",
    "prim_lat_dec": "39.5296",
    "prim_long_dec": "-119.814",
    "elev_in_m": "1373",
    "elev_in_ft": "4505",
    "lat": 39.5296,
    "long": -119.814
  },
  {
    "globaleventid": "320592275",
    "sqldate": "20141027",
    "monthyear": "201410",
    "year": "2014",
    "fractiondate": "2014.8137",
    "eventcode": "182",
    "quadclass": "4",
    "nummentions": "8",
    "numsources": "3",
    "numarticles": "8",
    "avgtone": "1.91240303199777",
    "sourceurl": "http://www.fireengineering.com/articles/2014/10/osha-issues-citations-after-reno-museum-fire.html",
    "feature_id": "201738",
    "feature_name": "Denver",
    "state_alpha": "CO",
    "county_name": "Denver",
    "county_numeric": "031",
    "prim_lat_dec": "39.7392",
    "prim_long_dec": "-104.985",
    "elev_in_m": "1609",
    "elev_in_ft": "5279",
    "lat": 39.7392,
    "long": -104.985
  },
  {
    "globaleventid": "320592272",
    "sqldate": "20141027",
    "monthyear": "201410",
    "year": "2014",
    "fractiondate": "2014.8137",
    "eventcode": "180",
    "quadclass": "4",
    "nummentions": "4",
    "numsources": "2",
    "numarticles": "4",
    "avgtone": "1.71224124712497",
    "sourceurl": "http://www.usatoday.com/story/news/nation/2014/10/27/jesse-matthew-appear-by-video/18038073/",
    "feature_id": "1498463",
    "feature_name": "Charlottesville",
    "state_alpha": "VA",
    "county_name": "Charlottesville (city)",
    "county_numeric": "540",
    "prim_lat_dec": "38.0293",
    "prim_long_dec": "-78.4767",
    "elev_in_m": "142",
    "elev_in_ft": "466",
    "lat": 38.0293,
    "long": -78.4767
  },
  {
    "globaleventid": "320592271",
    "sqldate": "20141027",
    "monthyear": "201410",
    "year": "2014",
    "fractiondate": "2014.8137",
    "eventcode": "180",
    "quadclass": "4",
    "nummentions": "2",
    "numsources": "2",
    "numarticles": "2",
    "avgtone": "1.71224124712497",
    "sourceurl": "http://www.usatoday.com/story/news/nation/2014/10/27/jesse-matthew-appear-by-video/18038073/",
    "feature_id": "1498463",
    "feature_name": "Charlottesville",
    "state_alpha": "VA",
    "county_name": "Charlottesville (city)",
    "county_numeric": "540",
    "prim_lat_dec": "38.0293",
    "prim_long_dec": "-78.4767",
    "elev_in_m": "142",
    "elev_in_ft": "466",
    "lat": 38.0293,
    "long": -78.4767
  },
  {
    "globaleventid": "320592266",
    "sqldate": "20141027",
    "monthyear": "201410",
    "year": "2014",
    "fractiondate": "2014.8137",
    "eventcode": "180",
    "quadclass": "4",
    "nummentions": "3",
    "numsources": "1",
    "numarticles": "3",
    "avgtone": "0.0",
    "sourceurl": "http://www.poconorecord.com/article/20141027/NEWS/141029472",
    "feature_id": "1188891",
    "feature_name": "Stroudsburg",
    "state_alpha": "PA",
    "county_name": "Monroe",
    "county_numeric": "089",
    "prim_lat_dec": "40.9868",
    "prim_long_dec": "-75.1946",
    "elev_in_m": "131",
    "elev_in_ft": "430",
    "lat": 40.9868,
    "long": -75.1946
  },
  {
    "globaleventid": "320592260",
    "sqldate": "20141027",
    "monthyear": "201410",
    "year": "2014",
    "fractiondate": "2014.8137",
    "eventcode": "180",
    "quadclass": "4",
    "nummentions": "72",
    "numsources": "13",
    "numarticles": "72",
    "avgtone": "1.04670107310072",
    "sourceurl": "http://www.mycentraljersey.com/story/news/local/2014/10/27/ispeak-survey-chance-rutgers-students-help-stop-campus-sexual-assault/18005341/",
    "feature_id": "531871",
    "feature_name": "Washington",
    "state_alpha": "DC",
    "county_name": "District of Columbia",
    "county_numeric": "001",
    "prim_lat_dec": "38.8951",
    "prim_long_dec": "-77.0364",
    "elev_in_m": "7",
    "elev_in_ft": "23",
    "lat": 38.8951,
    "long": -77.0364
  },
  {
    "globaleventid": "320592256",
    "sqldate": "20141027",
    "monthyear": "201410",
    "year": "2014",
    "fractiondate": "2014.8137",
    "eventcode": "180",
    "quadclass": "4",
    "nummentions": "22",
    "numsources": "3",
    "numarticles": "22",
    "avgtone": "1.13469941056148",
    "sourceurl": "http://mtstandard.com/news/national/university-ex-vp-faces-trial-on-abuse-claims/article_2849c960-297f-52ed-84c7-fcc139171aa3.html",
    "feature_id": "1188891",
    "feature_name": "Stroudsburg",
    "state_alpha": "PA",
    "county_name": "Monroe",
    "county_numeric": "089",
    "prim_lat_dec": "40.9868",
    "prim_long_dec": "-75.1946",
    "elev_in_m": "131",
    "elev_in_ft": "430",
    "lat": 40.9868,
    "long": -75.1946
  },
  {
    "globaleventid": "320592246",
    "sqldate": "20141027",
    "monthyear": "201410",
    "year": "2014",
    "fractiondate": "2014.8137",
    "eventcode": "173",
    "quadclass": "4",
    "nummentions": "4",
    "numsources": "1",
    "numarticles": "4",
    "avgtone": "0.716845878136201",
    "sourceurl": "http://www.katc.com/news/narcotics-agents-arrest-acadiana-crime-lab-employee/",
    "feature_id": "559343",
    "feature_name": "Acadiana",
    "state_alpha": "LA",
    "county_name": "East Baton Rouge",
    "county_numeric": "033",
    "prim_lat_dec": "30.4463",
    "prim_long_dec": "-91.1126",
    "elev_in_m": "14",
    "elev_in_ft": "46",
    "lat": 30.4463,
    "long": -91.1126
  },
  {
    "globaleventid": "320592241",
    "sqldate": "20141027",
    "monthyear": "201410",
    "year": "2014",
    "fractiondate": "2014.8137",
    "eventcode": "173",
    "quadclass": "4",
    "nummentions": "4",
    "numsources": "1",
    "numarticles": "4",
    "avgtone": "0.716845878136201",
    "sourceurl": "http://www.katc.com/news/narcotics-agents-arrest-acadiana-crime-lab-employee/",
    "feature_id": "1629965",
    "feature_name": "Lafayette",
    "state_alpha": "LA",
    "county_name": "Lafayette",
    "county_numeric": "055",
    "prim_lat_dec": "30.2241",
    "prim_long_dec": "-92.0198",
    "elev_in_m": "11",
    "elev_in_ft": "36",
    "lat": 30.2241,
    "long": -92.0198
  },
  {
    "globaleventid": "320592232",
    "sqldate": "20141027",
    "monthyear": "201410",
    "year": "2014",
    "fractiondate": "2014.8137",
    "eventcode": "172",
    "quadclass": "4",
    "nummentions": "10",
    "numsources": "1",
    "numarticles": "10",
    "avgtone": "0.568181818181818",
    "sourceurl": "http://www.bizjournals.com/pittsburgh/blog/morning-edition/2014/10/duquesne-pitt-among-states-top-schools-for-passing.html",
    "feature_id": "1213961",
    "feature_name": "Duquesne",
    "state_alpha": "PA",
    "county_name": "Allegheny",
    "county_numeric": "003",
    "prim_lat_dec": "40.3815",
    "prim_long_dec": "-79.8598",
    "elev_in_m": "280",
    "elev_in_ft": "919",
    "lat": 40.3815,
    "long": -79.8598
  },
  {
    "globaleventid": "320592230",
    "sqldate": "20141027",
    "monthyear": "201410",
    "year": "2014",
    "fractiondate": "2014.8137",
    "eventcode": "172",
    "quadclass": "4",
    "nummentions": "2",
    "numsources": "1",
    "numarticles": "2",
    "avgtone": "2.04778156996587",
    "sourceurl": "http://www.pennlive.com/opinion/2014/10/when_it_comes_to_politics_cali.html",
    "feature_id": "1209052",
    "feature_name": "Philadelphia",
    "state_alpha": "PA",
    "county_name": "Philadelphia",
    "county_numeric": "101",
    "prim_lat_dec": "39.9523",
    "prim_long_dec": "-75.1638",
    "elev_in_m": "14",
    "elev_in_ft": "46",
    "lat": 39.9523,
    "long": -75.1638
  },
  {
    "globaleventid": "320592228",
    "sqldate": "20141027",
    "monthyear": "201410",
    "year": "2014",
    "fractiondate": "2014.8137",
    "eventcode": "172",
    "quadclass": "4",
    "nummentions": "10",
    "numsources": "1",
    "numarticles": "10",
    "avgtone": "0.307692307692308",
    "sourceurl": "http://www.kxii.com/home/headlines/Whitewright-student-arrested-after-threat-to-shoot-up-the-school--280578372.html?ref=372",
    "feature_id": "531871",
    "feature_name": "Washington",
    "state_alpha": "DC",
    "county_name": "District of Columbia",
    "county_numeric": "001",
    "prim_lat_dec": "38.8951",
    "prim_long_dec": "-77.0364",
    "elev_in_m": "7",
    "elev_in_ft": "23",
    "lat": 38.8951,
    "long": -77.0364
  },
  {
    "globaleventid": "320592226",
    "sqldate": "20141027",
    "monthyear": "201410",
    "year": "2014",
    "fractiondate": "2014.8137",
    "eventcode": "172",
    "quadclass": "4",
    "nummentions": "6",
    "numsources": "1",
    "numarticles": "6",
    "avgtone": "0.879973505919464",
    "sourceurl": "http://www.mycentraloregon.com/2014/10/27/police-use-silent-giant-balloon-in-pennsylvania-manhunt-for-eric-frein/",
    "feature_id": "1512435",
    "feature_name": "Marysville",
    "state_alpha": "WA",
    "county_name": "Snohomish",
    "county_numeric": "061",
    "prim_lat_dec": "48.0518",
    "prim_long_dec": "-122.177",
    "elev_in_m": "6",
    "elev_in_ft": "20",
    "lat": 48.0518,
    "long": -122.177
  },
  {
    "globaleventid": "320592225",
    "sqldate": "20141027",
    "monthyear": "201410",
    "year": "2014",
    "fractiondate": "2014.8137",
    "eventcode": "172",
    "quadclass": "4",
    "nummentions": "6",
    "numsources": "1",
    "numarticles": "6",
    "avgtone": "2.04778156996587",
    "sourceurl": "http://www.pennlive.com/opinion/2014/10/when_it_comes_to_politics_cali.html",
    "feature_id": "1209052",
    "feature_name": "Philadelphia",
    "state_alpha": "PA",
    "county_name": "Philadelphia",
    "county_numeric": "101",
    "prim_lat_dec": "39.9523",
    "prim_long_dec": "-75.1638",
    "elev_in_m": "14",
    "elev_in_ft": "46",
    "lat": 39.9523,
    "long": -75.1638
  },
  {
    "globaleventid": "320592217",
    "sqldate": "20141027",
    "monthyear": "201410",
    "year": "2014",
    "fractiondate": "2014.8137",
    "eventcode": "150",
    "quadclass": "4",
    "nummentions": "2",
    "numsources": "1",
    "numarticles": "2",
    "avgtone": "1.42276422764228",
    "sourceurl": "http://www.redding.com/news/local-news/shots-possibly-fired-at-shasta-college-but-officials-say-no-threat-to-public-safety_90765806",
    "feature_id": "277582",
    "feature_name": "Redding",
    "state_alpha": "CA",
    "county_name": "Shasta",
    "county_numeric": "089",
    "prim_lat_dec": "40.5865",
    "prim_long_dec": "-122.392",
    "elev_in_m": "172",
    "elev_in_ft": "564",
    "lat": 40.5865,
    "long": -122.392
  },
  {
    "globaleventid": "320592212",
    "sqldate": "20141027",
    "monthyear": "201410",
    "year": "2014",
    "fractiondate": "2014.8137",
    "eventcode": "138",
    "quadclass": "3",
    "nummentions": "26",
    "numsources": "4",
    "numarticles": "26",
    "avgtone": "0.90636832137102",
    "sourceurl": "http://www.ctpost.com/news/article/Waukegan-teacher-strike-continues-Monday-5849703.php",
    "feature_id": "420650",
    "feature_name": "Waukegan",
    "state_alpha": "IL",
    "county_name": "Lake",
    "county_numeric": "097",
    "prim_lat_dec": "42.3636",
    "prim_long_dec": "-87.8448",
    "elev_in_m": "199",
    "elev_in_ft": "653",
    "lat": 42.3636,
    "long": -87.8448
  },
  {
    "globaleventid": "320592211",
    "sqldate": "20141027",
    "monthyear": "201410",
    "year": "2014",
    "fractiondate": "2014.8137",
    "eventcode": "138",
    "quadclass": "3",
    "nummentions": "8",
    "numsources": "1",
    "numarticles": "8",
    "avgtone": "0.909090909090909",
    "sourceurl": "http://www.chron.com/news/article/Waukegan-teacher-strike-continues-Monday-5849703.php",
    "feature_id": "1381272",
    "feature_name": "Waukegan",
    "state_alpha": "TX",
    "county_name": "Montgomery",
    "county_numeric": "339",
    "prim_lat_dec": "30.3099",
    "prim_long_dec": "-95.3394",
    "elev_in_m": "56",
    "elev_in_ft": "184",
    "lat": 30.3099,
    "long": -95.3394
  },
  {
    "globaleventid": "320592201",
    "sqldate": "20141027",
    "monthyear": "201410",
    "year": "2014",
    "fractiondate": "2014.8137",
    "eventcode": "120",
    "quadclass": "3",
    "nummentions": "2",
    "numsources": "1",
    "numarticles": "2",
    "avgtone": "2.21674876847291",
    "sourceurl": "http://pvtrib.com/main.asp?SectionID=1&SubSectionID=1&ArticleID=62022",
    "feature_id": "33193",
    "feature_name": "Prescott Valley",
    "state_alpha": "AZ",
    "county_name": "Yavapai",
    "county_numeric": "025",
    "prim_lat_dec": "34.61",
    "prim_long_dec": "-112.316",
    "elev_in_m": "1532",
    "elev_in_ft": "5026",
    "lat": 34.61,
    "long": -112.316
  },
  {
    "globaleventid": "320592198",
    "sqldate": "20141027",
    "monthyear": "201410",
    "year": "2014",
    "fractiondate": "2014.8137",
    "eventcode": "120",
    "quadclass": "3",
    "nummentions": "2",
    "numsources": "1",
    "numarticles": "2",
    "avgtone": "2.80373831775701",
    "sourceurl": "http://www.myfoxlubbock.com/news/local/story/Dept-of-Criminal-Justice-searching-for-escaped/iF2l5US2pE6kePJs7to3Ag.cspx",
    "feature_id": "1365375",
    "feature_name": "Plainview",
    "state_alpha": "TX",
    "county_name": "Hale",
    "county_numeric": "189",
    "prim_lat_dec": "34.1848",
    "prim_long_dec": "-101.707",
    "elev_in_m": "1025",
    "elev_in_ft": "3363",
    "lat": 34.1848,
    "long": -101.707
  },
  {
    "globaleventid": "320592197",
    "sqldate": "20141027",
    "monthyear": "201410",
    "year": "2014",
    "fractiondate": "2014.8137",
    "eventcode": "120",
    "quadclass": "3",
    "nummentions": "2",
    "numsources": "1",
    "numarticles": "2",
    "avgtone": "1.70648464163823",
    "sourceurl": "http://www.poconorecord.com/article/20141026/NEWS/141029573/101103/NEWS",
    "feature_id": "1202899",
    "feature_name": "Allentown",
    "state_alpha": "PA",
    "county_name": "Allegheny",
    "county_numeric": "003",
    "prim_lat_dec": "40.4276",
    "prim_long_dec": "-79.9939",
    "elev_in_m": "261",
    "elev_in_ft": "856",
    "lat": 40.4276,
    "long": -79.9939
  },
  {
    "globaleventid": "320592189",
    "sqldate": "20141027",
    "monthyear": "201410",
    "year": "2014",
    "fractiondate": "2014.8137",
    "eventcode": "112",
    "quadclass": "3",
    "nummentions": "5",
    "numsources": "1",
    "numarticles": "5",
    "avgtone": "0.0",
    "sourceurl": "http://www.abcactionnews.com/news/region-polk/bartow/bartow-high-school-teacher-arrested-accused-of-marijuana-possession",
    "feature_id": "294459",
    "feature_name": "Lakeland",
    "state_alpha": "FL",
    "county_name": "Polk",
    "county_numeric": "105",
    "prim_lat_dec": "28.0395",
    "prim_long_dec": "-81.9498",
    "elev_in_m": "59",
    "elev_in_ft": "194",
    "lat": 28.0395,
    "long": -81.9498
  },
  {
    "globaleventid": "320592178",
    "sqldate": "20141027",
    "monthyear": "201410",
    "year": "2014",
    "fractiondate": "2014.8137",
    "eventcode": "111",
    "quadclass": "3",
    "nummentions": "4",
    "numsources": "2",
    "numarticles": "4",
    "avgtone": "1.2448132780083",
    "sourceurl": "http://www.bbc.com/news/world-us-canada-29783738",
    "feature_id": "1512740",
    "feature_name": "Tulalip",
    "state_alpha": "WA",
    "county_name": "Snohomish",
    "county_numeric": "061",
    "prim_lat_dec": "48.0684",
    "prim_long_dec": "-122.292",
    "elev_in_m": "30",
    "elev_in_ft": "98",
    "lat": 48.0684,
    "long": -122.292
  },
  {
    "globaleventid": "320592177",
    "sqldate": "20141027",
    "monthyear": "201410",
    "year": "2014",
    "fractiondate": "2014.8137",
    "eventcode": "111",
    "quadclass": "3",
    "nummentions": "2",
    "numsources": "1",
    "numarticles": "2",
    "avgtone": "0.859170713485245",
    "sourceurl": "http://www.standartnews.com/english/read/a_love_story_with_no_happy_end_second_girl_dies_in_newest_us_school_shooting_-6015.html",
    "feature_id": "1512740",
    "feature_name": "Tulalip",
    "state_alpha": "WA",
    "county_name": "Snohomish",
    "county_numeric": "061",
    "prim_lat_dec": "48.0684",
    "prim_long_dec": "-122.292",
    "elev_in_m": "30",
    "elev_in_ft": "98",
    "lat": 48.0684,
    "long": -122.292
  },
  {
    "globaleventid": "320592176",
    "sqldate": "20141027",
    "monthyear": "201410",
    "year": "2014",
    "fractiondate": "2014.8137",
    "eventcode": "111",
    "quadclass": "3",
    "nummentions": "4",
    "numsources": "2",
    "numarticles": "4",
    "avgtone": "1.2448132780083",
    "sourceurl": "http://www.bbc.com/news/world-us-canada-29783738",
    "feature_id": "1512740",
    "feature_name": "Tulalip",
    "state_alpha": "WA",
    "county_name": "Snohomish",
    "county_numeric": "061",
    "prim_lat_dec": "48.0684",
    "prim_long_dec": "-122.292",
    "elev_in_m": "30",
    "elev_in_ft": "98",
    "lat": 48.0684,
    "long": -122.292
  },
  {
    "globaleventid": "320592162",
    "sqldate": "20141027",
    "monthyear": "201410",
    "year": "2014",
    "fractiondate": "2014.8137",
    "eventcode": "110",
    "quadclass": "3",
    "nummentions": "2",
    "numsources": "1",
    "numarticles": "2",
    "avgtone": "0.968188105117566",
    "sourceurl": "http://www.streetsblog.org/2014/10/27/its-still-legal-to-run-over-a-child-on-a-new-york-city-sidewalk/",
    "feature_id": "944840",
    "feature_name": "Brooklyn",
    "state_alpha": "NY",
    "county_name": "Delaware",
    "county_numeric": "025",
    "prim_lat_dec": "42.3442",
    "prim_long_dec": "-75.1704",
    "elev_in_m": "366",
    "elev_in_ft": "1201",
    "lat": 42.3442,
    "long": -75.1704
  },
  {
    "globaleventid": "320592160",
    "sqldate": "20141027",
    "monthyear": "201410",
    "year": "2014",
    "fractiondate": "2014.8137",
    "eventcode": "110",
    "quadclass": "3",
    "nummentions": "12",
    "numsources": "1",
    "numarticles": "8",
    "avgtone": "1.84790334044065",
    "sourceurl": "http://www.pressandguide.com/articles/2014/10/27//news/doc54466ab9a046f499165752.txt",
    "feature_id": "624432",
    "feature_name": "Dearborn",
    "state_alpha": "MI",
    "county_name": "Wayne",
    "county_numeric": "163",
    "prim_lat_dec": "42.3223",
    "prim_long_dec": "-83.1763",
    "elev_in_m": "180",
    "elev_in_ft": "591",
    "lat": 42.3223,
    "long": -83.1763
  },
  {
    "globaleventid": "320592159",
    "sqldate": "20141027",
    "monthyear": "201410",
    "year": "2014",
    "fractiondate": "2014.8137",
    "eventcode": "110",
    "quadclass": "3",
    "nummentions": "6",
    "numsources": "3",
    "numarticles": "6",
    "avgtone": "2.22700989074088",
    "sourceurl": "http://journaltimes.com/news/state-and-regional/scott-walker-mary-burke-enter-final-week-of-campaign/article_b054dc50-f6c4-5db3-9014-47d58a96701c.html",
    "feature_id": "531871",
    "feature_name": "Washington",
    "state_alpha": "DC",
    "county_name": "District of Columbia",
    "county_numeric": "001",
    "prim_lat_dec": "38.8951",
    "prim_long_dec": "-77.0364",
    "elev_in_m": "7",
    "elev_in_ft": "23",
    "lat": 38.8951,
    "long": -77.0364
  },
  {
    "globaleventid": "320592155",
    "sqldate": "20141027",
    "monthyear": "201410",
    "year": "2014",
    "fractiondate": "2014.8137",
    "eventcode": "110",
    "quadclass": "3",
    "nummentions": "4",
    "numsources": "1",
    "numarticles": "4",
    "avgtone": "2.85132382892057",
    "sourceurl": "http://www.wiscnews.com/bdc/news/local/article_e47978eb-1dbf-5db8-b48e-ae9a6a6c7a63.html",
    "feature_id": "1561457",
    "feature_name": "Beaver Dam",
    "state_alpha": "WI",
    "county_name": "Dodge",
    "county_numeric": "027",
    "prim_lat_dec": "43.4578",
    "prim_long_dec": "-88.8373",
    "elev_in_m": "268",
    "elev_in_ft": "879",
    "lat": 43.4578,
    "long": -88.8373
  },
  {
    "globaleventid": "320592151",
    "sqldate": "20141027",
    "monthyear": "201410",
    "year": "2014",
    "fractiondate": "2014.8137",
    "eventcode": "110",
    "quadclass": "3",
    "nummentions": "6",
    "numsources": "1",
    "numarticles": "6",
    "avgtone": "3.95480225988701",
    "sourceurl": "http://www.indianagazette.com/news/indiana-news/marion-center-team-wins-ecology-contest,20833354/",
    "feature_id": "1180411",
    "feature_name": "Marion Center",
    "state_alpha": "PA",
    "county_name": "Indiana",
    "county_numeric": "063",
    "prim_lat_dec": "40.7701",
    "prim_long_dec": "-79.05",
    "elev_in_m": "392",
    "elev_in_ft": "1286",
    "lat": 40.7701,
    "long": -79.05
  },
  {
    "globaleventid": "320592148",
    "sqldate": "20141027",
    "monthyear": "201410",
    "year": "2014",
    "fractiondate": "2014.8137",
    "eventcode": "101",
    "quadclass": "3",
    "nummentions": "4",
    "numsources": "1",
    "numarticles": "4",
    "avgtone": "0.852878464818763",
    "sourceurl": "http://6abc.com/news/parents-demand-answers-of-charter-school-closes-abruptly/367966/",
    "feature_id": "1209052",
    "feature_name": "Philadelphia",
    "state_alpha": "PA",
    "county_name": "Philadelphia",
    "county_numeric": "101",
    "prim_lat_dec": "39.9523",
    "prim_long_dec": "-75.1638",
    "elev_in_m": "14",
    "elev_in_ft": "46",
    "lat": 39.9523,
    "long": -75.1638
  },
  {
    "globaleventid": "320592143",
    "sqldate": "20141027",
    "monthyear": "201410",
    "year": "2014",
    "fractiondate": "2014.8137",
    "eventcode": "100",
    "quadclass": "3",
    "nummentions": "2",
    "numsources": "1",
    "numarticles": "2",
    "avgtone": "3.92156862745098",
    "sourceurl": "http://www.observer-reporter.com/article/20141027/NEWS01/141029463",
    "feature_id": "531871",
    "feature_name": "Washington",
    "state_alpha": "DC",
    "county_name": "District of Columbia",
    "county_numeric": "001",
    "prim_lat_dec": "38.8951",
    "prim_long_dec": "-77.0364",
    "elev_in_m": "7",
    "elev_in_ft": "23",
    "lat": 38.8951,
    "long": -77.0364
  },
  {
    "globaleventid": "320591282",
    "sqldate": "20141027",
    "monthyear": "201410",
    "year": "2014",
    "fractiondate": "2014.8137",
    "eventcode": "120",
    "quadclass": "3",
    "nummentions": "6",
    "numsources": "1",
    "numarticles": "6",
    "avgtone": "3.53356890459364",
    "sourceurl": "http://www.telegram.com/article/20141027/NEWS/141029908&Template=printart",
    "feature_id": "617867",
    "feature_name": "Worcester",
    "state_alpha": "MA",
    "county_name": "Worcester",
    "county_numeric": "027",
    "prim_lat_dec": "42.2626",
    "prim_long_dec": "-71.8023",
    "elev_in_m": "146",
    "elev_in_ft": "479",
    "lat": 42.2626,
    "long": -71.8023
  },
  {
    "globaleventid": "320591281",
    "sqldate": "20141027",
    "monthyear": "201410",
    "year": "2014",
    "fractiondate": "2014.8137",
    "eventcode": "120",
    "quadclass": "3",
    "nummentions": "12",
    "numsources": "1",
    "numarticles": "12",
    "avgtone": "3.42644308505473",
    "sourceurl": "http://www.telegram.com/article/20141027/NEWS/141029908/0/FRONTPAGE",
    "feature_id": "617565",
    "feature_name": "Boston",
    "state_alpha": "MA",
    "county_name": "Suffolk",
    "county_numeric": "025",
    "prim_lat_dec": "42.3584",
    "prim_long_dec": "-71.0598",
    "elev_in_m": "14",
    "elev_in_ft": "46",
    "lat": 42.3584,
    "long": -71.0598
  },
  {
    "globaleventid": "320591280",
    "sqldate": "20141027",
    "monthyear": "201410",
    "year": "2014",
    "fractiondate": "2014.8137",
    "eventcode": "120",
    "quadclass": "3",
    "nummentions": "2",
    "numsources": "1",
    "numarticles": "2",
    "avgtone": "3.53356890459364",
    "sourceurl": "http://www.telegram.com/article/20141027/NEWS/141029908&Template=printart",
    "feature_id": "617565",
    "feature_name": "Boston",
    "state_alpha": "MA",
    "county_name": "Suffolk",
    "county_numeric": "025",
    "prim_lat_dec": "42.3584",
    "prim_long_dec": "-71.0598",
    "elev_in_m": "14",
    "elev_in_ft": "46",
    "lat": 42.3584,
    "long": -71.0598
  },
  {
    "globaleventid": "320591275",
    "sqldate": "20141027",
    "monthyear": "201410",
    "year": "2014",
    "fractiondate": "2014.8137",
    "eventcode": "112",
    "quadclass": "3",
    "nummentions": "6",
    "numsources": "4",
    "numarticles": "6",
    "avgtone": "1.85024829685288",
    "sourceurl": "http://news.nationalpost.com/2014/10/27/cia-and-other-u-s-agencies-at-least-a-thousand-nazis-as-spies-and-informants-during-the-cold-war/",
    "feature_id": "617565",
    "feature_name": "Boston",
    "state_alpha": "MA",
    "county_name": "Suffolk",
    "county_numeric": "025",
    "prim_lat_dec": "42.3584",
    "prim_long_dec": "-71.0598",
    "elev_in_m": "14",
    "elev_in_ft": "46",
    "lat": 42.3584,
    "long": -71.0598
  },
  {
    "globaleventid": "320591183",
    "sqldate": "20141027",
    "monthyear": "201410",
    "year": "2014",
    "fractiondate": "2014.8137",
    "eventcode": "193",
    "quadclass": "4",
    "nummentions": "4",
    "numsources": "1",
    "numarticles": "4",
    "avgtone": "2.18181818181818",
    "sourceurl": "http://article.wn.com/view/2014/10/27/Gia_Soriano_14_dies_after_being_wounded_in_school_shooting_h/",
    "feature_id": "531871",
    "feature_name": "Washington",
    "state_alpha": "DC",
    "county_name": "District of Columbia",
    "county_numeric": "001",
    "prim_lat_dec": "38.8951",
    "prim_long_dec": "-77.0364",
    "elev_in_m": "7",
    "elev_in_ft": "23",
    "lat": 38.8951,
    "long": -77.0364
  },
  {
    "globaleventid": "320591182",
    "sqldate": "20141027",
    "monthyear": "201410",
    "year": "2014",
    "fractiondate": "2014.8137",
    "eventcode": "193",
    "quadclass": "4",
    "nummentions": "2",
    "numsources": "1",
    "numarticles": "2",
    "avgtone": "3.89972144846797",
    "sourceurl": "http://tribecacitizen.com/2014/10/27/newsletter-oct-27-2/",
    "feature_id": "529941",
    "feature_name": "Park Place",
    "state_alpha": "DC",
    "county_name": "District of Columbia",
    "county_numeric": "001",
    "prim_lat_dec": "38.9307",
    "prim_long_dec": "-77.0053",
    "elev_in_m": "58",
    "elev_in_ft": "190",
    "lat": 38.9307,
    "long": -77.0053
  },
  {
    "globaleventid": "320591181",
    "sqldate": "20141027",
    "monthyear": "201410",
    "year": "2014",
    "fractiondate": "2014.8137",
    "eventcode": "193",
    "quadclass": "4",
    "nummentions": "46",
    "numsources": "5",
    "numarticles": "46",
    "avgtone": "0.0",
    "sourceurl": "http://www.news8000.com/news/northwest-iowa-pheasant-hunter-shot/29354998",
    "feature_id": "461653",
    "feature_name": "Sioux City",
    "state_alpha": "IA",
    "county_name": "Woodbury",
    "county_numeric": "193",
    "prim_lat_dec": "42.5",
    "prim_long_dec": "-96.4003",
    "elev_in_m": "366",
    "elev_in_ft": "1201",
    "lat": 42.5,
    "long": -96.4003
  },
  {
    "globaleventid": "320591180",
    "sqldate": "20141027",
    "monthyear": "201410",
    "year": "2014",
    "fractiondate": "2014.8137",
    "eventcode": "193",
    "quadclass": "4",
    "nummentions": "2",
    "numsources": "1",
    "numarticles": "2",
    "avgtone": "1.985559566787",
    "sourceurl": "http://article.wn.com/view/2014/10/27/14yearold_wounded_in_US_school_shooting_dies/",
    "feature_id": "201738",
    "feature_name": "Denver",
    "state_alpha": "CO",
    "county_name": "Denver",
    "county_numeric": "031",
    "prim_lat_dec": "39.7392",
    "prim_long_dec": "-104.985",
    "elev_in_m": "1609",
    "elev_in_ft": "5279",
    "lat": 39.7392,
    "long": -104.985
  },
  {
    "globaleventid": "320591179",
    "sqldate": "20141027",
    "monthyear": "201410",
    "year": "2014",
    "fractiondate": "2014.8137",
    "eventcode": "193",
    "quadclass": "4",
    "nummentions": "2",
    "numsources": "1",
    "numarticles": "2",
    "avgtone": "1.985559566787",
    "sourceurl": "http://article.wn.com/view/2014/10/27/14yearold_wounded_in_US_school_shooting_dies/",
    "feature_id": "201738",
    "feature_name": "Denver",
    "state_alpha": "CO",
    "county_name": "Denver",
    "county_numeric": "031",
    "prim_lat_dec": "39.7392",
    "prim_long_dec": "-104.985",
    "elev_in_m": "1609",
    "elev_in_ft": "5279",
    "lat": 39.7392,
    "long": -104.985
  },
  {
    "globaleventid": "320591178",
    "sqldate": "20141027",
    "monthyear": "201410",
    "year": "2014",
    "fractiondate": "2014.8137",
    "eventcode": "193",
    "quadclass": "4",
    "nummentions": "1",
    "numsources": "1",
    "numarticles": "1",
    "avgtone": "1.985559566787",
    "sourceurl": "http://article.wn.com/view/2014/10/27/14yearold_wounded_in_US_school_shooting_dies/",
    "feature_id": "1512435",
    "feature_name": "Marysville",
    "state_alpha": "WA",
    "county_name": "Snohomish",
    "county_numeric": "061",
    "prim_lat_dec": "48.0518",
    "prim_long_dec": "-122.177",
    "elev_in_m": "6",
    "elev_in_ft": "20",
    "lat": 48.0518,
    "long": -122.177
  },
  {
    "globaleventid": "320591177",
    "sqldate": "20141027",
    "monthyear": "201410",
    "year": "2014",
    "fractiondate": "2014.8137",
    "eventcode": "193",
    "quadclass": "4",
    "nummentions": "4",
    "numsources": "1",
    "numarticles": "4",
    "avgtone": "0.404858299595142",
    "sourceurl": "http://www.wkow.com/story/27023000/2014/10/27/beloit-police-investigating-shooting-near-dewey-townline-asking-resident-to-avoid-area",
    "feature_id": "1561548",
    "feature_name": "Beloit",
    "state_alpha": "WI",
    "county_name": "Rock",
    "county_numeric": "105",
    "prim_lat_dec": "42.5083",
    "prim_long_dec": "-89.0318",
    "elev_in_m": "229",
    "elev_in_ft": "751",
    "lat": 42.5083,
    "long": -89.0318
  },
  {
    "globaleventid": "320591173",
    "sqldate": "20141027",
    "monthyear": "201410",
    "year": "2014",
    "fractiondate": "2014.8137",
    "eventcode": "193",
    "quadclass": "4",
    "nummentions": "10",
    "numsources": "1",
    "numarticles": "10",
    "avgtone": "3.71428571428571",
    "sourceurl": "http://wtvr.com/2014/10/27/mosby-court-triple-shooting-witness/",
    "feature_id": "1499957",
    "feature_name": "Richmond",
    "state_alpha": "VA",
    "county_name": "Richmond (city)",
    "county_numeric": "760",
    "prim_lat_dec": "37.5538",
    "prim_long_dec": "-77.4603",
    "elev_in_m": "64",
    "elev_in_ft": "210",
    "lat": 37.5538,
    "long": -77.4603
  },
  {
    "globaleventid": "320591171",
    "sqldate": "20141027",
    "monthyear": "201410",
    "year": "2014",
    "fractiondate": "2014.8137",
    "eventcode": "192",
    "quadclass": "4",
    "nummentions": "4",
    "numsources": "1",
    "numarticles": "4",
    "avgtone": "2.55474452554745",
    "sourceurl": "http://elderofziyon.blogspot.com/2014/10/levittown-1957-and-kfar-hashiloach-2014.html",
    "feature_id": "1179230",
    "feature_name": "Levittown",
    "state_alpha": "PA",
    "county_name": "Bucks",
    "county_numeric": "017",
    "prim_lat_dec": "40.1551",
    "prim_long_dec": "-74.8288",
    "elev_in_m": "10",
    "elev_in_ft": "33",
    "lat": 40.1551,
    "long": -74.8288
  },
  {
    "globaleventid": "320591167",
    "sqldate": "20141027",
    "monthyear": "201410",
    "year": "2014",
    "fractiondate": "2014.8137",
    "eventcode": "190",
    "quadclass": "4",
    "nummentions": "4",
    "numsources": "1",
    "numarticles": "4",
    "avgtone": "0.99009900990099",
    "sourceurl": "http://www.wickedlocal.com/article/20141027/NEWS/141026863/12715/NEWS",
    "feature_id": "617571",
    "feature_name": "Brockton",
    "state_alpha": "MA",
    "county_name": "Plymouth",
    "county_numeric": "023",
    "prim_lat_dec": "42.0834",
    "prim_long_dec": "-71.0184",
    "elev_in_m": "34",
    "elev_in_ft": "112",
    "lat": 42.0834,
    "long": -71.0184
  },
  {
    "globaleventid": "320591161",
    "sqldate": "20141027",
    "monthyear": "201410",
    "year": "2014",
    "fractiondate": "2014.8137",
    "eventcode": "190",
    "quadclass": "4",
    "nummentions": "6",
    "numsources": "1",
    "numarticles": "4",
    "avgtone": "6.81173131504257",
    "sourceurl": "http://buckslocalnews.com/articles/2014/10/27/bristol_pilot/news/doc542efe16e871a906579150.txt",
    "feature_id": "1209052",
    "feature_name": "Philadelphia",
    "state_alpha": "PA",
    "county_name": "Philadelphia",
    "county_numeric": "101",
    "prim_lat_dec": "39.9523",
    "prim_long_dec": "-75.1638",
    "elev_in_m": "14",
    "elev_in_ft": "46",
    "lat": 39.9523,
    "long": -75.1638
  },
  {
    "globaleventid": "320591159",
    "sqldate": "20141027",
    "monthyear": "201410",
    "year": "2014",
    "fractiondate": "2014.8137",
    "eventcode": "182",
    "quadclass": "4",
    "nummentions": "4",
    "numsources": "1",
    "numarticles": "4",
    "avgtone": "2.90322580645161",
    "sourceurl": "http://www.azfamily.com/news/Flagstaff-firefighters-perform-2-technical-rescues-on-Mount-Elden-in-3-days-280545492.html",
    "feature_id": "44784",
    "feature_name": "Phoenix",
    "state_alpha": "AZ",
    "county_name": "Maricopa",
    "county_numeric": "013",
    "prim_lat_dec": "33.4484",
    "prim_long_dec": "-112.074",
    "elev_in_m": "331",
    "elev_in_ft": "1086",
    "lat": 33.4484,
    "long": -112.074
  },
  {
    "globaleventid": "320591158",
    "sqldate": "20141027",
    "monthyear": "201410",
    "year": "2014",
    "fractiondate": "2014.8137",
    "eventcode": "181",
    "quadclass": "4",
    "nummentions": "3",
    "numsources": "1",
    "numarticles": "3",
    "avgtone": "0.862068965517241",
    "sourceurl": "http://www.wkyc.com/story/news/local/cuyahoga-county/2014/10/27/amy-mihaljevic-murder-25-years-later/17998943/",
    "feature_id": "1064393",
    "feature_name": "Bay Village",
    "state_alpha": "OH",
    "county_name": "Cuyahoga",
    "county_numeric": "035",
    "prim_lat_dec": "41.4848",
    "prim_long_dec": "-81.9221",
    "elev_in_m": "193",
    "elev_in_ft": "633",
    "lat": 41.4848,
    "long": -81.9221
  },
  {
    "globaleventid": "320591147",
    "sqldate": "20141027",
    "monthyear": "201410",
    "year": "2014",
    "fractiondate": "2014.8137",
    "eventcode": "173",
    "quadclass": "4",
    "nummentions": "4",
    "numsources": "1",
    "numarticles": "4",
    "avgtone": "1.83028286189684",
    "sourceurl": "http://www.opposingviews.com/i/columns/washington-high-school-shooting-another-sign-america-s-warped-attitude-guns",
    "feature_id": "531871",
    "feature_name": "Washington",
    "state_alpha": "DC",
    "county_name": "District of Columbia",
    "county_numeric": "001",
    "prim_lat_dec": "38.8951",
    "prim_long_dec": "-77.0364",
    "elev_in_m": "7",
    "elev_in_ft": "23",
    "lat": 38.8951,
    "long": -77.0364
  },
  {
    "globaleventid": "320591143",
    "sqldate": "20141027",
    "monthyear": "201410",
    "year": "2014",
    "fractiondate": "2014.8137",
    "eventcode": "173",
    "quadclass": "4",
    "nummentions": "4",
    "numsources": "1",
    "numarticles": "4",
    "avgtone": "1.1070110701107",
    "sourceurl": "http://www.texomashomepage.com/story/d/story/jury-deliberating-in-texoma-cold-case-trial/35127/80ZnWQbFeEi1TE2zkrU_HA",
    "feature_id": "1380119",
    "feature_name": "Mabelle",
    "state_alpha": "TX",
    "county_name": "Baylor",
    "county_numeric": "023",
    "prim_lat_dec": "33.6701",
    "prim_long_dec": "-99.1392",
    "elev_in_m": "393",
    "elev_in_ft": "1289",
    "lat": 33.6701,
    "long": -99.1392
  },
  {
    "globaleventid": "320591142",
    "sqldate": "20141027",
    "monthyear": "201410",
    "year": "2014",
    "fractiondate": "2014.8137",
    "eventcode": "173",
    "quadclass": "4",
    "nummentions": "2",
    "numsources": "1",
    "numarticles": "2",
    "avgtone": "2.54385964912281",
    "sourceurl": "http://rapidcityjournal.com/news/mental-health-crisis-part-south-dakota-crippled-by-surge-of/article_95e8e093-8d9e-57eb-b2f2-a687fb82a898.html",
    "feature_id": "1267670",
    "feature_name": "Sioux Falls",
    "state_alpha": "SD",
    "county_name": "Minnehaha",
    "county_numeric": "099",
    "prim_lat_dec": "43.55",
    "prim_long_dec": "-96.7003",
    "elev_in_m": "449",
    "elev_in_ft": "1473",
    "lat": 43.55,
    "long": -96.7003
  },
  {
    "globaleventid": "320591140",
    "sqldate": "20141027",
    "monthyear": "201410",
    "year": "2014",
    "fractiondate": "2014.8137",
    "eventcode": "1723",
    "quadclass": "4",
    "nummentions": "10",
    "numsources": "2",
    "numarticles": "10",
    "avgtone": "0.3690036900369",
    "sourceurl": "http://www.tribtown.com/view/story/f6a55739c8da4fa78a834e3078b70d9c/US--Hawaii-Volcano",
    "feature_id": "366212",
    "feature_name": "Honolulu",
    "state_alpha": "HI",
    "county_name": "Honolulu",
    "county_numeric": "003",
    "prim_lat_dec": "21.3069",
    "prim_long_dec": "-157.858",
    "elev_in_m": "5",
    "elev_in_ft": "16",
    "lat": 21.3069,
    "long": -157.858
  },
  {
    "globaleventid": "320591137",
    "sqldate": "20141027",
    "monthyear": "201410",
    "year": "2014",
    "fractiondate": "2014.8137",
    "eventcode": "172",
    "quadclass": "4",
    "nummentions": "5",
    "numsources": "1",
    "numarticles": "5",
    "avgtone": "1.70316301703163",
    "sourceurl": "http://nationswell.com/compost-increases-marin-county-soils-ability-to-store-carbon/",
    "feature_id": "277593",
    "feature_name": "San Francisco",
    "state_alpha": "CA",
    "county_name": "San Francisco",
    "county_numeric": "075",
    "prim_lat_dec": "37.775",
    "prim_long_dec": "-122.419",
    "elev_in_m": "16",
    "elev_in_ft": "52",
    "lat": 37.775,
    "long": -122.419
  },
  {
    "globaleventid": "320591136",
    "sqldate": "20141027",
    "monthyear": "201410",
    "year": "2014",
    "fractiondate": "2014.8137",
    "eventcode": "172",
    "quadclass": "4",
    "nummentions": "8",
    "numsources": "1",
    "numarticles": "8",
    "avgtone": "2.06896551724138",
    "sourceurl": "http://www.opposingviews.com/i/society/animal-rights/fatally-mauled-toddler-daxs-dad-runs-ad-support-bsl-pit-bull-lovers-send-hat",
    "feature_id": "201738",
    "feature_name": "Denver",
    "state_alpha": "CO",
    "county_name": "Denver",
    "county_numeric": "031",
    "prim_lat_dec": "39.7392",
    "prim_long_dec": "-104.985",
    "elev_in_m": "1609",
    "elev_in_ft": "5279",
    "lat": 39.7392,
    "long": -104.985
  },
  {
    "globaleventid": "320591135",
    "sqldate": "20141027",
    "monthyear": "201410",
    "year": "2014",
    "fractiondate": "2014.8137",
    "eventcode": "172",
    "quadclass": "4",
    "nummentions": "2",
    "numsources": "1",
    "numarticles": "2",
    "avgtone": "1.72872340425532",
    "sourceurl": "http://www.texasobserver.org/fracking-ban-wagon-denton/",
    "feature_id": "1334260",
    "feature_name": "Denton",
    "state_alpha": "TX",
    "county_name": "Denton",
    "county_numeric": "121",
    "prim_lat_dec": "33.2148",
    "prim_long_dec": "-97.1331",
    "elev_in_m": "201",
    "elev_in_ft": "659",
    "lat": 33.2148,
    "long": -97.1331
  },
  {
    "globaleventid": "320591131",
    "sqldate": "20141027",
    "monthyear": "201410",
    "year": "2014",
    "fractiondate": "2014.8137",
    "eventcode": "154",
    "quadclass": "4",
    "nummentions": "2",
    "numsources": "1",
    "numarticles": "2",
    "avgtone": "2.42214532871972",
    "sourceurl": "http://www.prweb.com/releases/2014/10/prweb12263746.htm",
    "feature_id": "1064305",
    "feature_name": "Akron",
    "state_alpha": "OH",
    "county_name": "Summit",
    "county_numeric": "153",
    "prim_lat_dec": "41.0814",
    "prim_long_dec": "-81.519",
    "elev_in_m": "293",
    "elev_in_ft": "961",
    "lat": 41.0814,
    "long": -81.519
  },
  {
    "globaleventid": "320591126",
    "sqldate": "20141027",
    "monthyear": "201410",
    "year": "2014",
    "fractiondate": "2014.8137",
    "eventcode": "141",
    "quadclass": "3",
    "nummentions": "6",
    "numsources": "1",
    "numarticles": "6",
    "avgtone": "4.19161676646707",
    "sourceurl": "http://www.poconorecord.com/article/20141027/OPINION/141029512/101135/NEWS04",
    "feature_id": "1188891",
    "feature_name": "Stroudsburg",
    "state_alpha": "PA",
    "county_name": "Monroe",
    "county_numeric": "089",
    "prim_lat_dec": "40.9868",
    "prim_long_dec": "-75.1946",
    "elev_in_m": "131",
    "elev_in_ft": "430",
    "lat": 40.9868,
    "long": -75.1946
  },
  {
    "globaleventid": "320591120",
    "sqldate": "20141027",
    "monthyear": "201410",
    "year": "2014",
    "fractiondate": "2014.8137",
    "eventcode": "130",
    "quadclass": "3",
    "nummentions": "42",
    "numsources": "20",
    "numarticles": "42",
    "avgtone": "0.625569834831753",
    "sourceurl": "http://www.starnewsonline.com/article/20141027/APA/310279827",
    "feature_id": "366212",
    "feature_name": "Honolulu",
    "state_alpha": "HI",
    "county_name": "Honolulu",
    "county_numeric": "003",
    "prim_lat_dec": "21.3069",
    "prim_long_dec": "-157.858",
    "elev_in_m": "5",
    "elev_in_ft": "16",
    "lat": 21.3069,
    "long": -157.858
  },
  {
    "globaleventid": "320591109",
    "sqldate": "20141027",
    "monthyear": "201410",
    "year": "2014",
    "fractiondate": "2014.8137",
    "eventcode": "120",
    "quadclass": "3",
    "nummentions": "4",
    "numsources": "1",
    "numarticles": "4",
    "avgtone": "1.6040831206708",
    "sourceurl": "http://www.recordonline.com/article/20141027/NEWS/141109999",
    "feature_id": "979938",
    "feature_name": "Kiryas Joel",
    "state_alpha": "NY",
    "county_name": "Orange",
    "county_numeric": "071",
    "prim_lat_dec": "41.342",
    "prim_long_dec": "-74.1679",
    "elev_in_m": "209",
    "elev_in_ft": "686",
    "lat": 41.342,
    "long": -74.1679
  },
  {
    "globaleventid": "320591106",
    "sqldate": "20141027",
    "monthyear": "201410",
    "year": "2014",
    "fractiondate": "2014.8137",
    "eventcode": "120",
    "quadclass": "3",
    "nummentions": "5",
    "numsources": "1",
    "numarticles": "5",
    "avgtone": "3.19148936170213",
    "sourceurl": "http://article.wn.com/view/2014/10/27/Tuition_Increase_Slows_Still_Means_254_More_Per_Year_InState/",
    "feature_id": "295004",
    "feature_name": "Miami",
    "state_alpha": "FL",
    "county_name": "Miami-Dade",
    "county_numeric": "086",
    "prim_lat_dec": "25.7743",
    "prim_long_dec": "-80.1937",
    "elev_in_m": "2",
    "elev_in_ft": "7",
    "lat": 25.7743,
    "long": -80.1937
  },
  {
    "globaleventid": "320591105",
    "sqldate": "20141027",
    "monthyear": "201410",
    "year": "2014",
    "fractiondate": "2014.8137",
    "eventcode": "120",
    "quadclass": "3",
    "nummentions": "1",
    "numsources": "1",
    "numarticles": "1",
    "avgtone": "1.25",
    "sourceurl": "http://www.utsandiego.com/news/2014/oct/27/stay-rejected-nuclear-settlement/",
    "feature_id": "277616",
    "feature_name": "San Bruno",
    "state_alpha": "CA",
    "county_name": "San Mateo",
    "county_numeric": "081",
    "prim_lat_dec": "37.6305",
    "prim_long_dec": "-122.411",
    "elev_in_m": "6",
    "elev_in_ft": "20",
    "lat": 37.6305,
    "long": -122.411
  },
  {
    "globaleventid": "320591104",
    "sqldate": "20141027",
    "monthyear": "201410",
    "year": "2014",
    "fractiondate": "2014.8137",
    "eventcode": "120",
    "quadclass": "3",
    "nummentions": "1",
    "numsources": "1",
    "numarticles": "1",
    "avgtone": "1.25",
    "sourceurl": "http://www.utsandiego.com/news/2014/oct/27/stay-rejected-nuclear-settlement/",
    "feature_id": "1661390",
    "feature_name": "San Onofre",
    "state_alpha": "CA",
    "county_name": "San Diego",
    "county_numeric": "073",
    "prim_lat_dec": "33.3811",
    "prim_long_dec": "-117.573",
    "elev_in_m": "9",
    "elev_in_ft": "30",
    "lat": 33.3811,
    "long": -117.573
  },
  {
    "globaleventid": "320591102",
    "sqldate": "20141027",
    "monthyear": "201410",
    "year": "2014",
    "fractiondate": "2014.8137",
    "eventcode": "120",
    "quadclass": "3",
    "nummentions": "4",
    "numsources": "1",
    "numarticles": "4",
    "avgtone": "2.27920227920228",
    "sourceurl": "http://www.motherjones.com/politics/2014/10/whitney-ball-donors-trust-money&c=UkJXPQaxiG5eWs2HbHX6_izdNd95zT-kfWZldNY_xQE&mkt=en-us",
    "feature_id": "1444206",
    "feature_name": "Park City",
    "state_alpha": "UT",
    "county_name": "Summit",
    "county_numeric": "043",
    "prim_lat_dec": "40.6461",
    "prim_long_dec": "-111.498",
    "elev_in_m": "2144",
    "elev_in_ft": "7034",
    "lat": 40.6461,
    "long": -111.498
  },
  {
    "globaleventid": "320591101",
    "sqldate": "20141027",
    "monthyear": "201410",
    "year": "2014",
    "fractiondate": "2014.8137",
    "eventcode": "120",
    "quadclass": "3",
    "nummentions": "4",
    "numsources": "1",
    "numarticles": "4",
    "avgtone": "1.92864030858245",
    "sourceurl": "http://bismarcktribune.com/news/local/govt-and-politics/district-candidates-debate-needs-for-an-oil-rich-state/article_6d02be86-5ba0-11e4-8e28-271b454e5429.html",
    "feature_id": "1030076",
    "feature_name": "Mandan",
    "state_alpha": "ND",
    "county_name": "Morton",
    "county_numeric": "059",
    "prim_lat_dec": "46.8267",
    "prim_long_dec": "-100.89",
    "elev_in_m": "502",
    "elev_in_ft": "1647",
    "lat": 46.8267,
    "long": -100.89
  },
  {
    "globaleventid": "320591094",
    "sqldate": "20141027",
    "monthyear": "201410",
    "year": "2014",
    "fractiondate": "2014.8137",
    "eventcode": "112",
    "quadclass": "3",
    "nummentions": "4",
    "numsources": "1",
    "numarticles": "4",
    "avgtone": "1.6040831206708",
    "sourceurl": "http://www.recordonline.com/article/20141027/NEWS/141109999",
    "feature_id": "979938",
    "feature_name": "Kiryas Joel",
    "state_alpha": "NY",
    "county_name": "Orange",
    "county_numeric": "071",
    "prim_lat_dec": "41.342",
    "prim_long_dec": "-74.1679",
    "elev_in_m": "209",
    "elev_in_ft": "686",
    "lat": 41.342,
    "long": -74.1679
  },
  {
    "globaleventid": "479500643",
    "sqldate": "20141027",
    "monthyear": "201410",
    "year": "2014",
    "fractiondate": "2014.8137",
    "eventcode": "190",
    "quadclass": "4",
    "nummentions": "4",
    "numsources": "1",
    "numarticles": "4",
    "avgtone": "-11.2612612612613",
    "sourceurl": "http://kron4.com/2015/10/27/daly-city-man-pleads-no-contest-to-beating-death-last-year/",
    "feature_id": "1658369",
    "feature_name": "Daly City",
    "state_alpha": "CA",
    "county_name": "San Mateo",
    "county_numeric": "081",
    "prim_lat_dec": "37.7058",
    "prim_long_dec": "-122.462",
    "elev_in_m": "124",
    "elev_in_ft": "407",
    "lat": 37.7058,
    "long": -122.462
  },
  {
    "globaleventid": "479500642",
    "sqldate": "20141027",
    "monthyear": "201410",
    "year": "2014",
    "fractiondate": "2014.8137",
    "eventcode": "110",
    "quadclass": "3",
    "nummentions": "4",
    "numsources": "1",
    "numarticles": "4",
    "avgtone": "-11.2612612612613",
    "sourceurl": "http://kron4.com/2015/10/27/daly-city-man-pleads-no-contest-to-beating-death-last-year/",
    "feature_id": "1658369",
    "feature_name": "Daly City",
    "state_alpha": "CA",
    "county_name": "San Mateo",
    "county_numeric": "081",
    "prim_lat_dec": "37.7058",
    "prim_long_dec": "-122.462",
    "elev_in_m": "124",
    "elev_in_ft": "407",
    "lat": 37.7058,
    "long": -122.462
  },
  {
    "globaleventid": "479500637",
    "sqldate": "20141027",
    "monthyear": "201410",
    "year": "2014",
    "fractiondate": "2014.8137",
    "eventcode": "112",
    "quadclass": "3",
    "nummentions": "4",
    "numsources": "1",
    "numarticles": "4",
    "avgtone": "-8.33333333333334",
    "sourceurl": "http://sfist.com/2015/10/27/sffd_removed_head_of_arson_task_for.php",
    "feature_id": "277593",
    "feature_name": "San Francisco",
    "state_alpha": "CA",
    "county_name": "San Francisco",
    "county_numeric": "075",
    "prim_lat_dec": "37.775",
    "prim_long_dec": "-122.419",
    "elev_in_m": "16",
    "elev_in_ft": "52",
    "lat": 37.775,
    "long": -122.419
  },
  {
    "globaleventid": "479500611",
    "sqldate": "20141027",
    "monthyear": "201410",
    "year": "2014",
    "fractiondate": "2014.8137",
    "eventcode": "190",
    "quadclass": "4",
    "nummentions": "2",
    "numsources": "1",
    "numarticles": "2",
    "avgtone": "-8.33333333333334",
    "sourceurl": "http://sfist.com/2015/10/27/sffd_removed_head_of_arson_task_for.php",
    "feature_id": "277593",
    "feature_name": "San Francisco",
    "state_alpha": "CA",
    "county_name": "San Francisco",
    "county_numeric": "075",
    "prim_lat_dec": "37.775",
    "prim_long_dec": "-122.419",
    "elev_in_m": "16",
    "elev_in_ft": "52",
    "lat": 37.775,
    "long": -122.419
  },
  {
    "globaleventid": "479459062",
    "sqldate": "20141027",
    "monthyear": "201410",
    "year": "2014",
    "fractiondate": "2014.8137",
    "eventcode": "190",
    "quadclass": "4",
    "nummentions": "12",
    "numsources": "2",
    "numarticles": "12",
    "avgtone": "-6.67326652376299",
    "sourceurl": "http://www.kltv.com/story/30364833/grand-jury-begins-hearing-evidence-in-tamir-rice-killing",
    "feature_id": "2034831",
    "feature_name": "Samaria",
    "state_alpha": "TX",
    "county_name": "Navarro",
    "county_numeric": "349",
    "prim_lat_dec": "32.1265",
    "prim_long_dec": "-96.1541",
    "elev_in_m": "108",
    "elev_in_ft": "354",
    "lat": 32.1265,
    "long": -96.1541
  },
  {
    "globaleventid": "479459059",
    "sqldate": "20141027",
    "monthyear": "201410",
    "year": "2014",
    "fractiondate": "2014.8137",
    "eventcode": "190",
    "quadclass": "4",
    "nummentions": "18",
    "numsources": "2",
    "numarticles": "18",
    "avgtone": "-6.67326652376299",
    "sourceurl": "http://www.kltv.com/story/30364833/grand-jury-begins-hearing-evidence-in-tamir-rice-killing",
    "feature_id": "2034831",
    "feature_name": "Samaria",
    "state_alpha": "TX",
    "county_name": "Navarro",
    "county_numeric": "349",
    "prim_lat_dec": "32.1265",
    "prim_long_dec": "-96.1541",
    "elev_in_m": "108",
    "elev_in_ft": "354",
    "lat": 32.1265,
    "long": -96.1541
  },
  {
    "globaleventid": "479455672",
    "sqldate": "20141027",
    "monthyear": "201410",
    "year": "2014",
    "fractiondate": "2014.8137",
    "eventcode": "193",
    "quadclass": "4",
    "nummentions": "8",
    "numsources": "1",
    "numarticles": "8",
    "avgtone": "-10.1604278074866",
    "sourceurl": "http://chicago.cbslocal.com/2015/10/27/teen-convicted-of-fatal-shooting-through-chicago-lawn-window-last-year/",
    "feature_id": "423587",
    "feature_name": "Chicago",
    "state_alpha": "IL",
    "county_name": "Cook",
    "county_numeric": "031",
    "prim_lat_dec": "41.85",
    "prim_long_dec": "-87.6501",
    "elev_in_m": "179",
    "elev_in_ft": "587",
    "lat": 41.85,
    "long": -87.6501
  },
  {
    "globaleventid": "479455671",
    "sqldate": "20141027",
    "monthyear": "201410",
    "year": "2014",
    "fractiondate": "2014.8137",
    "eventcode": "173",
    "quadclass": "4",
    "nummentions": "8",
    "numsources": "1",
    "numarticles": "8",
    "avgtone": "-10.1604278074866",
    "sourceurl": "http://chicago.cbslocal.com/2015/10/27/teen-convicted-of-fatal-shooting-through-chicago-lawn-window-last-year/",
    "feature_id": "423587",
    "feature_name": "Chicago",
    "state_alpha": "IL",
    "county_name": "Cook",
    "county_numeric": "031",
    "prim_lat_dec": "41.85",
    "prim_long_dec": "-87.6501",
    "elev_in_m": "179",
    "elev_in_ft": "587",
    "lat": 41.85,
    "long": -87.6501
  },
  {
    "globaleventid": "479455670",
    "sqldate": "20141027",
    "monthyear": "201410",
    "year": "2014",
    "fractiondate": "2014.8137",
    "eventcode": "193",
    "quadclass": "4",
    "nummentions": "2",
    "numsources": "1",
    "numarticles": "2",
    "avgtone": "-10.1604278074866",
    "sourceurl": "http://chicago.cbslocal.com/2015/10/27/teen-convicted-of-fatal-shooting-through-chicago-lawn-window-last-year/",
    "feature_id": "423587",
    "feature_name": "Chicago",
    "state_alpha": "IL",
    "county_name": "Cook",
    "county_numeric": "031",
    "prim_lat_dec": "41.85",
    "prim_long_dec": "-87.6501",
    "elev_in_m": "179",
    "elev_in_ft": "587",
    "lat": 41.85,
    "long": -87.6501
  },
  {
    "globaleventid": "479455669",
    "sqldate": "20141027",
    "monthyear": "201410",
    "year": "2014",
    "fractiondate": "2014.8137",
    "eventcode": "173",
    "quadclass": "4",
    "nummentions": "2",
    "numsources": "1",
    "numarticles": "2",
    "avgtone": "-10.1604278074866",
    "sourceurl": "http://chicago.cbslocal.com/2015/10/27/teen-convicted-of-fatal-shooting-through-chicago-lawn-window-last-year/",
    "feature_id": "423587",
    "feature_name": "Chicago",
    "state_alpha": "IL",
    "county_name": "Cook",
    "county_numeric": "031",
    "prim_lat_dec": "41.85",
    "prim_long_dec": "-87.6501",
    "elev_in_m": "179",
    "elev_in_ft": "587",
    "lat": 41.85,
    "long": -87.6501
  },
  {
    "globaleventid": "479448894",
    "sqldate": "20141027",
    "monthyear": "201410",
    "year": "2014",
    "fractiondate": "2014.8137",
    "eventcode": "100",
    "quadclass": "3",
    "nummentions": "24",
    "numsources": "4",
    "numarticles": "24",
    "avgtone": "1.49700598802395",
    "sourceurl": "http://www.marshfieldnewsherald.com/story/news/local/2015/10/27/marshfield-clinic-aspirus-scrap-partnership/74673726/",
    "feature_id": "1569085",
    "feature_name": "Marshfield",
    "state_alpha": "WI",
    "county_name": "Wood",
    "county_numeric": "141",
    "prim_lat_dec": "44.6689",
    "prim_long_dec": "-90.1718",
    "elev_in_m": "392",
    "elev_in_ft": "1286",
    "lat": 44.6689,
    "long": -90.1718
  },
  {
    "globaleventid": "479438615",
    "sqldate": "20141027",
    "monthyear": "201410",
    "year": "2014",
    "fractiondate": "2014.8137",
    "eventcode": "120",
    "quadclass": "3",
    "nummentions": "2",
    "numsources": "1",
    "numarticles": "2",
    "avgtone": "-5.66037735849057",
    "sourceurl": "http://www.plenglish.com/index.php?option=com_content&task=view&id=4290941&Itemid=1",
    "feature_id": "531871",
    "feature_name": "Washington",
    "state_alpha": "DC",
    "county_name": "District of Columbia",
    "county_numeric": "001",
    "prim_lat_dec": "38.8951",
    "prim_long_dec": "-77.0364",
    "elev_in_m": "7",
    "elev_in_ft": "23",
    "lat": 38.8951,
    "long": -77.0364
  },
  {
    "globaleventid": "479438612",
    "sqldate": "20141027",
    "monthyear": "201410",
    "year": "2014",
    "fractiondate": "2014.8137",
    "eventcode": "120",
    "quadclass": "3",
    "nummentions": "4",
    "numsources": "1",
    "numarticles": "4",
    "avgtone": "-5.66037735849057",
    "sourceurl": "http://www.plenglish.com/index.php?option=com_content&task=view&id=4290941&Itemid=1",
    "feature_id": "531871",
    "feature_name": "Washington",
    "state_alpha": "DC",
    "county_name": "District of Columbia",
    "county_numeric": "001",
    "prim_lat_dec": "38.8951",
    "prim_long_dec": "-77.0364",
    "elev_in_m": "7",
    "elev_in_ft": "23",
    "lat": 38.8951,
    "long": -77.0364
  },
  {
    "globaleventid": "479431349",
    "sqldate": "20141027",
    "monthyear": "201410",
    "year": "2014",
    "fractiondate": "2014.8137",
    "eventcode": "100",
    "quadclass": "3",
    "nummentions": "10",
    "numsources": "1",
    "numarticles": "10",
    "avgtone": "0.39682539682539",
    "sourceurl": "http://www.bloomberg.com/news/articles/2015-10-27/airwaves-like-oil-reserves-are-cash-cows-in-u-s-budget-deal",
    "feature_id": "531871",
    "feature_name": "Washington",
    "state_alpha": "DC",
    "county_name": "District of Columbia",
    "county_numeric": "001",
    "prim_lat_dec": "38.8951",
    "prim_long_dec": "-77.0364",
    "elev_in_m": "7",
    "elev_in_ft": "23",
    "lat": 38.8951,
    "long": -77.0364
  },
  {
    "globaleventid": "479427386",
    "sqldate": "20141027",
    "monthyear": "201410",
    "year": "2014",
    "fractiondate": "2014.8137",
    "eventcode": "173",
    "quadclass": "4",
    "nummentions": "4",
    "numsources": "1",
    "numarticles": "4",
    "avgtone": "-5.78512396694215",
    "sourceurl": "http://www.wgrz.com/story/news/2015/10/27/adell-zeigler-crime-phoenix-puppy-buffalo-court/74677008/",
    "feature_id": "44784",
    "feature_name": "Phoenix",
    "state_alpha": "AZ",
    "county_name": "Maricopa",
    "county_numeric": "013",
    "prim_lat_dec": "33.4484",
    "prim_long_dec": "-112.074",
    "elev_in_m": "331",
    "elev_in_ft": "1086",
    "lat": 33.4484,
    "long": -112.074
  },
  {
    "globaleventid": "479404235",
    "sqldate": "20141027",
    "monthyear": "201410",
    "year": "2014",
    "fractiondate": "2014.8137",
    "eventcode": "193",
    "quadclass": "4",
    "nummentions": "2",
    "numsources": "1",
    "numarticles": "2",
    "avgtone": "-1.81818181818181",
    "sourceurl": "http://baltimore.cbslocal.com/2015/10/27/maryland-town-administrator-finalist-for-ferguson-city-manager-job/",
    "feature_id": "597040",
    "feature_name": "Baltimore",
    "state_alpha": "MD",
    "county_name": "Baltimore (city)",
    "county_numeric": "510",
    "prim_lat_dec": "39.2904",
    "prim_long_dec": "-76.6122",
    "elev_in_m": "10",
    "elev_in_ft": "33",
    "lat": 39.2904,
    "long": -76.6122
  },
  {
    "globaleventid": "479404234",
    "sqldate": "20141027",
    "monthyear": "201410",
    "year": "2014",
    "fractiondate": "2014.8137",
    "eventcode": "193",
    "quadclass": "4",
    "nummentions": "3",
    "numsources": "1",
    "numarticles": "3",
    "avgtone": "-1.81818181818181",
    "sourceurl": "http://baltimore.cbslocal.com/2015/10/27/maryland-town-administrator-finalist-for-ferguson-city-manager-job/",
    "feature_id": "597040",
    "feature_name": "Baltimore",
    "state_alpha": "MD",
    "county_name": "Baltimore (city)",
    "county_numeric": "510",
    "prim_lat_dec": "39.2904",
    "prim_long_dec": "-76.6122",
    "elev_in_m": "10",
    "elev_in_ft": "33",
    "lat": 39.2904,
    "long": -76.6122
  },
  {
    "globaleventid": "479382697",
    "sqldate": "20141027",
    "monthyear": "201410",
    "year": "2014",
    "fractiondate": "2014.8137",
    "eventcode": "114",
    "quadclass": "3",
    "nummentions": "2",
    "numsources": "1",
    "numarticles": "2",
    "avgtone": "-2.98850574712644",
    "sourceurl": "http://www.vox.com/2015/10/27/9617996/silicon-valley-boom-fragile",
    "feature_id": "277593",
    "feature_name": "San Francisco",
    "state_alpha": "CA",
    "county_name": "San Francisco",
    "county_numeric": "075",
    "prim_lat_dec": "37.775",
    "prim_long_dec": "-122.419",
    "elev_in_m": "16",
    "elev_in_ft": "52",
    "lat": 37.775,
    "long": -122.419
  },
  {
    "globaleventid": "479382659",
    "sqldate": "20141027",
    "monthyear": "201410",
    "year": "2014",
    "fractiondate": "2014.8137",
    "eventcode": "114",
    "quadclass": "3",
    "nummentions": "2",
    "numsources": "1",
    "numarticles": "2",
    "avgtone": "-2.98850574712644",
    "sourceurl": "http://www.vox.com/2015/10/27/9617996/silicon-valley-boom-fragile",
    "feature_id": "277593",
    "feature_name": "San Francisco",
    "state_alpha": "CA",
    "county_name": "San Francisco",
    "county_numeric": "075",
    "prim_lat_dec": "37.775",
    "prim_long_dec": "-122.419",
    "elev_in_m": "16",
    "elev_in_ft": "52",
    "lat": 37.775,
    "long": -122.419
  },
  {
    "globaleventid": "479378270",
    "sqldate": "20141027",
    "monthyear": "201410",
    "year": "2014",
    "fractiondate": "2014.8137",
    "eventcode": "112",
    "quadclass": "3",
    "nummentions": "12",
    "numsources": "1",
    "numarticles": "12",
    "avgtone": "-5.16385302879841",
    "sourceurl": "http://atlantablackstar.com/2015/10/27/ferguson-effect-hard-data-knocks-out-fbi-director-james-comeys-false-connection-between-the-rise-in-violent-crimes-and-increased-police-scrutiny/",
    "feature_id": "423587",
    "feature_name": "Chicago",
    "state_alpha": "IL",
    "county_name": "Cook",
    "county_numeric": "031",
    "prim_lat_dec": "41.85",
    "prim_long_dec": "-87.6501",
    "elev_in_m": "179",
    "elev_in_ft": "587",
    "lat": 41.85,
    "long": -87.6501
  },
  {
    "globaleventid": "479378254",
    "sqldate": "20141027",
    "monthyear": "201410",
    "year": "2014",
    "fractiondate": "2014.8137",
    "eventcode": "112",
    "quadclass": "3",
    "nummentions": "8",
    "numsources": "1",
    "numarticles": "8",
    "avgtone": "-5.16385302879841",
    "sourceurl": "http://atlantablackstar.com/2015/10/27/ferguson-effect-hard-data-knocks-out-fbi-director-james-comeys-false-connection-between-the-rise-in-violent-crimes-and-increased-police-scrutiny/",
    "feature_id": "531871",
    "feature_name": "Washington",
    "state_alpha": "DC",
    "county_name": "District of Columbia",
    "county_numeric": "001",
    "prim_lat_dec": "38.8951",
    "prim_long_dec": "-77.0364",
    "elev_in_m": "7",
    "elev_in_ft": "23",
    "lat": 38.8951,
    "long": -77.0364
  },
  {
    "globaleventid": "320591093",
    "sqldate": "20141027",
    "monthyear": "201410",
    "year": "2014",
    "fractiondate": "2014.8137",
    "eventcode": "112",
    "quadclass": "3",
    "nummentions": "5",
    "numsources": "2",
    "numarticles": "5",
    "avgtone": "1.58440314236444",
    "sourceurl": "http://www.hbindependent.com/news/tn-hbi-me-1023-sb-coyotes-20141022,0,3876850.story",
    "feature_id": "531871",
    "feature_name": "Washington",
    "state_alpha": "DC",
    "county_name": "District of Columbia",
    "county_numeric": "001",
    "prim_lat_dec": "38.8951",
    "prim_long_dec": "-77.0364",
    "elev_in_m": "7",
    "elev_in_ft": "23",
    "lat": 38.8951,
    "long": -77.0364
  },
  {
    "globaleventid": "320591083",
    "sqldate": "20141027",
    "monthyear": "201410",
    "year": "2014",
    "fractiondate": "2014.8137",
    "eventcode": "111",
    "quadclass": "3",
    "nummentions": "2",
    "numsources": "1",
    "numarticles": "2",
    "avgtone": "4.81786133960047",
    "sourceurl": "http://www.thesunchronicle.com/news/nation_world/poll-neighbors-key-to-coping-with-disasters/article_73bc618e-5d8d-11e4-a707-c7006ed8c05a.html",
    "feature_id": "944686",
    "feature_name": "Breezy Point",
    "state_alpha": "NY",
    "county_name": "Queens",
    "county_numeric": "081",
    "prim_lat_dec": "40.5565",
    "prim_long_dec": "-73.9262",
    "elev_in_m": "2",
    "elev_in_ft": "7",
    "lat": 40.5565,
    "long": -73.9262
  },
  {
    "globaleventid": "320591082",
    "sqldate": "20141027",
    "monthyear": "201410",
    "year": "2014",
    "fractiondate": "2014.8137",
    "eventcode": "111",
    "quadclass": "3",
    "nummentions": "4",
    "numsources": "1",
    "numarticles": "4",
    "avgtone": "2.52707581227437",
    "sourceurl": "http://www.masslive.com/politics/index.ssf/2014/10/judge_rules_independent_evan_f.html",
    "feature_id": "617867",
    "feature_name": "Worcester",
    "state_alpha": "MA",
    "county_name": "Worcester",
    "county_numeric": "027",
    "prim_lat_dec": "42.2626",
    "prim_long_dec": "-71.8023",
    "elev_in_m": "146",
    "elev_in_ft": "479",
    "lat": 42.2626,
    "long": -71.8023
  },
  {
    "globaleventid": "320591077",
    "sqldate": "20141027",
    "monthyear": "201410",
    "year": "2014",
    "fractiondate": "2014.8137",
    "eventcode": "110",
    "quadclass": "3",
    "nummentions": "4",
    "numsources": "1",
    "numarticles": "4",
    "avgtone": "1.92864030858245",
    "sourceurl": "http://bismarcktribune.com/news/local/govt-and-politics/district-candidates-debate-needs-for-an-oil-rich-state/article_6d02be86-5ba0-11e4-8e28-271b454e5429.html",
    "feature_id": "1035849",
    "feature_name": "Bismarck",
    "state_alpha": "ND",
    "county_name": "Burleigh",
    "county_numeric": "015",
    "prim_lat_dec": "46.8083",
    "prim_long_dec": "-100.784",
    "elev_in_m": "517",
    "elev_in_ft": "1696",
    "lat": 46.8083,
    "long": -100.784
  },
  {
    "globaleventid": "320591067",
    "sqldate": "20141027",
    "monthyear": "201410",
    "year": "2014",
    "fractiondate": "2014.8137",
    "eventcode": "110",
    "quadclass": "3",
    "nummentions": "23",
    "numsources": "1",
    "numarticles": "23",
    "avgtone": "0.804045318428564",
    "sourceurl": "http://www.recordonline.com/article/20141027/NEWS/141109999",
    "feature_id": "979938",
    "feature_name": "Kiryas Joel",
    "state_alpha": "NY",
    "county_name": "Orange",
    "county_numeric": "071",
    "prim_lat_dec": "41.342",
    "prim_long_dec": "-74.1679",
    "elev_in_m": "209",
    "elev_in_ft": "686",
    "lat": 41.342,
    "long": -74.1679
  },
  {
    "globaleventid": "320591066",
    "sqldate": "20141027",
    "monthyear": "201410",
    "year": "2014",
    "fractiondate": "2014.8137",
    "eventcode": "110",
    "quadclass": "3",
    "nummentions": "3",
    "numsources": "1",
    "numarticles": "3",
    "avgtone": "0.377358490566038",
    "sourceurl": "http://www.recordonline.com/article/20141027/OPINION/141029510/101136/OPINION",
    "feature_id": "979938",
    "feature_name": "Kiryas Joel",
    "state_alpha": "NY",
    "county_name": "Orange",
    "county_numeric": "071",
    "prim_lat_dec": "41.342",
    "prim_long_dec": "-74.1679",
    "elev_in_m": "209",
    "elev_in_ft": "686",
    "lat": 41.342,
    "long": -74.1679
  },
  {
    "globaleventid": "320591064",
    "sqldate": "20141027",
    "monthyear": "201410",
    "year": "2014",
    "fractiondate": "2014.8137",
    "eventcode": "110",
    "quadclass": "3",
    "nummentions": "6",
    "numsources": "2",
    "numarticles": "6",
    "avgtone": "2.47560234976136",
    "sourceurl": "http://www.ncadvertiser.com/40218/state-rep-debate-from-marijuana-to-metro-north/",
    "feature_id": "531871",
    "feature_name": "Washington",
    "state_alpha": "DC",
    "county_name": "District of Columbia",
    "county_numeric": "001",
    "prim_lat_dec": "38.8951",
    "prim_long_dec": "-77.0364",
    "elev_in_m": "7",
    "elev_in_ft": "23",
    "lat": 38.8951,
    "long": -77.0364
  },
  {
    "globaleventid": "320591061",
    "sqldate": "20141027",
    "monthyear": "201410",
    "year": "2014",
    "fractiondate": "2014.8137",
    "eventcode": "110",
    "quadclass": "3",
    "nummentions": "2",
    "numsources": "1",
    "numarticles": "2",
    "avgtone": "3.23943661971831",
    "sourceurl": "http://www.reformer.com/letterstotheeditor/ci_26807272/letter-box",
    "feature_id": "1456556",
    "feature_name": "Brattleboro",
    "state_alpha": "VT",
    "county_name": "Windham",
    "county_numeric": "025",
    "prim_lat_dec": "42.8509",
    "prim_long_dec": "-72.5579",
    "elev_in_m": "73",
    "elev_in_ft": "239",
    "lat": 42.8509,
    "long": -72.5579
  },
  {
    "globaleventid": "320591054",
    "sqldate": "20141027",
    "monthyear": "201410",
    "year": "2014",
    "fractiondate": "2014.8137",
    "eventcode": "100",
    "quadclass": "3",
    "nummentions": "16",
    "numsources": "1",
    "numarticles": "16",
    "avgtone": "3.1278748850046",
    "sourceurl": "http://www.seacoastonline.com/article/20141027/NEWS/141029311",
    "feature_id": "868784",
    "feature_name": "North Hampton",
    "state_alpha": "NH",
    "county_name": "Rockingham",
    "county_numeric": "015",
    "prim_lat_dec": "42.9726",
    "prim_long_dec": "-70.8298",
    "elev_in_m": "21",
    "elev_in_ft": "69",
    "lat": 42.9726,
    "long": -70.8298
  },
  {
    "globaleventid": "320591052",
    "sqldate": "20141027",
    "monthyear": "201410",
    "year": "2014",
    "fractiondate": "2014.8137",
    "eventcode": "100",
    "quadclass": "3",
    "nummentions": "1",
    "numsources": "1",
    "numarticles": "1",
    "avgtone": "2.28426395939086",
    "sourceurl": "http://www.arkansasbusiness.com/article/101523/kelsey-bailey-of-the-little-rock-school-district-cfo-of-the-year-finalist-education",
    "feature_id": "83350",
    "feature_name": "Little Rock",
    "state_alpha": "AR",
    "county_name": "Pulaski",
    "county_numeric": "119",
    "prim_lat_dec": "34.7465",
    "prim_long_dec": "-92.2896",
    "elev_in_m": "102",
    "elev_in_ft": "335",
    "lat": 34.7465,
    "long": -92.2896
  },
  {
    "globaleventid": "320591051",
    "sqldate": "20141027",
    "monthyear": "201410",
    "year": "2014",
    "fractiondate": "2014.8137",
    "eventcode": "100",
    "quadclass": "3",
    "nummentions": "1",
    "numsources": "1",
    "numarticles": "1",
    "avgtone": "2.28426395939086",
    "sourceurl": "http://www.arkansasbusiness.com/article/101523/kelsey-bailey-of-the-little-rock-school-district-cfo-of-the-year-finalist-education",
    "feature_id": "83350",
    "feature_name": "Little Rock",
    "state_alpha": "AR",
    "county_name": "Pulaski",
    "county_numeric": "119",
    "prim_lat_dec": "34.7465",
    "prim_long_dec": "-92.2896",
    "elev_in_m": "102",
    "elev_in_ft": "335",
    "lat": 34.7465,
    "long": -92.2896
  },
  {
    "globaleventid": "320591049",
    "sqldate": "20141027",
    "monthyear": "201410",
    "year": "2014",
    "fractiondate": "2014.8137",
    "eventcode": "100",
    "quadclass": "3",
    "nummentions": "16",
    "numsources": "1",
    "numarticles": "16",
    "avgtone": "3.1278748850046",
    "sourceurl": "http://www.seacoastonline.com/article/20141027/NEWS/141029311",
    "feature_id": "423587",
    "feature_name": "Chicago",
    "state_alpha": "IL",
    "county_name": "Cook",
    "county_numeric": "031",
    "prim_lat_dec": "41.85",
    "prim_long_dec": "-87.6501",
    "elev_in_m": "179",
    "elev_in_ft": "587",
    "lat": 41.85,
    "long": -87.6501
  },
  {
    "globaleventid": "320591048",
    "sqldate": "20141027",
    "monthyear": "201410",
    "year": "2014",
    "fractiondate": "2014.8137",
    "eventcode": "100",
    "quadclass": "3",
    "nummentions": "1",
    "numsources": "1",
    "numarticles": "1",
    "avgtone": "2.321083172147",
    "sourceurl": "http://www.chicagotribune.com/news/local/politics/chi-biden-campaigns-for-quinn-durbin-in-rockford-20141027-story.html",
    "feature_id": "420271",
    "feature_name": "Vernon Hills",
    "state_alpha": "IL",
    "county_name": "Lake",
    "county_numeric": "097",
    "prim_lat_dec": "42.2195",
    "prim_long_dec": "-87.9795",
    "elev_in_m": "224",
    "elev_in_ft": "735",
    "lat": 42.2195,
    "long": -87.9795
  },
  {
    "globaleventid": "320590326",
    "sqldate": "20141027",
    "monthyear": "201410",
    "year": "2014",
    "fractiondate": "2014.8137",
    "eventcode": "193",
    "quadclass": "4",
    "nummentions": "5",
    "numsources": "1",
    "numarticles": "5",
    "avgtone": "0.340136054421769",
    "sourceurl": "http://www.abc-7.com/story/27054146/2-felons-arrested-for-murdering-5-year-old-faust",
    "feature_id": "282700",
    "feature_name": "Fort Myers",
    "state_alpha": "FL",
    "county_name": "Lee",
    "county_numeric": "071",
    "prim_lat_dec": "26.6406",
    "prim_long_dec": "-81.8723",
    "elev_in_m": "3",
    "elev_in_ft": "10",
    "lat": 26.6406,
    "long": -81.8723
  },
  {
    "globaleventid": "320590321",
    "sqldate": "20141027",
    "monthyear": "201410",
    "year": "2014",
    "fractiondate": "2014.8137",
    "eventcode": "193",
    "quadclass": "4",
    "nummentions": "2",
    "numsources": "1",
    "numarticles": "2",
    "avgtone": "0.0",
    "sourceurl": "http://members.jacksonville.com/news/crime/2014-10-27/story/jacksonville-cocaine-dealer-sentenced-14-years-7-months-federal-prison",
    "feature_id": "295003",
    "feature_name": "Jacksonville",
    "state_alpha": "FL",
    "county_name": "Duval",
    "county_numeric": "031",
    "prim_lat_dec": "30.3322",
    "prim_long_dec": "-81.6556",
    "elev_in_m": "5",
    "elev_in_ft": "16",
    "lat": 30.3322,
    "long": -81.6556
  },
  {
    "globaleventid": "320590320",
    "sqldate": "20141027",
    "monthyear": "201410",
    "year": "2014",
    "fractiondate": "2014.8137",
    "eventcode": "193",
    "quadclass": "4",
    "nummentions": "2",
    "numsources": "1",
    "numarticles": "2",
    "avgtone": "0.0",
    "sourceurl": "http://members.jacksonville.com/news/crime/2014-10-27/story/jacksonville-cocaine-dealer-sentenced-14-years-7-months-federal-prison",
    "feature_id": "295003",
    "feature_name": "Jacksonville",
    "state_alpha": "FL",
    "county_name": "Duval",
    "county_numeric": "031",
    "prim_lat_dec": "30.3322",
    "prim_long_dec": "-81.6556",
    "elev_in_m": "5",
    "elev_in_ft": "16",
    "lat": 30.3322,
    "long": -81.6556
  },
  {
    "globaleventid": "320590319",
    "sqldate": "20141027",
    "monthyear": "201410",
    "year": "2014",
    "fractiondate": "2014.8137",
    "eventcode": "193",
    "quadclass": "4",
    "nummentions": "5",
    "numsources": "1",
    "numarticles": "5",
    "avgtone": "0.340136054421769",
    "sourceurl": "http://www.abc-7.com/story/27054146/2-felons-arrested-for-murdering-5-year-old-faust",
    "feature_id": "282700",
    "feature_name": "Fort Myers",
    "state_alpha": "FL",
    "county_name": "Lee",
    "county_numeric": "071",
    "prim_lat_dec": "26.6406",
    "prim_long_dec": "-81.8723",
    "elev_in_m": "3",
    "elev_in_ft": "10",
    "lat": 26.6406,
    "long": -81.8723
  },
  {
    "globaleventid": "320590317",
    "sqldate": "20141027",
    "monthyear": "201410",
    "year": "2014",
    "fractiondate": "2014.8137",
    "eventcode": "193",
    "quadclass": "4",
    "nummentions": "24",
    "numsources": "3",
    "numarticles": "24",
    "avgtone": "0.823853504756869",
    "sourceurl": "http://www.greenfieldreporter.com/view/story/19d01493ddc34675a5babfcba5374a84/US--Officers-Shot-Sacramento",
    "feature_id": "277606",
    "feature_name": "Fresno",
    "state_alpha": "CA",
    "county_name": "Fresno",
    "county_numeric": "019",
    "prim_lat_dec": "36.7477",
    "prim_long_dec": "-119.772",
    "elev_in_m": "94",
    "elev_in_ft": "308",
    "lat": 36.7477,
    "long": -119.772
  },
  {
    "globaleventid": "320590315",
    "sqldate": "20141027",
    "monthyear": "201410",
    "year": "2014",
    "fractiondate": "2014.8137",
    "eventcode": "193",
    "quadclass": "4",
    "nummentions": "3",
    "numsources": "2",
    "numarticles": "3",
    "avgtone": "1.27312866163436",
    "sourceurl": "http://www.sfgate.com/news/crime/article/Suspect-in-police-killings-had-multiple-identities-5849713.php",
    "feature_id": "1454997",
    "feature_name": "Salt Lake City",
    "state_alpha": "UT",
    "county_name": "Salt Lake",
    "county_numeric": "035",
    "prim_lat_dec": "40.7608",
    "prim_long_dec": "-111.891",
    "elev_in_m": "1300",
    "elev_in_ft": "4265",
    "lat": 40.7608,
    "long": -111.891
  },
  {
    "globaleventid": "320590312",
    "sqldate": "20141027",
    "monthyear": "201410",
    "year": "2014",
    "fractiondate": "2014.8137",
    "eventcode": "193",
    "quadclass": "4",
    "nummentions": "1",
    "numsources": "1",
    "numarticles": "1",
    "avgtone": "1.15919629057187",
    "sourceurl": "http://www.contracostatimes.com/california/ci_26807237/suspect-california-deputy-deaths-had-many-names",
    "feature_id": "1661377",
    "feature_name": "San Diego",
    "state_alpha": "CA",
    "county_name": "San Diego",
    "county_numeric": "073",
    "prim_lat_dec": "32.7153",
    "prim_long_dec": "-117.157",
    "elev_in_m": "19",
    "elev_in_ft": "62",
    "lat": 32.7153,
    "long": -117.157
  },
  {
    "globaleventid": "320590310",
    "sqldate": "20141027",
    "monthyear": "201410",
    "year": "2014",
    "fractiondate": "2014.8137",
    "eventcode": "193",
    "quadclass": "4",
    "nummentions": "1",
    "numsources": "1",
    "numarticles": "1",
    "avgtone": "0.665456745311555",
    "sourceurl": "http://www.star-telegram.com/2014/10/27/6233853/suspect-in-california-deputy-deaths.html",
    "feature_id": "1659564",
    "feature_name": "Sacramento",
    "state_alpha": "CA",
    "county_name": "Sacramento",
    "county_numeric": "067",
    "prim_lat_dec": "38.5816",
    "prim_long_dec": "-121.494",
    "elev_in_m": "8",
    "elev_in_ft": "26",
    "lat": 38.5816,
    "long": -121.494
  },
  {
    "globaleventid": "320590309",
    "sqldate": "20141027",
    "monthyear": "201410",
    "year": "2014",
    "fractiondate": "2014.8137",
    "eventcode": "193",
    "quadclass": "4",
    "nummentions": "4",
    "numsources": "1",
    "numarticles": "4",
    "avgtone": "1.04575163398693",
    "sourceurl": "http://www.startribune.com/nation/280492362.html",
    "feature_id": "1662328",
    "feature_name": "Los Angeles",
    "state_alpha": "CA",
    "county_name": "Los Angeles",
    "county_numeric": "037",
    "prim_lat_dec": "34.0522",
    "prim_long_dec": "-118.244",
    "elev_in_m": "89",
    "elev_in_ft": "292",
    "lat": 34.0522,
    "long": -118.244
  },
  {
    "globaleventid": "320590308",
    "sqldate": "20141027",
    "monthyear": "201410",
    "year": "2014",
    "fractiondate": "2014.8137",
    "eventcode": "193",
    "quadclass": "4",
    "nummentions": "6",
    "numsources": "1",
    "numarticles": "6",
    "avgtone": "1.04575163398693",
    "sourceurl": "http://www.startribune.com/nation/280492362.html",
    "feature_id": "1661377",
    "feature_name": "San Diego",
    "state_alpha": "CA",
    "county_name": "San Diego",
    "county_numeric": "073",
    "prim_lat_dec": "32.7153",
    "prim_long_dec": "-117.157",
    "elev_in_m": "19",
    "elev_in_ft": "62",
    "lat": 32.7153,
    "long": -117.157
  },
  {
    "globaleventid": "320590305",
    "sqldate": "20141027",
    "monthyear": "201410",
    "year": "2014",
    "fractiondate": "2014.8137",
    "eventcode": "193",
    "quadclass": "4",
    "nummentions": "1",
    "numsources": "1",
    "numarticles": "1",
    "avgtone": "0.775862068965517",
    "sourceurl": "http://mdjonline.com/view/full_story/26011259/article-Suspect-in-California-deputy-deaths-had-many-names-",
    "feature_id": "277606",
    "feature_name": "Fresno",
    "state_alpha": "CA",
    "county_name": "Fresno",
    "county_numeric": "019",
    "prim_lat_dec": "36.7477",
    "prim_long_dec": "-119.772",
    "elev_in_m": "94",
    "elev_in_ft": "308",
    "lat": 36.7477,
    "long": -119.772
  },
  {
    "globaleventid": "320590304",
    "sqldate": "20141027",
    "monthyear": "201410",
    "year": "2014",
    "fractiondate": "2014.8137",
    "eventcode": "193",
    "quadclass": "4",
    "nummentions": "1",
    "numsources": "1",
    "numarticles": "1",
    "avgtone": "0.775862068965517",
    "sourceurl": "http://mdjonline.com/view/full_story/26011259/article-Suspect-in-California-deputy-deaths-had-many-names-",
    "feature_id": "1454997",
    "feature_name": "Salt Lake City",
    "state_alpha": "UT",
    "county_name": "Salt Lake",
    "county_numeric": "035",
    "prim_lat_dec": "40.7608",
    "prim_long_dec": "-111.891",
    "elev_in_m": "1300",
    "elev_in_ft": "4265",
    "lat": 40.7608,
    "long": -111.891
  },
  {
    "globaleventid": "320590303",
    "sqldate": "20141027",
    "monthyear": "201410",
    "year": "2014",
    "fractiondate": "2014.8137",
    "eventcode": "193",
    "quadclass": "4",
    "nummentions": "10",
    "numsources": "1",
    "numarticles": "10",
    "avgtone": "2.06896551724138",
    "sourceurl": "http://www.chron.com/news/crime/article/Police-ID-man-killed-by-Wichita-officers-5850848.php",
    "feature_id": "1380948",
    "feature_name": "Houston",
    "state_alpha": "TX",
    "county_name": "Harris",
    "county_numeric": "201",
    "prim_lat_dec": "29.7633",
    "prim_long_dec": "-95.3633",
    "elev_in_m": "11",
    "elev_in_ft": "36",
    "lat": 29.7633,
    "long": -95.3633
  },
  {
    "globaleventid": "320590300",
    "sqldate": "20141027",
    "monthyear": "201410",
    "year": "2014",
    "fractiondate": "2014.8137",
    "eventcode": "190",
    "quadclass": "4",
    "nummentions": "2",
    "numsources": "1",
    "numarticles": "2",
    "avgtone": "1.72413793103448",
    "sourceurl": "http://www.hiphopdx.com/index/news/id.31192/title.chief-keef-affiliate-yae-yae-jordan-charged-with-murder/",
    "feature_id": "1617959",
    "feature_name": "Detroit",
    "state_alpha": "MI",
    "county_name": "Wayne",
    "county_numeric": "163",
    "prim_lat_dec": "42.3314",
    "prim_long_dec": "-83.0458",
    "elev_in_m": "182",
    "elev_in_ft": "597",
    "lat": 42.3314,
    "long": -83.0458
  },
  {
    "globaleventid": "320590299",
    "sqldate": "20141027",
    "monthyear": "201410",
    "year": "2014",
    "fractiondate": "2014.8137",
    "eventcode": "190",
    "quadclass": "4",
    "nummentions": "8",
    "numsources": "1",
    "numarticles": "8",
    "avgtone": "2.22222222222222",
    "sourceurl": "http://www.idahostatejournal.com/news/local/byu-idaho-school-shooting-threat-contained-one-in-police-custody/article_4c70a8ea-5d7b-11e4-881e-dbd4ef834944.html",
    "feature_id": "531871",
    "feature_name": "Washington",
    "state_alpha": "DC",
    "county_name": "District of Columbia",
    "county_numeric": "001",
    "prim_lat_dec": "38.8951",
    "prim_long_dec": "-77.0364",
    "elev_in_m": "7",
    "elev_in_ft": "23",
    "lat": 38.8951,
    "long": -77.0364
  },
  {
    "globaleventid": "320590298",
    "sqldate": "20141027",
    "monthyear": "201410",
    "year": "2014",
    "fractiondate": "2014.8137",
    "eventcode": "190",
    "quadclass": "4",
    "nummentions": "6",
    "numsources": "3",
    "numarticles": "6",
    "avgtone": "1.66338103993987",
    "sourceurl": "http://www.chron.com/news/texas/article/San-Antonio-gang-member-faces-execution-5850979.php",
    "feature_id": "1380951",
    "feature_name": "San Antonio",
    "state_alpha": "TX",
    "county_name": "Bexar",
    "county_numeric": "029",
    "prim_lat_dec": "29.4241",
    "prim_long_dec": "-98.4936",
    "elev_in_m": "198",
    "elev_in_ft": "650",
    "lat": 29.4241,
    "long": -98.4936
  },
  {
    "globaleventid": "320590288",
    "sqldate": "20141027",
    "monthyear": "201410",
    "year": "2014",
    "fractiondate": "2014.8137",
    "eventcode": "173",
    "quadclass": "4",
    "nummentions": "5",
    "numsources": "1",
    "numarticles": "5",
    "avgtone": "0.340136054421769",
    "sourceurl": "http://www.abc-7.com/story/27054146/2-felons-arrested-for-murdering-5-year-old-faust",
    "feature_id": "282700",
    "feature_name": "Fort Myers",
    "state_alpha": "FL",
    "county_name": "Lee",
    "county_numeric": "071",
    "prim_lat_dec": "26.6406",
    "prim_long_dec": "-81.8723",
    "elev_in_m": "3",
    "elev_in_ft": "10",
    "lat": 26.6406,
    "long": -81.8723
  },
  {
    "globaleventid": "320590280",
    "sqldate": "20141027",
    "monthyear": "201410",
    "year": "2014",
    "fractiondate": "2014.8137",
    "eventcode": "173",
    "quadclass": "4",
    "nummentions": "8",
    "numsources": "1",
    "numarticles": "8",
    "avgtone": "2.40334378265413",
    "sourceurl": "http://www.seattlepi.com/news/crime/article/Fort-Smith-Historic-Site-takes-nooses-off-gallows-5847637.php",
    "feature_id": "76952",
    "feature_name": "Fort Smith",
    "state_alpha": "AR",
    "county_name": "Sebastian",
    "county_numeric": "131",
    "prim_lat_dec": "35.3859",
    "prim_long_dec": "-94.3985",
    "elev_in_m": "134",
    "elev_in_ft": "440",
    "lat": 35.3859,
    "long": -94.3985
  },
  {
    "globaleventid": "320590279",
    "sqldate": "20141027",
    "monthyear": "201410",
    "year": "2014",
    "fractiondate": "2014.8137",
    "eventcode": "173",
    "quadclass": "4",
    "nummentions": "4",
    "numsources": "1",
    "numarticles": "4",
    "avgtone": "0.0",
    "sourceurl": "http://www.kttc.com/story/27022002/2014/10/27/trial-starts-for-former-brownsdale-police-chief-charged-with-criminal-sexual-conduct",
    "feature_id": "640546",
    "feature_name": "Brownsdale",
    "state_alpha": "MN",
    "county_name": "Mower",
    "county_numeric": "099",
    "prim_lat_dec": "43.7402",
    "prim_long_dec": "-92.8694",
    "elev_in_m": "392",
    "elev_in_ft": "1286",
    "lat": 43.7402,
    "long": -92.8694
  },
  {
    "globaleventid": "320590278",
    "sqldate": "20141027",
    "monthyear": "201410",
    "year": "2014",
    "fractiondate": "2014.8137",
    "eventcode": "173",
    "quadclass": "4",
    "nummentions": "4",
    "numsources": "1",
    "numarticles": "4",
    "avgtone": "0.0",
    "sourceurl": "http://www.pamplinmedia.com/pt/9-news/238289-104449-jury-finds-khoshnaw-guilty-of-murder-in-2011-forest-grove-shooting",
    "feature_id": "531871",
    "feature_name": "Washington",
    "state_alpha": "DC",
    "county_name": "District of Columbia",
    "county_numeric": "001",
    "prim_lat_dec": "38.8951",
    "prim_long_dec": "-77.0364",
    "elev_in_m": "7",
    "elev_in_ft": "23",
    "lat": 38.8951,
    "long": -77.0364
  },
  {
    "globaleventid": "320590277",
    "sqldate": "20141027",
    "monthyear": "201410",
    "year": "2014",
    "fractiondate": "2014.8137",
    "eventcode": "173",
    "quadclass": "4",
    "nummentions": "2",
    "numsources": "1",
    "numarticles": "2",
    "avgtone": "1.72413793103448",
    "sourceurl": "http://www.hiphopdx.com/index/news/id.31192/title.chief-keef-affiliate-yae-yae-jordan-charged-with-murder/",
    "feature_id": "1617959",
    "feature_name": "Detroit",
    "state_alpha": "MI",
    "county_name": "Wayne",
    "county_numeric": "163",
    "prim_lat_dec": "42.3314",
    "prim_long_dec": "-83.0458",
    "elev_in_m": "182",
    "elev_in_ft": "597",
    "lat": 42.3314,
    "long": -83.0458
  },
  {
    "globaleventid": "320590275",
    "sqldate": "20141027",
    "monthyear": "201410",
    "year": "2014",
    "fractiondate": "2014.8137",
    "eventcode": "173",
    "quadclass": "4",
    "nummentions": "3",
    "numsources": "1",
    "numarticles": "3",
    "avgtone": "0.0",
    "sourceurl": "http://members.jacksonville.com/news/crime/2014-10-27/story/jacksonville-cocaine-dealer-sentenced-14-years-7-months-federal-prison",
    "feature_id": "295003",
    "feature_name": "Jacksonville",
    "state_alpha": "FL",
    "county_name": "Duval",
    "county_numeric": "031",
    "prim_lat_dec": "30.3322",
    "prim_long_dec": "-81.6556",
    "elev_in_m": "5",
    "elev_in_ft": "16",
    "lat": 30.3322,
    "long": -81.6556
  },
  {
    "globaleventid": "320590273",
    "sqldate": "20141027",
    "monthyear": "201410",
    "year": "2014",
    "fractiondate": "2014.8137",
    "eventcode": "173",
    "quadclass": "4",
    "nummentions": "6",
    "numsources": "2",
    "numarticles": "6",
    "avgtone": "0.371166010263755",
    "sourceurl": "http://www.abc-7.com/story/27054146/2-felons-arrested-for-murdering-5-year-old-faust",
    "feature_id": "282700",
    "feature_name": "Fort Myers",
    "state_alpha": "FL",
    "county_name": "Lee",
    "county_numeric": "071",
    "prim_lat_dec": "26.6406",
    "prim_long_dec": "-81.8723",
    "elev_in_m": "3",
    "elev_in_ft": "10",
    "lat": 26.6406,
    "long": -81.8723
  },
  {
    "globaleventid": "320590270",
    "sqldate": "20141027",
    "monthyear": "201410",
    "year": "2014",
    "fractiondate": "2014.8137",
    "eventcode": "173",
    "quadclass": "4",
    "nummentions": "20",
    "numsources": "2",
    "numarticles": "20",
    "avgtone": "1.33459880014998",
    "sourceurl": "http://www.trivalleycentral.com/casa_grande_dispatch/national_news/arrested-in-killing-of--year-old-anaheim-girl/article_b2dda374-5df5-11e4-819d-97f519a5daa6.html",
    "feature_id": "1652663",
    "feature_name": "Anaheim",
    "state_alpha": "CA",
    "county_name": "Orange",
    "county_numeric": "059",
    "prim_lat_dec": "33.8353",
    "prim_long_dec": "-117.915",
    "elev_in_m": "49",
    "elev_in_ft": "161",
    "lat": 33.8353,
    "long": -117.915
  },
  {
    "globaleventid": "320590269",
    "sqldate": "20141027",
    "monthyear": "201410",
    "year": "2014",
    "fractiondate": "2014.8137",
    "eventcode": "173",
    "quadclass": "4",
    "nummentions": "2",
    "numsources": "1",
    "numarticles": "2",
    "avgtone": "1.72413793103448",
    "sourceurl": "http://www.hiphopdx.com/index/news/id.31192/title.chief-keef-affiliate-yae-yae-jordan-charged-with-murder/",
    "feature_id": "423587",
    "feature_name": "Chicago",
    "state_alpha": "IL",
    "county_name": "Cook",
    "county_numeric": "031",
    "prim_lat_dec": "41.85",
    "prim_long_dec": "-87.6501",
    "elev_in_m": "179",
    "elev_in_ft": "587",
    "lat": 41.85,
    "long": -87.6501
  },
  {
    "globaleventid": "320590268",
    "sqldate": "20141027",
    "monthyear": "201410",
    "year": "2014",
    "fractiondate": "2014.8137",
    "eventcode": "173",
    "quadclass": "4",
    "nummentions": "2",
    "numsources": "1",
    "numarticles": "2",
    "avgtone": "3.42679127725857",
    "sourceurl": "http://www.reformer.com/state/ci_26801449/n-h-heroin-overdose-deaths-already-near-2013",
    "feature_id": "1456556",
    "feature_name": "Brattleboro",
    "state_alpha": "VT",
    "county_name": "Windham",
    "county_numeric": "025",
    "prim_lat_dec": "42.8509",
    "prim_long_dec": "-72.5579",
    "elev_in_m": "73",
    "elev_in_ft": "239",
    "lat": 42.8509,
    "long": -72.5579
  },
  {
    "globaleventid": "320590267",
    "sqldate": "20141027",
    "monthyear": "201410",
    "year": "2014",
    "fractiondate": "2014.8137",
    "eventcode": "173",
    "quadclass": "4",
    "nummentions": "15",
    "numsources": "3",
    "numarticles": "15",
    "avgtone": "1.66338103993987",
    "sourceurl": "http://www.chron.com/news/texas/article/San-Antonio-gang-member-faces-execution-5850979.php",
    "feature_id": "1380951",
    "feature_name": "San Antonio",
    "state_alpha": "TX",
    "county_name": "Bexar",
    "county_numeric": "029",
    "prim_lat_dec": "29.4241",
    "prim_long_dec": "-98.4936",
    "elev_in_m": "198",
    "elev_in_ft": "650",
    "lat": 29.4241,
    "long": -98.4936
  },
  {
    "globaleventid": "320590265",
    "sqldate": "20141027",
    "monthyear": "201410",
    "year": "2014",
    "fractiondate": "2014.8137",
    "eventcode": "173",
    "quadclass": "4",
    "nummentions": "8",
    "numsources": "1",
    "numarticles": "8",
    "avgtone": "1.36425648021828",
    "sourceurl": "http://publicradiotulsa.org/post/inmate-violations-plagued-halfway-houses",
    "feature_id": "1100962",
    "feature_name": "Tulsa",
    "state_alpha": "OK",
    "county_name": "Tulsa",
    "county_numeric": "143",
    "prim_lat_dec": "36.154",
    "prim_long_dec": "-95.9928",
    "elev_in_m": "220",
    "elev_in_ft": "722",
    "lat": 36.154,
    "long": -95.9928
  },
  {
    "globaleventid": "320590263",
    "sqldate": "20141027",
    "monthyear": "201410",
    "year": "2014",
    "fractiondate": "2014.8137",
    "eventcode": "171",
    "quadclass": "4",
    "nummentions": "4",
    "numsources": "1",
    "numarticles": "4",
    "avgtone": "2.78637770897833",
    "sourceurl": "http://www.thedailynewsonline.com/news/article_d83228cc-5d94-11e4-8d00-d3d246d414a4.html",
    "feature_id": "943150",
    "feature_name": "Batavia",
    "state_alpha": "NY",
    "county_name": "Genesee",
    "county_numeric": "037",
    "prim_lat_dec": "42.9981",
    "prim_long_dec": "-78.1875",
    "elev_in_m": "272",
    "elev_in_ft": "892",
    "lat": 42.9981,
    "long": -78.1875
  },
  {
    "globaleventid": "320590251",
    "sqldate": "20141027",
    "monthyear": "201410",
    "year": "2014",
    "fractiondate": "2014.8137",
    "eventcode": "114",
    "quadclass": "3",
    "nummentions": "4",
    "numsources": "1",
    "numarticles": "4",
    "avgtone": "2.99003322259136",
    "sourceurl": "http://www.business-standard.com/article/pti-stories/us-nurse-quarantined-for-ebola-leaves-hospital-114102800045_1.html",
    "feature_id": "878762",
    "feature_name": "Newark",
    "state_alpha": "NJ",
    "county_name": "Essex",
    "county_numeric": "013",
    "prim_lat_dec": "40.7357",
    "prim_long_dec": "-74.1724",
    "elev_in_m": "10",
    "elev_in_ft": "33",
    "lat": 40.7357,
    "long": -74.1724
  },
  {
    "globaleventid": "320590244",
    "sqldate": "20141027",
    "monthyear": "201410",
    "year": "2014",
    "fractiondate": "2014.8137",
    "eventcode": "112",
    "quadclass": "3",
    "nummentions": "6",
    "numsources": "1",
    "numarticles": "6",
    "avgtone": "1.33111480865225",
    "sourceurl": "http://tucson.com/news/local/tucson-bmw-dealer-accused-of-discrimination/article_96367ef8-6fef-55dd-80e5-029232307740.html",
    "feature_id": "43534",
    "feature_name": "Tucson",
    "state_alpha": "AZ",
    "county_name": "Pima",
    "county_numeric": "019",
    "prim_lat_dec": "32.2217",
    "prim_long_dec": "-110.926",
    "elev_in_m": "759",
    "elev_in_ft": "2490",
    "lat": 32.2217,
    "long": -110.926
  },
  {
    "globaleventid": "320590242",
    "sqldate": "20141027",
    "monthyear": "201410",
    "year": "2014",
    "fractiondate": "2014.8137",
    "eventcode": "111",
    "quadclass": "3",
    "nummentions": "4",
    "numsources": "1",
    "numarticles": "4",
    "avgtone": "3.3112582781457",
    "sourceurl": "http://www.nhregister.com/general-news/20141027/dark-money-group-puts-nearly-12-million-into-grow-connecticut",
    "feature_id": "1066654",
    "feature_name": "Cleveland",
    "state_alpha": "OH",
    "county_name": "Cuyahoga",
    "county_numeric": "035",
    "prim_lat_dec": "41.4995",
    "prim_long_dec": "-81.6954",
    "elev_in_m": "199",
    "elev_in_ft": "653",
    "lat": 41.4995,
    "long": -81.6954
  },
  {
    "globaleventid": "320590236",
    "sqldate": "20141027",
    "monthyear": "201410",
    "year": "2014",
    "fractiondate": "2014.8137",
    "eventcode": "110",
    "quadclass": "3",
    "nummentions": "4",
    "numsources": "1",
    "numarticles": "4",
    "avgtone": "6.57894736842105",
    "sourceurl": "http://www.washingtonpost.com/blogs/the-fix/wp/2014/10/27/zach-dasher-gets-that-elusive-phil-robertson-endorsement/",
    "feature_id": "531871",
    "feature_name": "Washington",
    "state_alpha": "DC",
    "county_name": "District of Columbia",
    "county_numeric": "001",
    "prim_lat_dec": "38.8951",
    "prim_long_dec": "-77.0364",
    "elev_in_m": "7",
    "elev_in_ft": "23",
    "lat": 38.8951,
    "long": -77.0364
  },
  {
    "globaleventid": "320590140",
    "sqldate": "20141027",
    "monthyear": "201410",
    "year": "2014",
    "fractiondate": "2014.8137",
    "eventcode": "180",
    "quadclass": "4",
    "nummentions": "3",
    "numsources": "1",
    "numarticles": "3",
    "avgtone": "0.0",
    "sourceurl": "http://www.masslive.com/news/worcester/index.ssf/2014/10/southbridge_fugitive_gregory_j.html",
    "feature_id": "617565",
    "feature_name": "Boston",
    "state_alpha": "MA",
    "county_name": "Suffolk",
    "county_numeric": "025",
    "prim_lat_dec": "42.3584",
    "prim_long_dec": "-71.0598",
    "elev_in_m": "14",
    "elev_in_ft": "46",
    "lat": 42.3584,
    "long": -71.0598
  },
  {
    "globaleventid": "320590134",
    "sqldate": "20141027",
    "monthyear": "201410",
    "year": "2014",
    "fractiondate": "2014.8137",
    "eventcode": "193",
    "quadclass": "4",
    "nummentions": "10",
    "numsources": "1",
    "numarticles": "10",
    "avgtone": "4.52674897119342",
    "sourceurl": "http://abcnews.go.com/US/wireStory/police-probe-kentucky-shooting-left-dead-26488029",
    "feature_id": "494550",
    "feature_name": "Hopkinsville",
    "state_alpha": "KY",
    "county_name": "Christian",
    "county_numeric": "047",
    "prim_lat_dec": "36.8656",
    "prim_long_dec": "-87.4886",
    "elev_in_m": "161",
    "elev_in_ft": "528",
    "lat": 36.8656,
    "long": -87.4886
  },
  {
    "globaleventid": "320590131",
    "sqldate": "20141027",
    "monthyear": "201410",
    "year": "2014",
    "fractiondate": "2014.8137",
    "eventcode": "190",
    "quadclass": "4",
    "nummentions": "3",
    "numsources": "1",
    "numarticles": "3",
    "avgtone": "4.34782608695652",
    "sourceurl": "http://www.cbsnews.com/news/police-probe-kentucky-shooting-that-left-4-dead/",
    "feature_id": "1326391",
    "feature_name": "Madisonville",
    "state_alpha": "TN",
    "county_name": "Monroe",
    "county_numeric": "123",
    "prim_lat_dec": "35.5198",
    "prim_long_dec": "-84.3635",
    "elev_in_m": "303",
    "elev_in_ft": "994",
    "lat": 35.5198,
    "long": -84.3635
  },