[
  {
    "globaleventid": "327793601",
    "sqldate": "20141212",
    "monthyear": "201412",
    "year": "2014",
    "fractiondate": "2014.937",
    "eventcode": "173",
    "quadclass": "4",
    "nummentions": "1",
    "numsources": "1",
    "numarticles": "1",
    "avgtone": "2.96296296296296",
    "sourceurl": "http://www.bergendispatch.com/articles/35683604/Narcotic-Task-Force-Nabs-3-In-Heroin-Deal.aspx",
    "feature_id": "876855",
    "feature_name": "Hackensack",
    "state_alpha": "NJ",
    "county_name": "Bergen",
    "county_numeric": "003",
    "prim_lat_dec": "40.8859",
    "prim_long_dec": "-74.0435",
    "elev_in_m": "6",
    "elev_in_ft": "20",
    "lat": 40.8859,
    "long": -74.0435
  },
  {
    "globaleventid": "327793595",
    "sqldate": "20141212",
    "monthyear": "201412",
    "year": "2014",
    "fractiondate": "2014.937",
    "eventcode": "173",
    "quadclass": "4",
    "nummentions": "6",
    "numsources": "1",
    "numarticles": "6",
    "avgtone": "6.47482014388489",
    "sourceurl": "http://www.chron.com/news/crime/article/Miss-high-court-reinstates-Carothers-conviction-5952305.php",
    "feature_id": "1380948",
    "feature_name": "Houston",
    "state_alpha": "TX",
    "county_name": "Harris",
    "county_numeric": "201",
    "prim_lat_dec": "29.7633",
    "prim_long_dec": "-95.3633",
    "elev_in_m": "11",
    "elev_in_ft": "36",
    "lat": 29.7633,
    "long": -95.3633
  },
  {
    "globaleventid": "327793582",
    "sqldate": "20141212",
    "monthyear": "201412",
    "year": "2014",
    "fractiondate": "2014.937",
    "eventcode": "173",
    "quadclass": "4",
    "nummentions": "2",
    "numsources": "1",
    "numarticles": "2",
    "avgtone": "3.54430379746835",
    "sourceurl": "http://www.hngn.com/articles/52662/20141212/debra-milke-cleared-murder-charges-spending-22-years-death-row.htm",
    "feature_id": "44784",
    "feature_name": "Phoenix",
    "state_alpha": "AZ",
    "county_name": "Maricopa",
    "county_numeric": "013",
    "prim_lat_dec": "33.4484",
    "prim_long_dec": "-112.074",
    "elev_in_m": "331",
    "elev_in_ft": "1086",
    "lat": 33.4484,
    "long": -112.074
  },
  {
    "globaleventid": "327793581",
    "sqldate": "20141212",
    "monthyear": "201412",
    "year": "2014",
    "fractiondate": "2014.937",
    "eventcode": "173",
    "quadclass": "4",
    "nummentions": "4",
    "numsources": "1",
    "numarticles": "4",
    "avgtone": "0.36231884057971",
    "sourceurl": "http://www.nydailynews.com/new-york/nyc-crime/rikers-island-guard-convicted-smuggling-drugs-article-1.2043232",
    "feature_id": "971945",
    "feature_name": "Manhattan",
    "state_alpha": "NY",
    "county_name": "New York",
    "county_numeric": "061",
    "prim_lat_dec": "40.7834",
    "prim_long_dec": "-73.9662",
    "elev_in_m": "35",
    "elev_in_ft": "115",
    "lat": 40.7834,
    "long": -73.9662
  },
  {
    "globaleventid": "327793579",
    "sqldate": "20141212",
    "monthyear": "201412",
    "year": "2014",
    "fractiondate": "2014.937",
    "eventcode": "173",
    "quadclass": "4",
    "nummentions": "1",
    "numsources": "1",
    "numarticles": "1",
    "avgtone": "0.333333333333333",
    "sourceurl": "http://www.nydailynews.com/new-york/nyc-crime/judge-rips-mobster-sentencing-bad-america-article-1.2042742",
    "feature_id": "944840",
    "feature_name": "Brooklyn",
    "state_alpha": "NY",
    "county_name": "Delaware",
    "county_numeric": "025",
    "prim_lat_dec": "42.3442",
    "prim_long_dec": "-75.1704",
    "elev_in_m": "366",
    "elev_in_ft": "1201",
    "lat": 42.3442,
    "long": -75.1704
  },
  {
    "globaleventid": "327793577",
    "sqldate": "20141212",
    "monthyear": "201412",
    "year": "2014",
    "fractiondate": "2014.937",
    "eventcode": "173",
    "quadclass": "4",
    "nummentions": "1",
    "numsources": "1",
    "numarticles": "1",
    "avgtone": "2.96296296296296",
    "sourceurl": "http://www.bergendispatch.com/articles/35683604/Narcotic-Task-Force-Nabs-3-In-Heroin-Deal.aspx",
    "feature_id": "876855",
    "feature_name": "Hackensack",
    "state_alpha": "NJ",
    "county_name": "Bergen",
    "county_numeric": "003",
    "prim_lat_dec": "40.8859",
    "prim_long_dec": "-74.0435",
    "elev_in_m": "6",
    "elev_in_ft": "20",
    "lat": 40.8859,
    "long": -74.0435
  },
  {
    "globaleventid": "327793575",
    "sqldate": "20141212",
    "monthyear": "201412",
    "year": "2014",
    "fractiondate": "2014.937",
    "eventcode": "173",
    "quadclass": "4",
    "nummentions": "60",
    "numsources": "7",
    "numarticles": "60",
    "avgtone": "0.667131352011274",
    "sourceurl": "http://www.sfgate.com/news/crime/article/Man-gets-30-year-sentence-in-fatal-beating-5953119.php",
    "feature_id": "882043",
    "feature_name": "North Bergen",
    "state_alpha": "NJ",
    "county_name": "Hudson",
    "county_numeric": "017",
    "prim_lat_dec": "40.8043",
    "prim_long_dec": "-74.0121",
    "elev_in_m": "64",
    "elev_in_ft": "210",
    "lat": 40.8043,
    "long": -74.0121
  },
  {
    "globaleventid": "327793574",
    "sqldate": "20141212",
    "monthyear": "201412",
    "year": "2014",
    "fractiondate": "2014.937",
    "eventcode": "173",
    "quadclass": "4",
    "nummentions": "4",
    "numsources": "1",
    "numarticles": "4",
    "avgtone": "0.60060120240481",
    "sourceurl": "http://patch.com/new-jersey/longvalley/man-jailed-after-fatal-beating-hammer-left-victim-dead-morris-county",
    "feature_id": "882043",
    "feature_name": "North Bergen",
    "state_alpha": "NJ",
    "county_name": "Hudson",
    "county_numeric": "017",
    "prim_lat_dec": "40.8043",
    "prim_long_dec": "-74.0121",
    "elev_in_m": "64",
    "elev_in_ft": "210",
    "lat": 40.8043,
    "long": -74.0121
  },
  {
    "globaleventid": "327793573",
    "sqldate": "20141212",
    "monthyear": "201412",
    "year": "2014",
    "fractiondate": "2014.937",
    "eventcode": "173",
    "quadclass": "4",
    "nummentions": "18",
    "numsources": "1",
    "numarticles": "18",
    "avgtone": "0.806451612903226",
    "sourceurl": "http://www.seacoastonline.com/article/20141212/NEWS/141219693/101017/NEWS",
    "feature_id": "868730",
    "feature_name": "Newmarket",
    "state_alpha": "NH",
    "county_name": "Rockingham",
    "county_numeric": "015",
    "prim_lat_dec": "43.0829",
    "prim_long_dec": "-70.9351",
    "elev_in_m": "10",
    "elev_in_ft": "33",
    "lat": 43.0829,
    "long": -70.9351
  },
  {
    "globaleventid": "327793568",
    "sqldate": "20141212",
    "monthyear": "201412",
    "year": "2014",
    "fractiondate": "2014.937",
    "eventcode": "173",
    "quadclass": "4",
    "nummentions": "6",
    "numsources": "1",
    "numarticles": "6",
    "avgtone": "0.352112676056338",
    "sourceurl": "http://www.echopress.com/news/news-briefs-woman-dead-after-being-found-wooded-area-bemidji-3632457",
    "feature_id": "655030",
    "feature_name": "Minneapolis",
    "state_alpha": "MN",
    "county_name": "Hennepin",
    "county_numeric": "053",
    "prim_lat_dec": "44.98",
    "prim_long_dec": "-93.2638",
    "elev_in_m": "253",
    "elev_in_ft": "830",
    "lat": 44.98,
    "long": -93.2638
  },
  {
    "globaleventid": "327793567",
    "sqldate": "20141212",
    "monthyear": "201412",
    "year": "2014",
    "fractiondate": "2014.937",
    "eventcode": "173",
    "quadclass": "4",
    "nummentions": "2",
    "numsources": "1",
    "numarticles": "2",
    "avgtone": "0.352112676056338",
    "sourceurl": "http://www.echopress.com/news/news-briefs-woman-dead-after-being-found-wooded-area-bemidji-3632457",
    "feature_id": "655030",
    "feature_name": "Minneapolis",
    "state_alpha": "MN",
    "county_name": "Hennepin",
    "county_numeric": "053",
    "prim_lat_dec": "44.98",
    "prim_long_dec": "-93.2638",
    "elev_in_m": "253",
    "elev_in_ft": "830",
    "lat": 44.98,
    "long": -93.2638
  },
  {
    "globaleventid": "327793565",
    "sqldate": "20141212",
    "monthyear": "201412",
    "year": "2014",
    "fractiondate": "2014.937",
    "eventcode": "173",
    "quadclass": "4",
    "nummentions": "8",
    "numsources": "2",
    "numarticles": "8",
    "avgtone": "1.092899800929",
    "sourceurl": "http://www.wickedlocal.com/article/20141212/NEWS/141218320",
    "feature_id": "611998",
    "feature_name": "Sherborn",
    "state_alpha": "MA",
    "county_name": "Middlesex",
    "county_numeric": "017",
    "prim_lat_dec": "42.239",
    "prim_long_dec": "-71.3698",
    "elev_in_m": "62",
    "elev_in_ft": "203",
    "lat": 42.239,
    "long": -71.3698
  },
  {
    "globaleventid": "327793564",
    "sqldate": "20141212",
    "monthyear": "201412",
    "year": "2014",
    "fractiondate": "2014.937",
    "eventcode": "173",
    "quadclass": "4",
    "nummentions": "6",
    "numsources": "2",
    "numarticles": "6",
    "avgtone": "1.83831665639177",
    "sourceurl": "http://www.oregonlive.com/portland/index.ssf/2014/12/oregon_inmate_charged_with_vic.html",
    "feature_id": "531871",
    "feature_name": "Washington",
    "state_alpha": "DC",
    "county_name": "District of Columbia",
    "county_numeric": "001",
    "prim_lat_dec": "38.8951",
    "prim_long_dec": "-77.0364",
    "elev_in_m": "7",
    "elev_in_ft": "23",
    "lat": 38.8951,
    "long": -77.0364
  },
  {
    "globaleventid": "327793563",
    "sqldate": "20141212",
    "monthyear": "201412",
    "year": "2014",
    "fractiondate": "2014.937",
    "eventcode": "173",
    "quadclass": "4",
    "nummentions": "2",
    "numsources": "1",
    "numarticles": "2",
    "avgtone": "0.0",
    "sourceurl": "http://www.omakchronicle.com/news/2014/dec/12/man-sentenced-wellpinit-sexual-assault/",
    "feature_id": "531871",
    "feature_name": "Washington",
    "state_alpha": "DC",
    "county_name": "District of Columbia",
    "county_numeric": "001",
    "prim_lat_dec": "38.8951",
    "prim_long_dec": "-77.0364",
    "elev_in_m": "7",
    "elev_in_ft": "23",
    "lat": 38.8951,
    "long": -77.0364
  },
  {
    "globaleventid": "327793562",
    "sqldate": "20141212",
    "monthyear": "201412",
    "year": "2014",
    "fractiondate": "2014.937",
    "eventcode": "173",
    "quadclass": "4",
    "nummentions": "2",
    "numsources": "1",
    "numarticles": "2",
    "avgtone": "0.0",
    "sourceurl": "http://www.omakchronicle.com/news/2014/dec/12/man-sentenced-wellpinit-sexual-assault/",
    "feature_id": "1512786",
    "feature_name": "Wellpinit",
    "state_alpha": "WA",
    "county_name": "Stevens",
    "county_numeric": "065",
    "prim_lat_dec": "47.8879",
    "prim_long_dec": "-117.988",
    "elev_in_m": "735",
    "elev_in_ft": "2411",
    "lat": 47.8879,
    "long": -117.988
  },
  {
    "globaleventid": "327793561",
    "sqldate": "20141212",
    "monthyear": "201412",
    "year": "2014",
    "fractiondate": "2014.937",
    "eventcode": "173",
    "quadclass": "4",
    "nummentions": "2",
    "numsources": "1",
    "numarticles": "2",
    "avgtone": "0.0",
    "sourceurl": "http://ksn.com/2014/12/12/143092/",
    "feature_id": "473862",
    "feature_name": "Wichita",
    "state_alpha": "KS",
    "county_name": "Sedgwick",
    "county_numeric": "173",
    "prim_lat_dec": "37.6922",
    "prim_long_dec": "-97.3375",
    "elev_in_m": "397",
    "elev_in_ft": "1302",
    "lat": 37.6922,
    "long": -97.3375
  },
  {
    "globaleventid": "327793559",
    "sqldate": "20141212",
    "monthyear": "201412",
    "year": "2014",
    "fractiondate": "2014.937",
    "eventcode": "173",
    "quadclass": "4",
    "nummentions": "8",
    "numsources": "1",
    "numarticles": "8",
    "avgtone": "2.21238938053097",
    "sourceurl": "http://www.timesofisrael.com/arab-activist-freed-awaiting-immigration-sentence/",
    "feature_id": "423587",
    "feature_name": "Chicago",
    "state_alpha": "IL",
    "county_name": "Cook",
    "county_numeric": "031",
    "prim_lat_dec": "41.85",
    "prim_long_dec": "-87.6501",
    "elev_in_m": "179",
    "elev_in_ft": "587",
    "lat": 41.85,
    "long": -87.6501
  },
  {
    "globaleventid": "327793557",
    "sqldate": "20141212",
    "monthyear": "201412",
    "year": "2014",
    "fractiondate": "2014.937",
    "eventcode": "173",
    "quadclass": "4",
    "nummentions": "2",
    "numsources": "1",
    "numarticles": "2",
    "avgtone": "1.28617363344051",
    "sourceurl": "http://www.myfoxchicago.com/story/27616414/17-years-later-man-gets-40-years-for-downers-grove-murder",
    "feature_id": "421767",
    "feature_name": "Downers Grove",
    "state_alpha": "IL",
    "county_name": "DuPage",
    "county_numeric": "043",
    "prim_lat_dec": "41.8089",
    "prim_long_dec": "-88.0112",
    "elev_in_m": "226",
    "elev_in_ft": "741",
    "lat": 41.8089,
    "long": -88.0112
  },
  {
    "globaleventid": "327793556",
    "sqldate": "20141212",
    "monthyear": "201412",
    "year": "2014",
    "fractiondate": "2014.937",
    "eventcode": "173",
    "quadclass": "4",
    "nummentions": "4",
    "numsources": "4",
    "numarticles": "4",
    "avgtone": "0.758055235903337",
    "sourceurl": "http://www.chron.com/news/crime/article/5-Things-to-Know-in-Florida-for-Dec-12-5952418.php",
    "feature_id": "1295807",
    "feature_name": "Nolensville",
    "state_alpha": "TN",
    "county_name": "Williamson",
    "county_numeric": "187",
    "prim_lat_dec": "35.9523",
    "prim_long_dec": "-86.6694",
    "elev_in_m": "189",
    "elev_in_ft": "620",
    "lat": 35.9523,
    "long": -86.6694
  },
  {
    "globaleventid": "327793555",
    "sqldate": "20141212",
    "monthyear": "201412",
    "year": "2014",
    "fractiondate": "2014.937",
    "eventcode": "173",
    "quadclass": "4",
    "nummentions": "1",
    "numsources": "1",
    "numarticles": "1",
    "avgtone": "3.2994923857868",
    "sourceurl": "http://www.news-press.com/story/news/crime/2014/12/12/alleged-north-naples-killer-competent/20325319/",
    "feature_id": "287841",
    "feature_name": "North Naples",
    "state_alpha": "FL",
    "county_name": "Collier",
    "county_numeric": "021",
    "prim_lat_dec": "26.2193",
    "prim_long_dec": "-81.7918",
    "elev_in_m": "4",
    "elev_in_ft": "13",
    "lat": 26.2193,
    "long": -81.7918
  },
  {
    "globaleventid": "327793553",
    "sqldate": "20141212",
    "monthyear": "201412",
    "year": "2014",
    "fractiondate": "2014.937",
    "eventcode": "173",
    "quadclass": "4",
    "nummentions": "4",
    "numsources": "1",
    "numarticles": "4",
    "avgtone": "1.88679245283019",
    "sourceurl": "http://www.bizjournals.com/tampabay/blog/morning-edition/2014/12/tampa-man-gets-37-month-sentence-in-fraud-scheme.html",
    "feature_id": "277593",
    "feature_name": "San Francisco",
    "state_alpha": "CA",
    "county_name": "San Francisco",
    "county_numeric": "075",
    "prim_lat_dec": "37.775",
    "prim_long_dec": "-122.419",
    "elev_in_m": "16",
    "elev_in_ft": "52",
    "lat": 37.775,
    "long": -122.419
  },
  {
    "globaleventid": "327793548",
    "sqldate": "20141212",
    "monthyear": "201412",
    "year": "2014",
    "fractiondate": "2014.937",
    "eventcode": "173",
    "quadclass": "4",
    "nummentions": "12",
    "numsources": "2",
    "numarticles": "12",
    "avgtone": "2.23214285714286",
    "sourceurl": "http://www.orovillemr.com/general-news/20141211/arab-activist-freed-awaiting-immigration-sentence",
    "feature_id": "1617959",
    "feature_name": "Detroit",
    "state_alpha": "MI",
    "county_name": "Wayne",
    "county_numeric": "163",
    "prim_lat_dec": "42.3314",
    "prim_long_dec": "-83.0458",
    "elev_in_m": "182",
    "elev_in_ft": "597",
    "lat": 42.3314,
    "long": -83.0458
  },
  {
    "globaleventid": "327793546",
    "sqldate": "20141212",
    "monthyear": "201412",
    "year": "2014",
    "fractiondate": "2014.937",
    "eventcode": "173",
    "quadclass": "4",
    "nummentions": "1",
    "numsources": "1",
    "numarticles": "1",
    "avgtone": "2.57787325456498",
    "sourceurl": "http://www.washingtonpost.com/local/virginia-politics/former-virginia-governor-mcdonnells-sentencing-guidelines-10-years-at-least/2014/12/12/6ba6db6e-816e-11e4-8882-03cf08410beb_story.html",
    "feature_id": "1499957",
    "feature_name": "Richmond",
    "state_alpha": "VA",
    "county_name": "Richmond (city)",
    "county_numeric": "760",
    "prim_lat_dec": "37.5538",
    "prim_long_dec": "-77.4603",
    "elev_in_m": "64",
    "elev_in_ft": "210",
    "lat": 37.5538,
    "long": -77.4603
  },
  {
    "globaleventid": "327793544",
    "sqldate": "20141212",
    "monthyear": "201412",
    "year": "2014",
    "fractiondate": "2014.937",
    "eventcode": "173",
    "quadclass": "4",
    "nummentions": "2",
    "numsources": "1",
    "numarticles": "2",
    "avgtone": "0.675675675675676",
    "sourceurl": "http://www.ksat.com/content/pns/ksat/news/2014/12/12/4-get-federal-prison-terms-in-gun-trafficking-scheme.html",
    "feature_id": "1380951",
    "feature_name": "San Antonio",
    "state_alpha": "TX",
    "county_name": "Bexar",
    "county_numeric": "029",
    "prim_lat_dec": "29.4241",
    "prim_long_dec": "-98.4936",
    "elev_in_m": "198",
    "elev_in_ft": "650",
    "lat": 29.4241,
    "long": -98.4936
  },
  {
    "globaleventid": "327793542",
    "sqldate": "20141212",
    "monthyear": "201412",
    "year": "2014",
    "fractiondate": "2014.937",
    "eventcode": "173",
    "quadclass": "4",
    "nummentions": "22",
    "numsources": "10",
    "numarticles": "22",
    "avgtone": "0.061012812690665",
    "sourceurl": "http://www.sfgate.com/news/crime/article/Tennessee-teen-gets-10-years-for-fatal-DUI-crash-5952547.php",
    "feature_id": "1295807",
    "feature_name": "Nolensville",
    "state_alpha": "TN",
    "county_name": "Williamson",
    "county_numeric": "187",
    "prim_lat_dec": "35.9523",
    "prim_long_dec": "-86.6694",
    "elev_in_m": "189",
    "elev_in_ft": "620",
    "lat": 35.9523,
    "long": -86.6694
  },
  {
    "globaleventid": "327793539",
    "sqldate": "20141212",
    "monthyear": "201412",
    "year": "2014",
    "fractiondate": "2014.937",
    "eventcode": "173",
    "quadclass": "4",
    "nummentions": "2",
    "numsources": "1",
    "numarticles": "1",
    "avgtone": "1.12570356472795",
    "sourceurl": "http://montgomerynews.com/articles/2014/12/12/glenside_news_globe_times_chronicle/news/doc5485eb7d1f420628816805.txt",
    "feature_id": "1209052",
    "feature_name": "Philadelphia",
    "state_alpha": "PA",
    "county_name": "Philadelphia",
    "county_numeric": "101",
    "prim_lat_dec": "39.9523",
    "prim_long_dec": "-75.1638",
    "elev_in_m": "14",
    "elev_in_ft": "46",
    "lat": 39.9523,
    "long": -75.1638
  },
  {
    "globaleventid": "327793536",
    "sqldate": "20141212",
    "monthyear": "201412",
    "year": "2014",
    "fractiondate": "2014.937",
    "eventcode": "173",
    "quadclass": "4",
    "nummentions": "2",
    "numsources": "1",
    "numarticles": "2",
    "avgtone": "0.413223140495868",
    "sourceurl": "http://www.phillytrib.com/news/state_and_region/article_73cb64e8-783f-5a13-9080-35ff06061c28.html",
    "feature_id": "1209052",
    "feature_name": "Philadelphia",
    "state_alpha": "PA",
    "county_name": "Philadelphia",
    "county_numeric": "101",
    "prim_lat_dec": "39.9523",
    "prim_long_dec": "-75.1638",
    "elev_in_m": "14",
    "elev_in_ft": "46",
    "lat": 39.9523,
    "long": -75.1638
  },
  {
    "globaleventid": "327793535",
    "sqldate": "20141212",
    "monthyear": "201412",
    "year": "2014",
    "fractiondate": "2014.937",
    "eventcode": "173",
    "quadclass": "4",
    "nummentions": "2",
    "numsources": "1",
    "numarticles": "2",
    "avgtone": "1.93661971830986",
    "sourceurl": "http://www.oregonlive.com/portland/index.ssf/2014/12/oregon_inmate_charged_with_vic.html",
    "feature_id": "1136645",
    "feature_name": "Portland",
    "state_alpha": "OR",
    "county_name": "Multnomah",
    "county_numeric": "051",
    "prim_lat_dec": "45.5235",
    "prim_long_dec": "-122.676",
    "elev_in_m": "10",
    "elev_in_ft": "33",
    "lat": 45.5235,
    "long": -122.676
  },
  {
    "globaleventid": "327793531",
    "sqldate": "20141212",
    "monthyear": "201412",
    "year": "2014",
    "fractiondate": "2014.937",
    "eventcode": "173",
    "quadclass": "4",
    "nummentions": "9",
    "numsources": "8",
    "numarticles": "9",
    "avgtone": "2.27966570573456",
    "sourceurl": "http://local12.com/template/inews_wire/wires.regional.oh/3619f4f6-www.local12.com.shtml",
    "feature_id": "1064514",
    "feature_name": "Dayton",
    "state_alpha": "OH",
    "county_name": "Montgomery",
    "county_numeric": "113",
    "prim_lat_dec": "39.7589",
    "prim_long_dec": "-84.1916",
    "elev_in_m": "225",
    "elev_in_ft": "738",
    "lat": 39.7589,
    "long": -84.1916
  },
  {
    "globaleventid": "327793530",
    "sqldate": "20141212",
    "monthyear": "201412",
    "year": "2014",
    "fractiondate": "2014.937",
    "eventcode": "173",
    "quadclass": "4",
    "nummentions": "5",
    "numsources": "4",
    "numarticles": "5",
    "avgtone": "2.58654149143981",
    "sourceurl": "http://local12.com/template/inews_wire/wires.regional.oh/3619f4f6-www.local12.com.shtml",
    "feature_id": "1061709",
    "feature_name": "Trotwood",
    "state_alpha": "OH",
    "county_name": "Montgomery",
    "county_numeric": "113",
    "prim_lat_dec": "39.7973",
    "prim_long_dec": "-84.3113",
    "elev_in_m": "255",
    "elev_in_ft": "837",
    "lat": 39.7973,
    "long": -84.3113
  },
  {
    "globaleventid": "327793529",
    "sqldate": "20141212",
    "monthyear": "201412",
    "year": "2014",
    "fractiondate": "2014.937",
    "eventcode": "173",
    "quadclass": "4",
    "nummentions": "10",
    "numsources": "5",
    "numarticles": "10",
    "avgtone": "1.98414649850857",
    "sourceurl": "http://www.abc6onyourside.com/template/inews_wire/wires.regional.oh/3619f4f6-www.abc6onyourside.com.shtml",
    "feature_id": "1064514",
    "feature_name": "Dayton",
    "state_alpha": "OH",
    "county_name": "Montgomery",
    "county_numeric": "113",
    "prim_lat_dec": "39.7589",
    "prim_long_dec": "-84.1916",
    "elev_in_m": "225",
    "elev_in_ft": "738",
    "lat": 39.7589,
    "long": -84.1916
  },
  {
    "globaleventid": "327793528",
    "sqldate": "20141212",
    "monthyear": "201412",
    "year": "2014",
    "fractiondate": "2014.937",
    "eventcode": "173",
    "quadclass": "4",
    "nummentions": "6",
    "numsources": "5",
    "numarticles": "6",
    "avgtone": "2.04286351511228",
    "sourceurl": "http://www.abc6onyourside.com/template/inews_wire/wires.regional.oh/3619f4f6-www.abc6onyourside.com.shtml",
    "feature_id": "1061709",
    "feature_name": "Trotwood",
    "state_alpha": "OH",
    "county_name": "Montgomery",
    "county_numeric": "113",
    "prim_lat_dec": "39.7973",
    "prim_long_dec": "-84.3113",
    "elev_in_m": "255",
    "elev_in_ft": "837",
    "lat": 39.7973,
    "long": -84.3113
  },
  {
    "globaleventid": "327793526",
    "sqldate": "20141212",
    "monthyear": "201412",
    "year": "2014",
    "fractiondate": "2014.937",
    "eventcode": "173",
    "quadclass": "4",
    "nummentions": "2",
    "numsources": "2",
    "numarticles": "2",
    "avgtone": "1.94174757281553",
    "sourceurl": "http://www.wandtv.com/story/27611236/man-gets-5-plus-years-for-ohio-va-clinic-shooting",
    "feature_id": "1061709",
    "feature_name": "Trotwood",
    "state_alpha": "OH",
    "county_name": "Montgomery",
    "county_numeric": "113",
    "prim_lat_dec": "39.7973",
    "prim_long_dec": "-84.3113",
    "elev_in_m": "255",
    "elev_in_ft": "837",
    "lat": 39.7973,
    "long": -84.3113
  },
  {
    "globaleventid": "327793524",
    "sqldate": "20141212",
    "monthyear": "201412",
    "year": "2014",
    "fractiondate": "2014.937",
    "eventcode": "173",
    "quadclass": "4",
    "nummentions": "2",
    "numsources": "2",
    "numarticles": "2",
    "avgtone": "1.94174757281553",
    "sourceurl": "http://www.wandtv.com/story/27611236/man-gets-5-plus-years-for-ohio-va-clinic-shooting",
    "feature_id": "1061709",
    "feature_name": "Trotwood",
    "state_alpha": "OH",
    "county_name": "Montgomery",
    "county_numeric": "113",
    "prim_lat_dec": "39.7973",
    "prim_long_dec": "-84.3113",
    "elev_in_m": "255",
    "elev_in_ft": "837",
    "lat": 39.7973,
    "long": -84.3113
  },
  {
    "globaleventid": "327793523",
    "sqldate": "20141212",
    "monthyear": "201412",
    "year": "2014",
    "fractiondate": "2014.937",
    "eventcode": "173",
    "quadclass": "4",
    "nummentions": "8",
    "numsources": "3",
    "numarticles": "8",
    "avgtone": "2.64906471476705",
    "sourceurl": "http://local12.com/template/inews_wire/wires.regional.oh/3619f4f6-www.local12.com.shtml",
    "feature_id": "1061709",
    "feature_name": "Trotwood",
    "state_alpha": "OH",
    "county_name": "Montgomery",
    "county_numeric": "113",
    "prim_lat_dec": "39.7973",
    "prim_long_dec": "-84.3113",
    "elev_in_m": "255",
    "elev_in_ft": "837",
    "lat": 39.7973,
    "long": -84.3113
  },
  {
    "globaleventid": "327793515",
    "sqldate": "20141212",
    "monthyear": "201412",
    "year": "2014",
    "fractiondate": "2014.937",
    "eventcode": "172",
    "quadclass": "4",
    "nummentions": "1",
    "numsources": "1",
    "numarticles": "1",
    "avgtone": "5.720823798627",
    "sourceurl": "http://host.madison.com/news/local/861a43c8-5596-5035-addf-5b9c487aa02f.html",
    "feature_id": "423587",
    "feature_name": "Chicago",
    "state_alpha": "IL",
    "county_name": "Cook",
    "county_numeric": "031",
    "prim_lat_dec": "41.85",
    "prim_long_dec": "-87.6501",
    "elev_in_m": "179",
    "elev_in_ft": "587",
    "lat": 41.85,
    "long": -87.6501
  },
  {
    "globaleventid": "327793512",
    "sqldate": "20141212",
    "monthyear": "201412",
    "year": "2014",
    "fractiondate": "2014.937",
    "eventcode": "172",
    "quadclass": "4",
    "nummentions": "1",
    "numsources": "1",
    "numarticles": "1",
    "avgtone": "5.51470588235294",
    "sourceurl": "http://chronicle.augusta.com/news/metro/2014-12-11/sc-couples-lawyers-seek-legal-fees-state-after-gay-marriage-trial",
    "feature_id": "1499957",
    "feature_name": "Richmond",
    "state_alpha": "VA",
    "county_name": "Richmond (city)",
    "county_numeric": "760",
    "prim_lat_dec": "37.5538",
    "prim_long_dec": "-77.4603",
    "elev_in_m": "64",
    "elev_in_ft": "210",
    "lat": 37.5538,
    "long": -77.4603
  },
  {
    "globaleventid": "327793508",
    "sqldate": "20141212",
    "monthyear": "201412",
    "year": "2014",
    "fractiondate": "2014.937",
    "eventcode": "139",
    "quadclass": "3",
    "nummentions": "4",
    "numsources": "1",
    "numarticles": "4",
    "avgtone": "1.81818181818182",
    "sourceurl": "http://www.wkyt.com/news/state/headlines/285684691.html",
    "feature_id": "509453",
    "feature_name": "Louisville",
    "state_alpha": "KY",
    "county_name": "Jefferson",
    "county_numeric": "111",
    "prim_lat_dec": "38.2542",
    "prim_long_dec": "-85.7594",
    "elev_in_m": "142",
    "elev_in_ft": "466",
    "lat": 38.2542,
    "long": -85.7594
  },
  {
    "globaleventid": "327793505",
    "sqldate": "20141212",
    "monthyear": "201412",
    "year": "2014",
    "fractiondate": "2014.937",
    "eventcode": "1241",
    "quadclass": "3",
    "nummentions": "48",
    "numsources": "6",
    "numarticles": "48",
    "avgtone": "4.4851125357436",
    "sourceurl": "http://www.globalpost.com/dispatch/news/thomson-reuters/141212/us-opts-not-force-ny-times-reporter-reveal-source",
    "feature_id": "1499957",
    "feature_name": "Richmond",
    "state_alpha": "VA",
    "county_name": "Richmond (city)",
    "county_numeric": "760",
    "prim_lat_dec": "37.5538",
    "prim_long_dec": "-77.4603",
    "elev_in_m": "64",
    "elev_in_ft": "210",
    "lat": 37.5538,
    "long": -77.4603
  },
  {
    "globaleventid": "327793503",
    "sqldate": "20141212",
    "monthyear": "201412",
    "year": "2014",
    "fractiondate": "2014.937",
    "eventcode": "1241",
    "quadclass": "3",
    "nummentions": "18",
    "numsources": "6",
    "numarticles": "18",
    "avgtone": "4.50108355531762",
    "sourceurl": "http://www.reuters.com/article/2014/12/13/usa-reporter-source-idUSL1N0TX00H20141213",
    "feature_id": "1499957",
    "feature_name": "Richmond",
    "state_alpha": "VA",
    "county_name": "Richmond (city)",
    "county_numeric": "760",
    "prim_lat_dec": "37.5538",
    "prim_long_dec": "-77.4603",
    "elev_in_m": "64",
    "elev_in_ft": "210",
    "lat": 37.5538,
    "long": -77.4603
  },
  {
    "globaleventid": "327793497",
    "sqldate": "20141212",
    "monthyear": "201412",
    "year": "2014",
    "fractiondate": "2014.937",
    "eventcode": "120",
    "quadclass": "3",
    "nummentions": "2",
    "numsources": "1",
    "numarticles": "2",
    "avgtone": "0.503018108651911",
    "sourceurl": "http://www.nola.com/crime/index.ssf/2014/12/judge_declines_hearing_on_conf.html",
    "feature_id": "959548",
    "feature_name": "Otisville",
    "state_alpha": "NY",
    "county_name": "Orange",
    "county_numeric": "071",
    "prim_lat_dec": "41.4734",
    "prim_long_dec": "-74.5385",
    "elev_in_m": "260",
    "elev_in_ft": "853",
    "lat": 41.4734,
    "long": -74.5385
  },
  {
    "globaleventid": "327793492",
    "sqldate": "20141212",
    "monthyear": "201412",
    "year": "2014",
    "fractiondate": "2014.937",
    "eventcode": "120",
    "quadclass": "3",
    "nummentions": "152",
    "numsources": "50",
    "numarticles": "152",
    "avgtone": "1.16129913520209",
    "sourceurl": "http://rapidcityjournal.com/news/latest/defense-disputes-detective-in-german-student-case/article_8b5b4832-5ee3-5695-b320-cd31676ec810.html",
    "feature_id": "787504",
    "feature_name": "Missoula",
    "state_alpha": "MT",
    "county_name": "Missoula",
    "county_numeric": "063",
    "prim_lat_dec": "46.8721",
    "prim_long_dec": "-113.994",
    "elev_in_m": "978",
    "elev_in_ft": "3209",
    "lat": 46.8721,
    "long": -113.994
  },
  {
    "globaleventid": "327793490",
    "sqldate": "20141212",
    "monthyear": "201412",
    "year": "2014",
    "fractiondate": "2014.937",
    "eventcode": "120",
    "quadclass": "3",
    "nummentions": "5",
    "numsources": "1",
    "numarticles": "5",
    "avgtone": "5.33333333333333",
    "sourceurl": "http://www.kcrg.com/subject/news/iowa-supreme-court-declines-to-expand-homebuyers-remedy-20141212",
    "feature_id": "461653",
    "feature_name": "Sioux City",
    "state_alpha": "IA",
    "county_name": "Woodbury",
    "county_numeric": "193",
    "prim_lat_dec": "42.5",
    "prim_long_dec": "-96.4003",
    "elev_in_m": "366",
    "elev_in_ft": "1201",
    "lat": 42.5,
    "long": -96.4003
  },
  {
    "globaleventid": "327793489",
    "sqldate": "20141212",
    "monthyear": "201412",
    "year": "2014",
    "fractiondate": "2014.937",
    "eventcode": "120",
    "quadclass": "3",
    "nummentions": "2",
    "numsources": "1",
    "numarticles": "2",
    "avgtone": "3.29457364341085",
    "sourceurl": "http://www.utsandiego.com/news/2014/dec/12/greenpeace-convassing-shopping-donations-malls/",
    "feature_id": "1661377",
    "feature_name": "San Diego",
    "state_alpha": "CA",
    "county_name": "San Diego",
    "county_numeric": "073",
    "prim_lat_dec": "32.7153",
    "prim_long_dec": "-117.157",
    "elev_in_m": "19",
    "elev_in_ft": "62",
    "lat": 32.7153,
    "long": -117.157
  },
  {
    "globaleventid": "327793488",
    "sqldate": "20141212",
    "monthyear": "201412",
    "year": "2014",
    "fractiondate": "2014.937",
    "eventcode": "120",
    "quadclass": "3",
    "nummentions": "2",
    "numsources": "1",
    "numarticles": "2",
    "avgtone": "2.80172413793103",
    "sourceurl": "http://www.marketwired.com/press-release/amerio-law-firm-in-sacramento-discusses-holiday-duis-1976524.htm",
    "feature_id": "1659564",
    "feature_name": "Sacramento",
    "state_alpha": "CA",
    "county_name": "Sacramento",
    "county_numeric": "067",
    "prim_lat_dec": "38.5816",
    "prim_long_dec": "-121.494",
    "elev_in_m": "8",
    "elev_in_ft": "26",
    "lat": 38.5816,
    "long": -121.494
  },
  {
    "globaleventid": "327793486",
    "sqldate": "20141212",
    "monthyear": "201412",
    "year": "2014",
    "fractiondate": "2014.937",
    "eventcode": "120",
    "quadclass": "3",
    "nummentions": "4",
    "numsources": "1",
    "numarticles": "4",
    "avgtone": "5.01730103806228",
    "sourceurl": "http://www.mysanantonio.com/news/local/article/Judge-Texas-gay-marriage-ban-will-remain-in-5952889.php",
    "feature_id": "1629985",
    "feature_name": "New Orleans",
    "state_alpha": "LA",
    "county_name": "Orleans",
    "county_numeric": "071",
    "prim_lat_dec": "29.9546",
    "prim_long_dec": "-90.0751",
    "elev_in_m": "0",
    "elev_in_ft": "0",
    "lat": 29.9546,
    "long": -90.0751
  },
  {
    "globaleventid": "327793485",
    "sqldate": "20141212",
    "monthyear": "201412",
    "year": "2014",
    "fractiondate": "2014.937",
    "eventcode": "120",
    "quadclass": "3",
    "nummentions": "6",
    "numsources": "1",
    "numarticles": "6",
    "avgtone": "5.51470588235294",
    "sourceurl": "http://chronicle.augusta.com/news/metro/2014-12-11/sc-couples-lawyers-seek-legal-fees-state-after-gay-marriage-trial",
    "feature_id": "1499957",
    "feature_name": "Richmond",
    "state_alpha": "VA",
    "county_name": "Richmond (city)",
    "county_numeric": "760",
    "prim_lat_dec": "37.5538",
    "prim_long_dec": "-77.4603",
    "elev_in_m": "64",
    "elev_in_ft": "210",
    "lat": 37.5538,
    "long": -77.4603
  },
  {
    "globaleventid": "327793484",
    "sqldate": "20141212",
    "monthyear": "201412",
    "year": "2014",
    "fractiondate": "2014.937",
    "eventcode": "120",
    "quadclass": "3",
    "nummentions": "4",
    "numsources": "1",
    "numarticles": "4",
    "avgtone": "5.51470588235294",
    "sourceurl": "http://chronicle.augusta.com/news/metro/2014-12-11/sc-couples-lawyers-seek-legal-fees-state-after-gay-marriage-trial",
    "feature_id": "1499957",
    "feature_name": "Richmond",
    "state_alpha": "VA",
    "county_name": "Richmond (city)",
    "county_numeric": "760",
    "prim_lat_dec": "37.5538",
    "prim_long_dec": "-77.4603",
    "elev_in_m": "64",
    "elev_in_ft": "210",
    "lat": 37.5538,
    "long": -77.4603
  },
  {
    "globaleventid": "327793483",
    "sqldate": "20141212",
    "monthyear": "201412",
    "year": "2014",
    "fractiondate": "2014.937",
    "eventcode": "120",
    "quadclass": "3",
    "nummentions": "4",
    "numsources": "1",
    "numarticles": "4",
    "avgtone": "3.57142857142857",
    "sourceurl": "http://kuow.org/post/supporters-oregon-food-labeling-measure-concede-defeat",
    "feature_id": "1136645",
    "feature_name": "Portland",
    "state_alpha": "OR",
    "county_name": "Multnomah",
    "county_numeric": "051",
    "prim_lat_dec": "45.5235",
    "prim_long_dec": "-122.676",
    "elev_in_m": "10",
    "elev_in_ft": "33",
    "lat": 45.5235,
    "long": -122.676
  },
  {
    "globaleventid": "327793478",
    "sqldate": "20141212",
    "monthyear": "201412",
    "year": "2014",
    "fractiondate": "2014.937",
    "eventcode": "115",
    "quadclass": "3",
    "nummentions": "2",
    "numsources": "1",
    "numarticles": "2",
    "avgtone": "2.86532951289398",
    "sourceurl": "http://www.WLOX.com/story/27610483/biloxi-attorney-files-class-action-lawsuit-against-srhs-in-federal-court",
    "feature_id": "667173",
    "feature_name": "Biloxi",
    "state_alpha": "MS",
    "county_name": "Harrison",
    "county_numeric": "047",
    "prim_lat_dec": "30.396",
    "prim_long_dec": "-88.8853",
    "elev_in_m": "6",
    "elev_in_ft": "20",
    "lat": 30.396,
    "long": -88.8853
  },
  {
    "globaleventid": "327793477",
    "sqldate": "20141212",
    "monthyear": "201412",
    "year": "2014",
    "fractiondate": "2014.937",
    "eventcode": "115",
    "quadclass": "3",
    "nummentions": "2",
    "numsources": "1",
    "numarticles": "2",
    "avgtone": "2.86532951289398",
    "sourceurl": "http://www.WLOX.com/story/27610483/biloxi-attorney-files-class-action-lawsuit-against-srhs-in-federal-court",
    "feature_id": "667173",
    "feature_name": "Biloxi",
    "state_alpha": "MS",
    "county_name": "Harrison",
    "county_numeric": "047",
    "prim_lat_dec": "30.396",
    "prim_long_dec": "-88.8853",
    "elev_in_m": "6",
    "elev_in_ft": "20",
    "lat": 30.396,
    "long": -88.8853
  },
  {
    "globaleventid": "327793471",
    "sqldate": "20141212",
    "monthyear": "201412",
    "year": "2014",
    "fractiondate": "2014.937",
    "eventcode": "112",
    "quadclass": "3",
    "nummentions": "10",
    "numsources": "1",
    "numarticles": "10",
    "avgtone": "1.88679245283019",
    "sourceurl": "http://www.bizjournals.com/tampabay/blog/morning-edition/2014/12/tampa-man-gets-37-month-sentence-in-fraud-scheme.html",
    "feature_id": "277593",
    "feature_name": "San Francisco",
    "state_alpha": "CA",
    "county_name": "San Francisco",
    "county_numeric": "075",
    "prim_lat_dec": "37.775",
    "prim_long_dec": "-122.419",
    "elev_in_m": "16",
    "elev_in_ft": "52",
    "lat": 37.775,
    "long": -122.419
  },
  {
    "globaleventid": "327793470",
    "sqldate": "20141212",
    "monthyear": "201412",
    "year": "2014",
    "fractiondate": "2014.937",
    "eventcode": "112",
    "quadclass": "3",
    "nummentions": "4",
    "numsources": "1",
    "numarticles": "4",
    "avgtone": "1.57232704402516",
    "sourceurl": "http://www.chron.com/news/houston-texas/article/4-convicted-for-sex-trafficking-ring-involving-5953309.php",
    "feature_id": "1380948",
    "feature_name": "Houston",
    "state_alpha": "TX",
    "county_name": "Harris",
    "county_numeric": "201",
    "prim_lat_dec": "29.7633",
    "prim_long_dec": "-95.3633",
    "elev_in_m": "11",
    "elev_in_ft": "36",
    "lat": 29.7633,
    "long": -95.3633
  },
  {
    "globaleventid": "327793469",
    "sqldate": "20141212",
    "monthyear": "201412",
    "year": "2014",
    "fractiondate": "2014.937",
    "eventcode": "112",
    "quadclass": "3",
    "nummentions": "2",
    "numsources": "1",
    "numarticles": "2",
    "avgtone": "0.0",
    "sourceurl": "http://www.wwaytv3.com/2014/12/12/first-3-warrants-suspect-stole-purse-before-fires-attempted-break",
    "feature_id": "1027626",
    "feature_name": "Lake Park",
    "state_alpha": "NC",
    "county_name": "Union",
    "county_numeric": "179",
    "prim_lat_dec": "35.0863",
    "prim_long_dec": "-80.6351",
    "elev_in_m": "200",
    "elev_in_ft": "656",
    "lat": 35.0863,
    "long": -80.6351
  },
  {
    "globaleventid": "327793466",
    "sqldate": "20141212",
    "monthyear": "201412",
    "year": "2014",
    "fractiondate": "2014.937",
    "eventcode": "110",
    "quadclass": "3",
    "nummentions": "12",
    "numsources": "3",
    "numarticles": "12",
    "avgtone": "1.61829608932285",
    "sourceurl": "http://www.businessweek.com/news/2014-12-12/bitcoin-prosecution-lives-as-defense-warns-of-outlaw-y",
    "feature_id": "295004",
    "feature_name": "Miami",
    "state_alpha": "FL",
    "county_name": "Miami-Dade",
    "county_numeric": "086",
    "prim_lat_dec": "25.7743",
    "prim_long_dec": "-80.1937",
    "elev_in_m": "2",
    "elev_in_ft": "7",
    "lat": 25.7743,
    "long": -80.1937
  },
  {
    "globaleventid": "327793464",
    "sqldate": "20141212",
    "monthyear": "201412",
    "year": "2014",
    "fractiondate": "2014.937",
    "eventcode": "110",
    "quadclass": "3",
    "nummentions": "1",
    "numsources": "1",
    "numarticles": "1",
    "avgtone": "5.17241379310345",
    "sourceurl": "http://nypost.com/2014/12/12/court-orders-garner-judge-to-hold-open-hearing-on-deliberations/",
    "feature_id": "944840",
    "feature_name": "Brooklyn",
    "state_alpha": "NY",
    "county_name": "Delaware",
    "county_numeric": "025",
    "prim_lat_dec": "42.3442",
    "prim_long_dec": "-75.1704",
    "elev_in_m": "366",
    "elev_in_ft": "1201",
    "lat": 42.3442,
    "long": -75.1704
  },
  {
    "globaleventid": "327793463",
    "sqldate": "20141212",
    "monthyear": "201412",
    "year": "2014",
    "fractiondate": "2014.937",
    "eventcode": "110",
    "quadclass": "3",
    "nummentions": "12",
    "numsources": "2",
    "numarticles": "12",
    "avgtone": "5.67828994506807",
    "sourceurl": "http://www.denverpost.com/news/ci_27126933/colorado-education-association-appeals-dismissal-lawsuit",
    "feature_id": "201738",
    "feature_name": "Denver",
    "state_alpha": "CO",
    "county_name": "Denver",
    "county_numeric": "031",
    "prim_lat_dec": "39.7392",
    "prim_long_dec": "-104.985",
    "elev_in_m": "1609",
    "elev_in_ft": "5279",
    "lat": 39.7392,
    "long": -104.985
  },
  {
    "globaleventid": "327793462",
    "sqldate": "20141212",
    "monthyear": "201412",
    "year": "2014",
    "fractiondate": "2014.937",
    "eventcode": "100",
    "quadclass": "3",
    "nummentions": "2",
    "numsources": "1",
    "numarticles": "2",
    "avgtone": "2.83600493218249",
    "sourceurl": "http://www.capitalnewyork.com/article/city-hall/2014/12/8558453/thompson-defends-independence-local-das",
    "feature_id": "944840",
    "feature_name": "Brooklyn",
    "state_alpha": "NY",
    "county_name": "Delaware",
    "county_numeric": "025",
    "prim_lat_dec": "42.3442",
    "prim_long_dec": "-75.1704",
    "elev_in_m": "366",
    "elev_in_ft": "1201",
    "lat": 42.3442,
    "long": -75.1704
  },
  {
    "globaleventid": "327793460",
    "sqldate": "20141212",
    "monthyear": "201412",
    "year": "2014",
    "fractiondate": "2014.937",
    "eventcode": "100",
    "quadclass": "3",
    "nummentions": "4",
    "numsources": "1",
    "numarticles": "4",
    "avgtone": "0.95389507154213",
    "sourceurl": "http://www.businessinsider.com.au/vinod-khosla-ignores-order-to-open-martins-beach-2014-12/",
    "feature_id": "1659070",
    "feature_name": "Martins Beach",
    "state_alpha": "CA",
    "county_name": "San Mateo",
    "county_numeric": "081",
    "prim_lat_dec": "37.3749",
    "prim_long_dec": "-122.408",
    "elev_in_m": "6",
    "elev_in_ft": "20",
    "lat": 37.3749,
    "long": -122.408
  },
  {
    "globaleventid": "327793287",
    "sqldate": "20141212",
    "monthyear": "201412",
    "year": "2014",
    "fractiondate": "2014.937",
    "eventcode": "190",
    "quadclass": "4",
    "nummentions": "85",
    "numsources": "16",
    "numarticles": "80",
    "avgtone": "0.313628315856763",
    "sourceurl": "http://www.sfgate.com/news/crime/article/Patrol-defends-officer-who-drew-gun-at-protest-5953118.php",
    "feature_id": "277566",
    "feature_name": "Oakland",
    "state_alpha": "CA",
    "county_name": "Alameda",
    "county_numeric": "001",
    "prim_lat_dec": "37.8044",
    "prim_long_dec": "-122.271",
    "elev_in_m": "13",
    "elev_in_ft": "43",
    "lat": 37.8044,
    "long": -122.271
  },
  {
    "globaleventid": "327793280",
    "sqldate": "20141212",
    "monthyear": "201412",
    "year": "2014",
    "fractiondate": "2014.937",
    "eventcode": "110",
    "quadclass": "3",
    "nummentions": "1",
    "numsources": "1",
    "numarticles": "1",
    "avgtone": "5.17241379310345",
    "sourceurl": "http://nypost.com/2014/12/12/court-orders-garner-judge-to-hold-open-hearing-on-deliberations/",
    "feature_id": "944840",
    "feature_name": "Brooklyn",
    "state_alpha": "NY",
    "county_name": "Delaware",
    "county_numeric": "025",
    "prim_lat_dec": "42.3442",
    "prim_long_dec": "-75.1704",
    "elev_in_m": "366",
    "elev_in_ft": "1201",
    "lat": 42.3442,
    "long": -75.1704
  },
  {
    "globaleventid": "327793257",
    "sqldate": "20141212",
    "monthyear": "201412",
    "year": "2014",
    "fractiondate": "2014.937",
    "eventcode": "190",
    "quadclass": "4",
    "nummentions": "2",
    "numsources": "1",
    "numarticles": "2",
    "avgtone": "1.82648401826484",
    "sourceurl": "http://www.sandiegoreader.com/news/2014/dec/12/ticker-valley-center-false-bomb-report/",
    "feature_id": "1661377",
    "feature_name": "San Diego",
    "state_alpha": "CA",
    "county_name": "San Diego",
    "county_numeric": "073",
    "prim_lat_dec": "32.7153",
    "prim_long_dec": "-117.157",
    "elev_in_m": "19",
    "elev_in_ft": "62",
    "lat": 32.7153,
    "long": -117.157
  },
  {
    "globaleventid": "327793253",
    "sqldate": "20141212",
    "monthyear": "201412",
    "year": "2014",
    "fractiondate": "2014.937",
    "eventcode": "173",
    "quadclass": "4",
    "nummentions": "10",
    "numsources": "1",
    "numarticles": "10",
    "avgtone": "1.58730158730159",
    "sourceurl": "http://www.miamiherald.com/news/local/community/miami-dade/article4447845.html",
    "feature_id": "295004",
    "feature_name": "Miami",
    "state_alpha": "FL",
    "county_name": "Miami-Dade",
    "county_numeric": "086",
    "prim_lat_dec": "25.7743",
    "prim_long_dec": "-80.1937",
    "elev_in_m": "2",
    "elev_in_ft": "7",
    "lat": 25.7743,
    "long": -80.1937
  },
  {
    "globaleventid": "327793248",
    "sqldate": "20141212",
    "monthyear": "201412",
    "year": "2014",
    "fractiondate": "2014.937",
    "eventcode": "112",
    "quadclass": "3",
    "nummentions": "2",
    "numsources": "1",
    "numarticles": "2",
    "avgtone": "1.40679953106682",
    "sourceurl": "http://www.ocala.com/article/20141212/ARTICLES/141219900",
    "feature_id": "277982",
    "feature_name": "Atlantic Beach",
    "state_alpha": "FL",
    "county_name": "Duval",
    "county_numeric": "031",
    "prim_lat_dec": "30.3344",
    "prim_long_dec": "-81.3987",
    "elev_in_m": "1",
    "elev_in_ft": "3",
    "lat": 30.3344,
    "long": -81.3987
  },
  {
    "globaleventid": "327793247",
    "sqldate": "20141212",
    "monthyear": "201412",
    "year": "2014",
    "fractiondate": "2014.937",
    "eventcode": "112",
    "quadclass": "3",
    "nummentions": "2",
    "numsources": "1",
    "numarticles": "2",
    "avgtone": "1.40679953106682",
    "sourceurl": "http://www.ocala.com/article/20141212/ARTICLES/141219900",
    "feature_id": "277982",
    "feature_name": "Atlantic Beach",
    "state_alpha": "FL",
    "county_name": "Duval",
    "county_numeric": "031",
    "prim_lat_dec": "30.3344",
    "prim_long_dec": "-81.3987",
    "elev_in_m": "1",
    "elev_in_ft": "3",
    "lat": 30.3344,
    "long": -81.3987
  },
  {
    "globaleventid": "327793239",
    "sqldate": "20141212",
    "monthyear": "201412",
    "year": "2014",
    "fractiondate": "2014.937",
    "eventcode": "110",
    "quadclass": "3",
    "nummentions": "6",
    "numsources": "1",
    "numarticles": "6",
    "avgtone": "1.41065830721003",
    "sourceurl": "http://www.desertsun.com/story/news/crime_courts/2014/12/12/lawsuit-versus-former-radio-host/20317817/",
    "feature_id": "1656484",
    "feature_name": "Desert Hot Springs",
    "state_alpha": "CA",
    "county_name": "Riverside",
    "county_numeric": "065",
    "prim_lat_dec": "33.9611",
    "prim_long_dec": "-116.502",
    "elev_in_m": "328",
    "elev_in_ft": "1076",
    "lat": 33.9611,
    "long": -116.502
  },
  {
    "globaleventid": "327793191",
    "sqldate": "20141212",
    "monthyear": "201412",
    "year": "2014",
    "fractiondate": "2014.937",
    "eventcode": "120",
    "quadclass": "3",
    "nummentions": "6",
    "numsources": "1",
    "numarticles": "6",
    "avgtone": "0.93899135555887",
    "sourceurl": "http://in.reuters.com/article/2014/12/11/commerzprobes-idINL1N0TV29H20141211",
    "feature_id": "971945",
    "feature_name": "Manhattan",
    "state_alpha": "NY",
    "county_name": "New York",
    "county_numeric": "061",
    "prim_lat_dec": "40.7834",
    "prim_long_dec": "-73.9662",
    "elev_in_m": "35",
    "elev_in_ft": "115",
    "lat": 40.7834,
    "long": -73.9662
  },
  {
    "globaleventid": "327793190",
    "sqldate": "20141212",
    "monthyear": "201412",
    "year": "2014",
    "fractiondate": "2014.937",
    "eventcode": "120",
    "quadclass": "3",
    "nummentions": "24",
    "numsources": "1",
    "numarticles": "24",
    "avgtone": "0.93899135555887",
    "sourceurl": "http://in.reuters.com/article/2014/12/11/commerzprobes-idINL1N0TV29H20141211",
    "feature_id": "971945",
    "feature_name": "Manhattan",
    "state_alpha": "NY",
    "county_name": "New York",
    "county_numeric": "061",
    "prim_lat_dec": "40.7834",
    "prim_long_dec": "-73.9662",
    "elev_in_m": "35",
    "elev_in_ft": "115",
    "lat": 40.7834,
    "long": -73.9662
  },
  {
    "globaleventid": "327793183",
    "sqldate": "20141212",
    "monthyear": "201412",
    "year": "2014",
    "fractiondate": "2014.937",
    "eventcode": "1822",
    "quadclass": "4",
    "nummentions": "6",
    "numsources": "1",
    "numarticles": "6",
    "avgtone": "3.33333333333333",
    "sourceurl": "http://www.theguardian.com/us-news/2014/dec/12/cia-officials-criticize-torture-report",
    "feature_id": "531871",
    "feature_name": "Washington",
    "state_alpha": "DC",
    "county_name": "District of Columbia",
    "county_numeric": "001",
    "prim_lat_dec": "38.8951",
    "prim_long_dec": "-77.0364",
    "elev_in_m": "7",
    "elev_in_ft": "23",
    "lat": 38.8951,
    "long": -77.0364
  },
  {
    "globaleventid": "327793161",
    "sqldate": "20141212",
    "monthyear": "201412",
    "year": "2014",
    "fractiondate": "2014.937",
    "eventcode": "173",
    "quadclass": "4",
    "nummentions": "8",
    "numsources": "1",
    "numarticles": "8",
    "avgtone": "0.333333333333333",
    "sourceurl": "http://www.nydailynews.com/new-york/nyc-crime/judge-rips-mobster-sentencing-bad-america-article-1.2042742",
    "feature_id": "944840",
    "feature_name": "Brooklyn",
    "state_alpha": "NY",
    "county_name": "Delaware",
    "county_numeric": "025",
    "prim_lat_dec": "42.3442",
    "prim_long_dec": "-75.1704",
    "elev_in_m": "366",
    "elev_in_ft": "1201",
    "lat": 42.3442,
    "long": -75.1704
  },
  {
    "globaleventid": "327793146",
    "sqldate": "20141212",
    "monthyear": "201412",
    "year": "2014",
    "fractiondate": "2014.937",
    "eventcode": "173",
    "quadclass": "4",
    "nummentions": "6",
    "numsources": "3",
    "numarticles": "6",
    "avgtone": "0.159489633173844",
    "sourceurl": "http://onlineathens.com/local-news/2014-12-12/man-convicted-murder-parking-dispute-case",
    "feature_id": "531871",
    "feature_name": "Washington",
    "state_alpha": "DC",
    "county_name": "District of Columbia",
    "county_numeric": "001",
    "prim_lat_dec": "38.8951",
    "prim_long_dec": "-77.0364",
    "elev_in_m": "7",
    "elev_in_ft": "23",
    "lat": 38.8951,
    "long": -77.0364
  },
  {
    "globaleventid": "327793143",
    "sqldate": "20141212",
    "monthyear": "201412",
    "year": "2014",
    "fractiondate": "2014.937",
    "eventcode": "1241",
    "quadclass": "3",
    "nummentions": "6",
    "numsources": "1",
    "numarticles": "6",
    "avgtone": "0.823045267489712",
    "sourceurl": "http://www.koco.com/news/murder-conviction-upheld-for-wife-of-former-nichols-hills-fire-chief/30196158",
    "feature_id": "1095866",
    "feature_name": "Nichols Hills",
    "state_alpha": "OK",
    "county_name": "Oklahoma",
    "county_numeric": "109",
    "prim_lat_dec": "35.5509",
    "prim_long_dec": "-97.5489",
    "elev_in_m": "371",
    "elev_in_ft": "1217",
    "lat": 35.5509,
    "long": -97.5489
  },
  {
    "globaleventid": "327793124",
    "sqldate": "20141212",
    "monthyear": "201412",
    "year": "2014",
    "fractiondate": "2014.937",
    "eventcode": "120",
    "quadclass": "3",
    "nummentions": "6",
    "numsources": "1",
    "numarticles": "6",
    "avgtone": "5.12820512820513",
    "sourceurl": "http://www.greenfieldreporter.com/view/story/f0eb484b34e14425a03bbef3be8ccb50/IA--Construction-Defects-Iowa",
    "feature_id": "460373",
    "feature_name": "Postville",
    "state_alpha": "IA",
    "county_name": "Allamakee",
    "county_numeric": "005",
    "prim_lat_dec": "43.0847",
    "prim_long_dec": "-91.5682",
    "elev_in_m": "360",
    "elev_in_ft": "1181",
    "lat": 43.0847,
    "long": -91.5682
  },
  {
    "globaleventid": "327792855",
    "sqldate": "20141212",
    "monthyear": "201412",
    "year": "2014",
    "fractiondate": "2014.937",
    "eventcode": "182",
    "quadclass": "4",
    "nummentions": "8",
    "numsources": "1",
    "numarticles": "8",
    "avgtone": "0.892857142857143",
    "sourceurl": "http://www.oklahomastar.com/index.php/sid/228482641",
    "feature_id": "1100962",
    "feature_name": "Tulsa",
    "state_alpha": "OK",
    "county_name": "Tulsa",
    "county_numeric": "143",
    "prim_lat_dec": "36.154",
    "prim_long_dec": "-95.9928",
    "elev_in_m": "220",
    "elev_in_ft": "722",
    "lat": 36.154,
    "long": -95.9928
  },
  {
    "globaleventid": "327792853",
    "sqldate": "20141212",
    "monthyear": "201412",
    "year": "2014",
    "fractiondate": "2014.937",
    "eventcode": "190",
    "quadclass": "4",
    "nummentions": "10",
    "numsources": "1",
    "numarticles": "10",
    "avgtone": "2.45398773006135",
    "sourceurl": "http://www.buffalonews.com/city-region/niagara-falls/donella-nocera-loses-cancer-fight-amid-medical-marijuana-struggle-20141212&c=8JoW-7RVbUUfPmDwL3NLvx-1_Fz7qzWMlgyal3WhDN4&mkt=en-us",
    "feature_id": "970406",
    "feature_name": "Niagara Falls",
    "state_alpha": "NY",
    "county_name": "Niagara",
    "county_numeric": "063",
    "prim_lat_dec": "43.0945",
    "prim_long_dec": "-79.0567",
    "elev_in_m": "187",
    "elev_in_ft": "614",
    "lat": 43.0945,
    "long": -79.0567
  },
  {
    "globaleventid": "327792738",
    "sqldate": "20141212",
    "monthyear": "201412",
    "year": "2014",
    "fractiondate": "2014.937",
    "eventcode": "100",
    "quadclass": "3",
    "nummentions": "6",
    "numsources": "1",
    "numarticles": "6",
    "avgtone": "4.29338103756708",
    "sourceurl": "http://freerepublic.com/focus/f-news/3236602/posts",
    "feature_id": "531871",
    "feature_name": "Washington",
    "state_alpha": "DC",
    "county_name": "District of Columbia",
    "county_numeric": "001",
    "prim_lat_dec": "38.8951",
    "prim_long_dec": "-77.0364",
    "elev_in_m": "7",
    "elev_in_ft": "23",
    "lat": 38.8951,
    "long": -77.0364
  },
  {
    "globaleventid": "327792732",
    "sqldate": "20141212",
    "monthyear": "201412",
    "year": "2014",
    "fractiondate": "2014.937",
    "eventcode": "114",
    "quadclass": "3",
    "nummentions": "2",
    "numsources": "1",
    "numarticles": "2",
    "avgtone": "3.59389038634322",
    "sourceurl": "http://www.debka.com/article/24293/Which-slogan-will-carry-Israel%E2%80%99s-election-Pledges-of-affordable-housing-or-security-against-terror-",
    "feature_id": "531871",
    "feature_name": "Washington",
    "state_alpha": "DC",
    "county_name": "District of Columbia",
    "county_numeric": "001",
    "prim_lat_dec": "38.8951",
    "prim_long_dec": "-77.0364",
    "elev_in_m": "7",
    "elev_in_ft": "23",
    "lat": 38.8951,
    "long": -77.0364
  },
  {
    "globaleventid": "327792729",
    "sqldate": "20141212",
    "monthyear": "201412",
    "year": "2014",
    "fractiondate": "2014.937",
    "eventcode": "110",
    "quadclass": "3",
    "nummentions": "2",
    "numsources": "1",
    "numarticles": "2",
    "avgtone": "1.04477611940299",
    "sourceurl": "http://www.naharnet.com/stories/en/158870-u-n-voices-serious-concern-after-taliban-attacks-hit-kabul",
    "feature_id": "531871",
    "feature_name": "Washington",
    "state_alpha": "DC",
    "county_name": "District of Columbia",
    "county_numeric": "001",
    "prim_lat_dec": "38.8951",
    "prim_long_dec": "-77.0364",
    "elev_in_m": "7",
    "elev_in_ft": "23",
    "lat": 38.8951,
    "long": -77.0364
  },
  {
    "globaleventid": "327792710",
    "sqldate": "20141212",
    "monthyear": "201412",
    "year": "2014",
    "fractiondate": "2014.937",
    "eventcode": "120",
    "quadclass": "3",
    "nummentions": "2",
    "numsources": "1",
    "numarticles": "2",
    "avgtone": "2.94511378848728",
    "sourceurl": "http://www.newsmax.com/Newsfront/John-Boehner-alliances-Barack-Obama-Nancy-Pelosi/2014/12/12/id/612706/",
    "feature_id": "531871",
    "feature_name": "Washington",
    "state_alpha": "DC",
    "county_name": "District of Columbia",
    "county_numeric": "001",
    "prim_lat_dec": "38.8951",
    "prim_long_dec": "-77.0364",
    "elev_in_m": "7",
    "elev_in_ft": "23",
    "lat": 38.8951,
    "long": -77.0364
  },
  {
    "globaleventid": "327792709",
    "sqldate": "20141212",
    "monthyear": "201412",
    "year": "2014",
    "fractiondate": "2014.937",
    "eventcode": "110",
    "quadclass": "3",
    "nummentions": "1",
    "numsources": "1",
    "numarticles": "1",
    "avgtone": "2.61845386533666",
    "sourceurl": "http://laredosun.us/?p=11629",
    "feature_id": "531871",
    "feature_name": "Washington",
    "state_alpha": "DC",
    "county_name": "District of Columbia",
    "county_numeric": "001",
    "prim_lat_dec": "38.8951",
    "prim_long_dec": "-77.0364",
    "elev_in_m": "7",
    "elev_in_ft": "23",
    "lat": 38.8951,
    "long": -77.0364
  },
  {
    "globaleventid": "327792706",
    "sqldate": "20141212",
    "monthyear": "201412",
    "year": "2014",
    "fractiondate": "2014.937",
    "eventcode": "120",
    "quadclass": "3",
    "nummentions": "10",
    "numsources": "1",
    "numarticles": "10",
    "avgtone": "1.80623973727422",
    "sourceurl": "http://www.breitbart.com/Big-Government/2014/12/11/Pelosi-Comes-Out-Swinging-Against-Omnibus-Heartbroken-It-s-Like-Blackmail-And-A-Moral-Hazard",
    "feature_id": "531871",
    "feature_name": "Washington",
    "state_alpha": "DC",
    "county_name": "District of Columbia",
    "county_numeric": "001",
    "prim_lat_dec": "38.8951",
    "prim_long_dec": "-77.0364",
    "elev_in_m": "7",
    "elev_in_ft": "23",
    "lat": 38.8951,
    "long": -77.0364
  },
  {
    "globaleventid": "327792694",
    "sqldate": "20141212",
    "monthyear": "201412",
    "year": "2014",
    "fractiondate": "2014.937",
    "eventcode": "100",
    "quadclass": "3",
    "nummentions": "290",
    "numsources": "22",
    "numarticles": "270",
    "avgtone": "2.04144804529948",
    "sourceurl": "http://www.thestatesman.net/news/93482-us-house-okays-1-1t-spending-bill.html",
    "feature_id": "531871",
    "feature_name": "Washington",
    "state_alpha": "DC",
    "county_name": "District of Columbia",
    "county_numeric": "001",
    "prim_lat_dec": "38.8951",
    "prim_long_dec": "-77.0364",
    "elev_in_m": "7",
    "elev_in_ft": "23",
    "lat": 38.8951,
    "long": -77.0364
  },
  {
    "globaleventid": "327792693",
    "sqldate": "20141212",
    "monthyear": "201412",
    "year": "2014",
    "fractiondate": "2014.937",
    "eventcode": "100",
    "quadclass": "3",
    "nummentions": "40",
    "numsources": "4",
    "numarticles": "40",
    "avgtone": "1.99763558898928",
    "sourceurl": "http://www.chinapost.com.tw/international/americas/2014/12/13/423965/US-House.htm",
    "feature_id": "529313",
    "feature_name": "Capitol Hill",
    "state_alpha": "DC",
    "county_name": "District of Columbia",
    "county_numeric": "001",
    "prim_lat_dec": "38.889",
    "prim_long_dec": "-77.0003",
    "elev_in_m": "28",
    "elev_in_ft": "92",
    "lat": 38.889,
    "long": -77.0003
  },
  {
    "globaleventid": "327792643",
    "sqldate": "20141212",
    "monthyear": "201412",
    "year": "2014",
    "fractiondate": "2014.937",
    "eventcode": "193",
    "quadclass": "4",
    "nummentions": "3",
    "numsources": "1",
    "numarticles": "3",
    "avgtone": "5.59006211180124",
    "sourceurl": "http://www.kplctv.com/story/27601758/la-health-department-encouraging-people-to-get-a-flu-shot",
    "feature_id": "1629966",
    "feature_name": "Lake Charles",
    "state_alpha": "LA",
    "county_name": "Calcasieu",
    "county_numeric": "019",
    "prim_lat_dec": "30.2266",
    "prim_long_dec": "-93.2174",
    "elev_in_m": "4",
    "elev_in_ft": "13",
    "lat": 30.2266,
    "long": -93.2174
  },
  {
    "globaleventid": "327792642",
    "sqldate": "20141212",
    "monthyear": "201412",
    "year": "2014",
    "fractiondate": "2014.937",
    "eventcode": "193",
    "quadclass": "4",
    "nummentions": "3",
    "numsources": "1",
    "numarticles": "3",
    "avgtone": "5.59006211180124",
    "sourceurl": "http://www.kplctv.com/story/27601758/la-health-department-encouraging-people-to-get-a-flu-shot",
    "feature_id": "1629966",
    "feature_name": "Lake Charles",
    "state_alpha": "LA",
    "county_name": "Calcasieu",
    "county_numeric": "019",
    "prim_lat_dec": "30.2266",
    "prim_long_dec": "-93.2174",
    "elev_in_m": "4",
    "elev_in_ft": "13",
    "lat": 30.2266,
    "long": -93.2174
  },
  {
    "globaleventid": "327792540",
    "sqldate": "20141212",
    "monthyear": "201412",
    "year": "2014",
    "fractiondate": "2014.937",
    "eventcode": "112",
    "quadclass": "3",
    "nummentions": "10",
    "numsources": "1",
    "numarticles": "10",
    "avgtone": "1.24610591900312",
    "sourceurl": "http://www.bizjournals.com/buffalo/news/2014/12/12/feds-charge-2-from-buffalo-area-in-fraud-case.html",
    "feature_id": "531871",
    "feature_name": "Washington",
    "state_alpha": "DC",
    "county_name": "District of Columbia",
    "county_numeric": "001",
    "prim_lat_dec": "38.8951",
    "prim_long_dec": "-77.0364",
    "elev_in_m": "7",
    "elev_in_ft": "23",
    "lat": 38.8951,
    "long": -77.0364
  },
  {
    "globaleventid": "327792421",
    "sqldate": "20141212",
    "monthyear": "201412",
    "year": "2014",
    "fractiondate": "2014.937",
    "eventcode": "192",
    "quadclass": "4",
    "nummentions": "4",
    "numsources": "1",
    "numarticles": "4",
    "avgtone": "4.38472418670438",
    "sourceurl": "http://www.syracuse.com/news/index.ssf/2014/12/congress_establishes_harriet_tubman_national_parks_in_central_new_york_maryland.html",
    "feature_id": "531871",
    "feature_name": "Washington",
    "state_alpha": "DC",
    "county_name": "District of Columbia",
    "county_numeric": "001",
    "prim_lat_dec": "38.8951",
    "prim_long_dec": "-77.0364",
    "elev_in_m": "7",
    "elev_in_ft": "23",
    "lat": 38.8951,
    "long": -77.0364
  },
  {
    "globaleventid": "327792411",
    "sqldate": "20141212",
    "monthyear": "201412",
    "year": "2014",
    "fractiondate": "2014.937",
    "eventcode": "172",
    "quadclass": "4",
    "nummentions": "98",
    "numsources": "17",
    "numarticles": "98",
    "avgtone": "3.50987011467376",
    "sourceurl": "http://www.huffingtonpost.com/2014/12/12/dianne-feinstein-cia-torture-report_n_6318336.html",
    "feature_id": "531871",
    "feature_name": "Washington",
    "state_alpha": "DC",
    "county_name": "District of Columbia",
    "county_numeric": "001",
    "prim_lat_dec": "38.8951",
    "prim_long_dec": "-77.0364",
    "elev_in_m": "7",
    "elev_in_ft": "23",
    "lat": 38.8951,
    "long": -77.0364
  },
  {
    "globaleventid": "327792410",
    "sqldate": "20141212",
    "monthyear": "201412",
    "year": "2014",
    "fractiondate": "2014.937",
    "eventcode": "172",
    "quadclass": "4",
    "nummentions": "18",
    "numsources": "3",
    "numarticles": "18",
    "avgtone": "1.02807322559788",
    "sourceurl": "http://www.goupstate.com/article/20141212/WIRE/141219884/1171/WIRE?Title=Obama-push-leaves-136-prisoners-held-at-Guantanamo",
    "feature_id": "295004",
    "feature_name": "Miami",
    "state_alpha": "FL",
    "county_name": "Miami-Dade",
    "county_numeric": "086",
    "prim_lat_dec": "25.7743",
    "prim_long_dec": "-80.1937",
    "elev_in_m": "2",
    "elev_in_ft": "7",
    "lat": 25.7743,
    "long": -80.1937
  },
  {
    "globaleventid": "327792409",
    "sqldate": "20141212",
    "monthyear": "201412",
    "year": "2014",
    "fractiondate": "2014.937",
    "eventcode": "172",
    "quadclass": "4",
    "nummentions": "38",
    "numsources": "11",
    "numarticles": "38",
    "avgtone": "3.13468456037148",
    "sourceurl": "http://www.twincities.com/nation/ci_27122849/cia-chief-challenges-senate-torture-report",
    "feature_id": "1495816",
    "feature_name": "Langley",
    "state_alpha": "VA",
    "county_name": "Fairfax",
    "county_numeric": "059",
    "prim_lat_dec": "38.9465",
    "prim_long_dec": "-77.1589",
    "elev_in_m": "82",
    "elev_in_ft": "269",
    "lat": 38.9465,
    "long": -77.1589
  },
  {
    "globaleventid": "327792408",
    "sqldate": "20141212",
    "monthyear": "201412",
    "year": "2014",
    "fractiondate": "2014.937",
    "eventcode": "172",
    "quadclass": "4",
    "nummentions": "4",
    "numsources": "1",
    "numarticles": "4",
    "avgtone": "3.09072781655035",
    "sourceurl": "http://local12.com/news/features/top-stories/stories/cia-chief-challenges-senate-torture-report-21987.shtml",
    "feature_id": "1066650",
    "feature_name": "Cincinnati",
    "state_alpha": "OH",
    "county_name": "Hamilton",
    "county_numeric": "061",
    "prim_lat_dec": "39.162",
    "prim_long_dec": "-84.4569",
    "elev_in_m": "191",
    "elev_in_ft": "627",
    "lat": 39.162,
    "long": -84.4569
  },
  {
    "globaleventid": "327792400",
    "sqldate": "20141212",
    "monthyear": "201412",
    "year": "2014",
    "fractiondate": "2014.937",
    "eventcode": "100",
    "quadclass": "3",
    "nummentions": "10",
    "numsources": "1",
    "numarticles": "10",
    "avgtone": "2.6578073089701",
    "sourceurl": "http://www.cleveland.com/opinion/index.ssf/2014/12/senate_torture_report_--_accou.html",
    "feature_id": "531871",
    "feature_name": "Washington",
    "state_alpha": "DC",
    "county_name": "District of Columbia",
    "county_numeric": "001",
    "prim_lat_dec": "38.8951",
    "prim_long_dec": "-77.0364",
    "elev_in_m": "7",
    "elev_in_ft": "23",
    "lat": 38.8951,
    "long": -77.0364
  },
  {
    "globaleventid": "327792321",
    "sqldate": "20141212",
    "monthyear": "201412",
    "year": "2014",
    "fractiondate": "2014.937",
    "eventcode": "1822",
    "quadclass": "4",
    "nummentions": "6",
    "numsources": "1",
    "numarticles": "6",
    "avgtone": "3.20855614973262",
    "sourceurl": "http://www.business-standard.com/article/pti-stories/obama-policy-on-torture-difficult-to-roll-back-white-house-114121200102_1.html",
    "feature_id": "531871",
    "feature_name": "Washington",
    "state_alpha": "DC",
    "county_name": "District of Columbia",
    "county_numeric": "001",
    "prim_lat_dec": "38.8951",
    "prim_long_dec": "-77.0364",
    "elev_in_m": "7",
    "elev_in_ft": "23",
    "lat": 38.8951,
    "long": -77.0364
  },
  {
    "globaleventid": "327792318",
    "sqldate": "20141212",
    "monthyear": "201412",
    "year": "2014",
    "fractiondate": "2014.937",
    "eventcode": "190",
    "quadclass": "4",
    "nummentions": "6",
    "numsources": "1",
    "numarticles": "6",
    "avgtone": "1.88323917137476",
    "sourceurl": "http://m.centraljersey.com/articles/2014/12/12/the_register_news/news/doc546cb73212dcb955976239.txt",
    "feature_id": "880818",
    "feature_name": "Springfield",
    "state_alpha": "NJ",
    "county_name": "Union",
    "county_numeric": "039",
    "prim_lat_dec": "40.7049",
    "prim_long_dec": "-74.3172",
    "elev_in_m": "31",
    "elev_in_ft": "102",
    "lat": 40.7049,
    "long": -74.3172
  },
  {
    "globaleventid": "327792313",
    "sqldate": "20141212",
    "monthyear": "201412",
    "year": "2014",
    "fractiondate": "2014.937",
    "eventcode": "193",
    "quadclass": "4",
    "nummentions": "2",
    "numsources": "1",
    "numarticles": "2",
    "avgtone": "0.357142857142857",
    "sourceurl": "http://www.kpho.com/story/27608979/police-identify-woman-killed-in-ahwatukee-shooting",
    "feature_id": "44784",
    "feature_name": "Phoenix",
    "state_alpha": "AZ",
    "county_name": "Maricopa",
    "county_numeric": "013",
    "prim_lat_dec": "33.4484",
    "prim_long_dec": "-112.074",
    "elev_in_m": "331",
    "elev_in_ft": "1086",
    "lat": 33.4484,
    "long": -112.074
  },
  {
    "globaleventid": "327792312",
    "sqldate": "20141212",
    "monthyear": "201412",
    "year": "2014",
    "fractiondate": "2014.937",
    "eventcode": "193",
    "quadclass": "4",
    "nummentions": "1",
    "numsources": "1",
    "numarticles": "1",
    "avgtone": "0.357142857142857",
    "sourceurl": "http://www.kpho.com/story/27608979/police-identify-woman-killed-in-ahwatukee-shooting",
    "feature_id": "44784",
    "feature_name": "Phoenix",
    "state_alpha": "AZ",
    "county_name": "Maricopa",
    "county_numeric": "013",
    "prim_lat_dec": "33.4484",
    "prim_long_dec": "-112.074",
    "elev_in_m": "331",
    "elev_in_ft": "1086",
    "lat": 33.4484,
    "long": -112.074
  },
  {
    "globaleventid": "327792305",
    "sqldate": "20141212",
    "monthyear": "201412",
    "year": "2014",
    "fractiondate": "2014.937",
    "eventcode": "192",
    "quadclass": "4",
    "nummentions": "2",
    "numsources": "1",
    "numarticles": "2",
    "avgtone": "4.38472418670438",
    "sourceurl": "http://www.syracuse.com/news/index.ssf/2014/12/congress_establishes_harriet_tubman_national_parks_in_central_new_york_maryland.html",
    "feature_id": "531871",
    "feature_name": "Washington",
    "state_alpha": "DC",
    "county_name": "District of Columbia",
    "county_numeric": "001",
    "prim_lat_dec": "38.8951",
    "prim_long_dec": "-77.0364",
    "elev_in_m": "7",
    "elev_in_ft": "23",
    "lat": 38.8951,
    "long": -77.0364
  },
  {
    "globaleventid": "327792303",
    "sqldate": "20141212",
    "monthyear": "201412",
    "year": "2014",
    "fractiondate": "2014.937",
    "eventcode": "190",
    "quadclass": "4",
    "nummentions": "4",
    "numsources": "1",
    "numarticles": "2",
    "avgtone": "3.73027259684362",
    "sourceurl": "http://delconewsnetwork.com/articles/2014/12/12/marple_newtown_county_press/news/doc5485c8a599845231177103.txt",
    "feature_id": "883020",
    "feature_name": "Cinnaminson",
    "state_alpha": "NJ",
    "county_name": "Burlington",
    "county_numeric": "005",
    "prim_lat_dec": "39.9968",
    "prim_long_dec": "-74.9927",
    "elev_in_m": "22",
    "elev_in_ft": "72",
    "lat": 39.9968,
    "long": -74.9927
  },
  {
    "globaleventid": "327792297",
    "sqldate": "20141212",
    "monthyear": "201412",
    "year": "2014",
    "fractiondate": "2014.937",
    "eventcode": "190",
    "quadclass": "4",
    "nummentions": "1",
    "numsources": "1",
    "numarticles": "1",
    "avgtone": "4.02384500745156",
    "sourceurl": "http://guardianlv.com/2014/12/denver-tackles-mental-health/",
    "feature_id": "201738",
    "feature_name": "Denver",
    "state_alpha": "CO",
    "county_name": "Denver",
    "county_numeric": "031",
    "prim_lat_dec": "39.7392",
    "prim_long_dec": "-104.985",
    "elev_in_m": "1609",
    "elev_in_ft": "5279",
    "lat": 39.7392,
    "long": -104.985
  },
  {
    "globaleventid": "327792296",
    "sqldate": "20141212",
    "monthyear": "201412",
    "year": "2014",
    "fractiondate": "2014.937",
    "eventcode": "190",
    "quadclass": "4",
    "nummentions": "4",
    "numsources": "1",
    "numarticles": "2",
    "avgtone": "3.73027259684362",
    "sourceurl": "http://delconewsnetwork.com/articles/2014/12/12/marple_newtown_county_press/news/doc5485c8a599845231177103.txt",
    "feature_id": "883020",
    "feature_name": "Cinnaminson",
    "state_alpha": "NJ",
    "county_name": "Burlington",
    "county_numeric": "005",
    "prim_lat_dec": "39.9968",
    "prim_long_dec": "-74.9927",
    "elev_in_m": "22",
    "elev_in_ft": "72",
    "lat": 39.9968,
    "long": -74.9927
  },
  {
    "globaleventid": "327792295",
    "sqldate": "20141212",
    "monthyear": "201412",
    "year": "2014",
    "fractiondate": "2014.937",
    "eventcode": "190",
    "quadclass": "4",
    "nummentions": "6",
    "numsources": "1",
    "numarticles": "6",
    "avgtone": "2.53807106598985",
    "sourceurl": "http://globegazette.com/news/local/house-fire-reported-in-mason-city/article_f9e08c05-4f2d-517e-b207-dfcd028d5484.html",
    "feature_id": "831084",
    "feature_name": "Mason City",
    "state_alpha": "NE",
    "county_name": "Custer",
    "county_numeric": "041",
    "prim_lat_dec": "41.2231",
    "prim_long_dec": "-99.3004",
    "elev_in_m": "689",
    "elev_in_ft": "2260",
    "lat": 41.2231,
    "long": -99.3004
  },
  {
    "globaleventid": "327792293",
    "sqldate": "20141212",
    "monthyear": "201412",
    "year": "2014",
    "fractiondate": "2014.937",
    "eventcode": "190",
    "quadclass": "4",
    "nummentions": "14",
    "numsources": "1",
    "numarticles": "14",
    "avgtone": "0.0",
    "sourceurl": "http://www.wlox.com/story/27612138/one-man-dead-after-early-morning-trailer-fire",
    "feature_id": "684506",
    "feature_name": "Lakeview",
    "state_alpha": "MS",
    "county_name": "Lee",
    "county_numeric": "081",
    "prim_lat_dec": "34.2862",
    "prim_long_dec": "-88.7167",
    "elev_in_m": "101",
    "elev_in_ft": "331",
    "lat": 34.2862,
    "long": -88.7167
  },
  {
    "globaleventid": "327792292",
    "sqldate": "20141212",
    "monthyear": "201412",
    "year": "2014",
    "fractiondate": "2014.937",
    "eventcode": "190",
    "quadclass": "4",
    "nummentions": "2",
    "numsources": "1",
    "numarticles": "2",
    "avgtone": "2.6615969581749",
    "sourceurl": "http://www.therecordherald.com/article/20141212/NEWS/141219952/10082/NEWS",
    "feature_id": "1698227",
    "feature_name": "Longmeadow",
    "state_alpha": "MD",
    "county_name": "Harford",
    "county_numeric": "025",
    "prim_lat_dec": "39.5559",
    "prim_long_dec": "-76.3491",
    "elev_in_m": "116",
    "elev_in_ft": "381",
    "lat": 39.5559,
    "long": -76.3491
  },
  {
    "globaleventid": "327792289",
    "sqldate": "20141212",
    "monthyear": "201412",
    "year": "2014",
    "fractiondate": "2014.937",
    "eventcode": "190",
    "quadclass": "4",
    "nummentions": "18",
    "numsources": "5",
    "numarticles": "18",
    "avgtone": "2.23584027829986",
    "sourceurl": "http://www.washingtonexaminer.com/obama-battles-warren-pelosi/article/2557336",
    "feature_id": "531871",
    "feature_name": "Washington",
    "state_alpha": "DC",
    "county_name": "District of Columbia",
    "county_numeric": "001",
    "prim_lat_dec": "38.8951",
    "prim_long_dec": "-77.0364",
    "elev_in_m": "7",
    "elev_in_ft": "23",
    "lat": 38.8951,
    "long": -77.0364
  },
  {
    "globaleventid": "327792288",
    "sqldate": "20141212",
    "monthyear": "201412",
    "year": "2014",
    "fractiondate": "2014.937",
    "eventcode": "190",
    "quadclass": "4",
    "nummentions": "2",
    "numsources": "1",
    "numarticles": "2",
    "avgtone": "2.70688321732405",
    "sourceurl": "http://fusion.net/story/33754/elizabeth-warren-hillary-clinton-democrats-2016/",
    "feature_id": "529313",
    "feature_name": "Capitol Hill",
    "state_alpha": "DC",
    "county_name": "District of Columbia",
    "county_numeric": "001",
    "prim_lat_dec": "38.889",
    "prim_long_dec": "-77.0003",
    "elev_in_m": "28",
    "elev_in_ft": "92",
    "lat": 38.889,
    "long": -77.0003
  },
  {
    "globaleventid": "327792287",
    "sqldate": "20141212",
    "monthyear": "201412",
    "year": "2014",
    "fractiondate": "2014.937",
    "eventcode": "190",
    "quadclass": "4",
    "nummentions": "4",
    "numsources": "1",
    "numarticles": "4",
    "avgtone": "0.0",
    "sourceurl": "http://kdvr.com/2014/12/12/denver-police-looking-for-silver-altima-after-1-person-shot/",
    "feature_id": "201738",
    "feature_name": "Denver",
    "state_alpha": "CO",
    "county_name": "Denver",
    "county_numeric": "031",
    "prim_lat_dec": "39.7392",
    "prim_long_dec": "-104.985",
    "elev_in_m": "1609",
    "elev_in_ft": "5279",
    "lat": 39.7392,
    "long": -104.985
  },
  {
    "globaleventid": "327792285",
    "sqldate": "20141212",
    "monthyear": "201412",
    "year": "2014",
    "fractiondate": "2014.937",
    "eventcode": "190",
    "quadclass": "4",
    "nummentions": "4",
    "numsources": "1",
    "numarticles": "4",
    "avgtone": "3.0",
    "sourceurl": "http://www.tulsaworld.com/news/state/murder-conviction-upheld-against-wife-of-former-nichols-hills-fire/article_5866e389-a4aa-500c-9e2a-0c6071cebb72.html",
    "feature_id": "1095866",
    "feature_name": "Nichols Hills",
    "state_alpha": "OK",
    "county_name": "Oklahoma",
    "county_numeric": "109",
    "prim_lat_dec": "35.5509",
    "prim_long_dec": "-97.5489",
    "elev_in_m": "371",
    "elev_in_ft": "1217",
    "lat": 35.5509,
    "long": -97.5489
  },
  {
    "globaleventid": "327792277",
    "sqldate": "20141212",
    "monthyear": "201412",
    "year": "2014",
    "fractiondate": "2014.937",
    "eventcode": "1822",
    "quadclass": "4",
    "nummentions": "32",
    "numsources": "6",
    "numarticles": "32",
    "avgtone": "3.12115830985737",
    "sourceurl": "http://article.wn.com/view/2014/12/12/White_House_Obama_Backs_CIA_Chief_Over_Torture_Report/",
    "feature_id": "531871",
    "feature_name": "Washington",
    "state_alpha": "DC",
    "county_name": "District of Columbia",
    "county_numeric": "001",
    "prim_lat_dec": "38.8951",
    "prim_long_dec": "-77.0364",
    "elev_in_m": "7",
    "elev_in_ft": "23",
    "lat": 38.8951,
    "long": -77.0364
  },
  {
    "globaleventid": "327792275",
    "sqldate": "20141212",
    "monthyear": "201412",
    "year": "2014",
    "fractiondate": "2014.937",
    "eventcode": "180",
    "quadclass": "4",
    "nummentions": "2",
    "numsources": "1",
    "numarticles": "2",
    "avgtone": "0.0",
    "sourceurl": "http://www.greenfieldreporter.com/view/story/72be3b1219164d9bbf0b191ac531687b/LA--Arson-Arrest",
    "feature_id": "560108",
    "feature_name": "Bayou Vista",
    "state_alpha": "LA",
    "county_name": "St. Mary",
    "county_numeric": "101",
    "prim_lat_dec": "29.6897",
    "prim_long_dec": "-91.2709",
    "elev_in_m": "1",
    "elev_in_ft": "3",
    "lat": 29.6897,
    "long": -91.2709
  },
  {
    "globaleventid": "327792274",
    "sqldate": "20141212",
    "monthyear": "201412",
    "year": "2014",
    "fractiondate": "2014.937",
    "eventcode": "180",
    "quadclass": "4",
    "nummentions": "12",
    "numsources": "1",
    "numarticles": "6",
    "avgtone": "0.461538461538462",
    "sourceurl": "http://cityhallblog.dallasnews.com/2014/12/dallas-council-member-tennell-atkins-issued-ticket-for-offensive-contact-with-female-security-guard-at-city-hall.html/",
    "feature_id": "1380944",
    "feature_name": "Dallas",
    "state_alpha": "TX",
    "county_name": "Dallas",
    "county_numeric": "113",
    "prim_lat_dec": "32.7831",
    "prim_long_dec": "-96.8067",
    "elev_in_m": "128",
    "elev_in_ft": "420",
    "lat": 32.7831,
    "long": -96.8067
  },
  {
    "globaleventid": "327792272",
    "sqldate": "20141212",
    "monthyear": "201412",
    "year": "2014",
    "fractiondate": "2014.937",
    "eventcode": "174",
    "quadclass": "4",
    "nummentions": "5",
    "numsources": "1",
    "numarticles": "5",
    "avgtone": "1.13989637305699",
    "sourceurl": "http://mdjonline.com/view/full_story/26226441/article-Wild-storm-soaks-California--thousands-lose-power-",
    "feature_id": "44784",
    "feature_name": "Phoenix",
    "state_alpha": "AZ",
    "county_name": "Maricopa",
    "county_numeric": "013",
    "prim_lat_dec": "33.4484",
    "prim_long_dec": "-112.074",
    "elev_in_m": "331",
    "elev_in_ft": "1086",
    "lat": 33.4484,
    "long": -112.074
  },
  {
    "globaleventid": "327792271",
    "sqldate": "20141212",
    "monthyear": "201412",
    "year": "2014",
    "fractiondate": "2014.937",
    "eventcode": "174",
    "quadclass": "4",
    "nummentions": "1",
    "numsources": "1",
    "numarticles": "1",
    "avgtone": "1.13989637305699",
    "sourceurl": "http://mdjonline.com/view/full_story/26226441/article-Wild-storm-soaks-California--thousands-lose-power-",
    "feature_id": "845648",
    "feature_name": "San Jacinto",
    "state_alpha": "NV",
    "county_name": "Elko",
    "county_numeric": "007",
    "prim_lat_dec": "41.8685",
    "prim_long_dec": "-114.676",
    "elev_in_m": "1585",
    "elev_in_ft": "5200",
    "lat": 41.8685,
    "long": -114.676
  },
  {
    "globaleventid": "327792270",
    "sqldate": "20141212",
    "monthyear": "201412",
    "year": "2014",
    "fractiondate": "2014.937",
    "eventcode": "174",
    "quadclass": "4",
    "nummentions": "1",
    "numsources": "1",
    "numarticles": "1",
    "avgtone": "1.13989637305699",
    "sourceurl": "http://mdjonline.com/view/full_story/26226441/article-Wild-storm-soaks-California--thousands-lose-power-",
    "feature_id": "1658037",
    "feature_name": "Berkeley",
    "state_alpha": "CA",
    "county_name": "Alameda",
    "county_numeric": "001",
    "prim_lat_dec": "37.8716",
    "prim_long_dec": "-122.273",
    "elev_in_m": "52",
    "elev_in_ft": "171",
    "lat": 37.8716,
    "long": -122.273
  },
  {
    "globaleventid": "327792262",
    "sqldate": "20141212",
    "monthyear": "201412",
    "year": "2014",
    "fractiondate": "2014.937",
    "eventcode": "173",
    "quadclass": "4",
    "nummentions": "12",
    "numsources": "2",
    "numarticles": "12",
    "avgtone": "2.211784291575",
    "sourceurl": "http://www.washingtontimes.com/news/2014/dec/12/sunset-hills-mayor-indicted-on-felony-charges/",
    "feature_id": "756773",
    "feature_name": "Sunset Hills",
    "state_alpha": "MO",
    "county_name": "St. Louis",
    "county_numeric": "189",
    "prim_lat_dec": "38.5389",
    "prim_long_dec": "-90.4073",
    "elev_in_m": "185",
    "elev_in_ft": "607",
    "lat": 38.5389,
    "long": -90.4073
  },
  {
    "globaleventid": "327792261",
    "sqldate": "20141212",
    "monthyear": "201412",
    "year": "2014",
    "fractiondate": "2014.937",
    "eventcode": "173",
    "quadclass": "4",
    "nummentions": "8",
    "numsources": "2",
    "numarticles": "8",
    "avgtone": "1.99607955632052",
    "sourceurl": "http://www.wusa9.com/story/news/nation/2014/12/11/alleged-white-house-fence-jumper-found-competent/20284439/",
    "feature_id": "531871",
    "feature_name": "Washington",
    "state_alpha": "DC",
    "county_name": "District of Columbia",
    "county_numeric": "001",
    "prim_lat_dec": "38.8951",
    "prim_long_dec": "-77.0364",
    "elev_in_m": "7",
    "elev_in_ft": "23",
    "lat": 38.8951,
    "long": -77.0364
  },
  {
    "globaleventid": "327792260",
    "sqldate": "20141212",
    "monthyear": "201412",
    "year": "2014",
    "fractiondate": "2014.937",
    "eventcode": "173",
    "quadclass": "4",
    "nummentions": "1",
    "numsources": "1",
    "numarticles": "1",
    "avgtone": "3.22327044025157",
    "sourceurl": "http://www.middleeasteye.net/essays/unmasking-obama-presidency-1238534772",
    "feature_id": "531871",
    "feature_name": "Washington",
    "state_alpha": "DC",
    "county_name": "District of Columbia",
    "county_numeric": "001",
    "prim_lat_dec": "38.8951",
    "prim_long_dec": "-77.0364",
    "elev_in_m": "7",
    "elev_in_ft": "23",
    "lat": 38.8951,
    "long": -77.0364
  },
  {
    "globaleventid": "327792259",
    "sqldate": "20141212",
    "monthyear": "201412",
    "year": "2014",
    "fractiondate": "2014.937",
    "eventcode": "173",
    "quadclass": "4",
    "nummentions": "1",
    "numsources": "1",
    "numarticles": "1",
    "avgtone": "1.20068610634648",
    "sourceurl": "http://www.desmoinesregister.com/story/opinion/editorials/2014/12/12/atalissa-bunkhouse-abusive-legacy-persists/20289659/",
    "feature_id": "462879",
    "feature_name": "West Liberty",
    "state_alpha": "IA",
    "county_name": "Muscatine",
    "county_numeric": "139",
    "prim_lat_dec": "41.57",
    "prim_long_dec": "-91.2638",
    "elev_in_m": "206",
    "elev_in_ft": "676",
    "lat": 41.57,
    "long": -91.2638
  },
  {
    "globaleventid": "327792257",
    "sqldate": "20141212",
    "monthyear": "201412",
    "year": "2014",
    "fractiondate": "2014.937",
    "eventcode": "173",
    "quadclass": "4",
    "nummentions": "4",
    "numsources": "1",
    "numarticles": "4",
    "avgtone": "3.0",
    "sourceurl": "http://www.tulsaworld.com/news/state/murder-conviction-upheld-against-wife-of-former-nichols-hills-fire/article_5866e389-a4aa-500c-9e2a-0c6071cebb72.html",
    "feature_id": "1095866",
    "feature_name": "Nichols Hills",
    "state_alpha": "OK",
    "county_name": "Oklahoma",
    "county_numeric": "109",
    "prim_lat_dec": "35.5509",
    "prim_long_dec": "-97.5489",
    "elev_in_m": "371",
    "elev_in_ft": "1217",
    "lat": 35.5509,
    "long": -97.5489
  },
  {
    "globaleventid": "327792255",
    "sqldate": "20141212",
    "monthyear": "201412",
    "year": "2014",
    "fractiondate": "2014.937",
    "eventcode": "173",
    "quadclass": "4",
    "nummentions": "4",
    "numsources": "1",
    "numarticles": "4",
    "avgtone": "0.0",
    "sourceurl": "http://www.kxnet.com/story/27617828/nd-authorities-arrest-2-in-home-invasion-probe",
    "feature_id": "1033621",
    "feature_name": "Wahpeton",
    "state_alpha": "ND",
    "county_name": "Richland",
    "county_numeric": "077",
    "prim_lat_dec": "46.2652",
    "prim_long_dec": "-96.6059",
    "elev_in_m": "294",
    "elev_in_ft": "965",
    "lat": 46.2652,
    "long": -96.6059
  },
  {
    "globaleventid": "327792249",
    "sqldate": "20141212",
    "monthyear": "201412",
    "year": "2014",
    "fractiondate": "2014.937",
    "eventcode": "160",
    "quadclass": "4",
    "nummentions": "2",
    "numsources": "1",
    "numarticles": "2",
    "avgtone": "2.70042194092827",
    "sourceurl": "http://www.vnews.com/news/nation/world/14778374-95/democrats-show-a-populist-side",
    "feature_id": "531871",
    "feature_name": "Washington",
    "state_alpha": "DC",
    "county_name": "District of Columbia",
    "county_numeric": "001",
    "prim_lat_dec": "38.8951",
    "prim_long_dec": "-77.0364",
    "elev_in_m": "7",
    "elev_in_ft": "23",
    "lat": 38.8951,
    "long": -77.0364
  },
  {
    "globaleventid": "327792246",
    "sqldate": "20141212",
    "monthyear": "201412",
    "year": "2014",
    "fractiondate": "2014.937",
    "eventcode": "141",
    "quadclass": "3",
    "nummentions": "2",
    "numsources": "1",
    "numarticles": "2",
    "avgtone": "1.53609831029186",
    "sourceurl": "http://voxxi.com/2014/12/cia-torture-lives-on-in-latin-america/",
    "feature_id": "531871",
    "feature_name": "Washington",
    "state_alpha": "DC",
    "county_name": "District of Columbia",
    "county_numeric": "001",
    "prim_lat_dec": "38.8951",
    "prim_long_dec": "-77.0364",
    "elev_in_m": "7",
    "elev_in_ft": "23",
    "lat": 38.8951,
    "long": -77.0364
  },
  {
    "globaleventid": "327792245",
    "sqldate": "20141212",
    "monthyear": "201412",
    "year": "2014",
    "fractiondate": "2014.937",
    "eventcode": "141",
    "quadclass": "3",
    "nummentions": "1",
    "numsources": "1",
    "numarticles": "1",
    "avgtone": "1.86567164179104",
    "sourceurl": "http://www.newsday.com/news/nation/michael-brown-eric-garner-protestors-washington-new-york-1.9709569",
    "feature_id": "531871",
    "feature_name": "Washington",
    "state_alpha": "DC",
    "county_name": "District of Columbia",
    "county_numeric": "001",
    "prim_lat_dec": "38.8951",
    "prim_long_dec": "-77.0364",
    "elev_in_m": "7",
    "elev_in_ft": "23",
    "lat": 38.8951,
    "long": -77.0364
  },
  {
    "globaleventid": "327792244",
    "sqldate": "20141212",
    "monthyear": "201412",
    "year": "2014",
    "fractiondate": "2014.937",
    "eventcode": "141",
    "quadclass": "3",
    "nummentions": "1",
    "numsources": "1",
    "numarticles": "1",
    "avgtone": "1.86567164179104",
    "sourceurl": "http://www.newsday.com/news/nation/michael-brown-eric-garner-protestors-washington-new-york-1.9709569",
    "feature_id": "531871",
    "feature_name": "Washington",
    "state_alpha": "DC",
    "county_name": "District of Columbia",
    "county_numeric": "001",
    "prim_lat_dec": "38.8951",
    "prim_long_dec": "-77.0364",
    "elev_in_m": "7",
    "elev_in_ft": "23",
    "lat": 38.8951,
    "long": -77.0364
  },
  {
    "globaleventid": "327792242",
    "sqldate": "20141212",
    "monthyear": "201412",
    "year": "2014",
    "fractiondate": "2014.937",
    "eventcode": "131",
    "quadclass": "3",
    "nummentions": "2",
    "numsources": "1",
    "numarticles": "2",
    "avgtone": "2.12014134275618",
    "sourceurl": "http://www.breitbart.com/Breitbart-Texas/2014/12/11/GOP-Cave-CRomnibus-Will-Not-Include-Relief-from-Michelle-Obamas-School-Lunch-Program",
    "feature_id": "531871",
    "feature_name": "Washington",
    "state_alpha": "DC",
    "county_name": "District of Columbia",
    "county_numeric": "001",
    "prim_lat_dec": "38.8951",
    "prim_long_dec": "-77.0364",
    "elev_in_m": "7",
    "elev_in_ft": "23",
    "lat": 38.8951,
    "long": -77.0364
  },
  {
    "globaleventid": "327792239",
    "sqldate": "20141212",
    "monthyear": "201412",
    "year": "2014",
    "fractiondate": "2014.937",
    "eventcode": "130",
    "quadclass": "3",
    "nummentions": "18",
    "numsources": "3",
    "numarticles": "18",
    "avgtone": "2.50495666764181",
    "sourceurl": "http://www.japantimes.co.jp/news/2014/12/12/business/tech/amazon-warns-it-could-take-drones-testing-elsewhere/",
    "feature_id": "531871",
    "feature_name": "Washington",
    "state_alpha": "DC",
    "county_name": "District of Columbia",
    "county_numeric": "001",
    "prim_lat_dec": "38.8951",
    "prim_long_dec": "-77.0364",
    "elev_in_m": "7",
    "elev_in_ft": "23",
    "lat": 38.8951,
    "long": -77.0364
  },
  {
    "globaleventid": "327792236",
    "sqldate": "20141212",
    "monthyear": "201412",
    "year": "2014",
    "fractiondate": "2014.937",
    "eventcode": "125",
    "quadclass": "3",
    "nummentions": "4",
    "numsources": "1",
    "numarticles": "2",
    "avgtone": "1.29390018484288",
    "sourceurl": "http://www.spokesman.com/stories/2014/dec/12/sandpoint-officials-discuss-coal-and-oil-trains-be/",
    "feature_id": "398095",
    "feature_name": "Sandpoint",
    "state_alpha": "ID",
    "county_name": "Bonner",
    "county_numeric": "017",
    "prim_lat_dec": "48.2766",
    "prim_long_dec": "-116.553",
    "elev_in_m": "641",
    "elev_in_ft": "2103",
    "lat": 48.2766,
    "long": -116.553
  },
  {
    "globaleventid": "327792231",
    "sqldate": "20141212",
    "monthyear": "201412",
    "year": "2014",
    "fractiondate": "2014.937",
    "eventcode": "120",
    "quadclass": "3",
    "nummentions": "12",
    "numsources": "2",
    "numarticles": "12",
    "avgtone": "2.45714932304786",
    "sourceurl": "http://www.irishtimes.com/news/world/us/wall-street-and-republicans-winners-as-budget-deal-passes-1.2036310",
    "feature_id": "531871",
    "feature_name": "Washington",
    "state_alpha": "DC",
    "county_name": "District of Columbia",
    "county_numeric": "001",
    "prim_lat_dec": "38.8951",
    "prim_long_dec": "-77.0364",
    "elev_in_m": "7",
    "elev_in_ft": "23",
    "lat": 38.8951,
    "long": -77.0364
  },
  {
    "globaleventid": "327792230",
    "sqldate": "20141212",
    "monthyear": "201412",
    "year": "2014",
    "fractiondate": "2014.937",
    "eventcode": "120",
    "quadclass": "3",
    "nummentions": "2",
    "numsources": "1",
    "numarticles": "2",
    "avgtone": "2.93040293040293",
    "sourceurl": "http://www.washingtonexaminer.com/wh-tries-to-downplay-drama-with-pelosi/article/2557325",
    "feature_id": "529313",
    "feature_name": "Capitol Hill",
    "state_alpha": "DC",
    "county_name": "District of Columbia",
    "county_numeric": "001",
    "prim_lat_dec": "38.889",
    "prim_long_dec": "-77.0003",
    "elev_in_m": "28",
    "elev_in_ft": "92",
    "lat": 38.889,
    "long": -77.0003
  },
  {
    "globaleventid": "327792229",
    "sqldate": "20141212",
    "monthyear": "201412",
    "year": "2014",
    "fractiondate": "2014.937",
    "eventcode": "120",
    "quadclass": "3",
    "nummentions": "8",
    "numsources": "1",
    "numarticles": "8",
    "avgtone": "4.28571428571429",
    "sourceurl": "http://article.wn.com/view/2014/12/12/Cheneys_to_Visit_UW_Feb_17_for_Discussion_Book_Signing_Unive/",
    "feature_id": "423587",
    "feature_name": "Chicago",
    "state_alpha": "IL",
    "county_name": "Cook",
    "county_numeric": "031",
    "prim_lat_dec": "41.85",
    "prim_long_dec": "-87.6501",
    "elev_in_m": "179",
    "elev_in_ft": "587",
    "lat": 41.85,
    "long": -87.6501
  },
  {
    "globaleventid": "327792228",
    "sqldate": "20141212",
    "monthyear": "201412",
    "year": "2014",
    "fractiondate": "2014.937",
    "eventcode": "120",
    "quadclass": "3",
    "nummentions": "4",
    "numsources": "1",
    "numarticles": "4",
    "avgtone": "0.480769230769231",
    "sourceurl": "http://www.boiseweekly.com/CityDesk/archives/2014/12/12/north-idaho-officials-close-doors-to-public-on-same-day-that-wasden-is-in-town-for-open-meeting-workshops",
    "feature_id": "398095",
    "feature_name": "Sandpoint",
    "state_alpha": "ID",
    "county_name": "Bonner",
    "county_numeric": "017",
    "prim_lat_dec": "48.2766",
    "prim_long_dec": "-116.553",
    "elev_in_m": "641",
    "elev_in_ft": "2103",
    "lat": 48.2766,
    "long": -116.553
  },
  {
    "globaleventid": "327792226",
    "sqldate": "20141212",
    "monthyear": "201412",
    "year": "2014",
    "fractiondate": "2014.937",
    "eventcode": "114",
    "quadclass": "3",
    "nummentions": "2",
    "numsources": "1",
    "numarticles": "2",
    "avgtone": "3.2032032032032",
    "sourceurl": "http://www.mlive.com/news/muskegon/index.ssf/2014/12/roosevelt_park_councilman_prop.html",
    "feature_id": "1675441",
    "feature_name": "Roosevelt Park",
    "state_alpha": "MI",
    "county_name": "Muskegon",
    "county_numeric": "121",
    "prim_lat_dec": "43.1964",
    "prim_long_dec": "-86.2723",
    "elev_in_m": "190",
    "elev_in_ft": "623",
    "lat": 43.1964,
    "long": -86.2723
  },
  {
    "globaleventid": "327792225",
    "sqldate": "20141212",
    "monthyear": "201412",
    "year": "2014",
    "fractiondate": "2014.937",
    "eventcode": "114",
    "quadclass": "3",
    "nummentions": "4",
    "numsources": "1",
    "numarticles": "4",
    "avgtone": "2.1978021978022",
    "sourceurl": "http://freerepublic.com/focus/f-news/3236389/posts",
    "feature_id": "531871",
    "feature_name": "Washington",
    "state_alpha": "DC",
    "county_name": "District of Columbia",
    "county_numeric": "001",
    "prim_lat_dec": "38.8951",
    "prim_long_dec": "-77.0364",
    "elev_in_m": "7",
    "elev_in_ft": "23",
    "lat": 38.8951,
    "long": -77.0364
  },
  {
    "globaleventid": "327792224",
    "sqldate": "20141212",
    "monthyear": "201412",
    "year": "2014",
    "fractiondate": "2014.937",
    "eventcode": "114",
    "quadclass": "3",
    "nummentions": "2",
    "numsources": "1",
    "numarticles": "2",
    "avgtone": "3.2032032032032",
    "sourceurl": "http://www.mlive.com/news/muskegon/index.ssf/2014/12/roosevelt_park_councilman_prop.html",
    "feature_id": "1675441",
    "feature_name": "Roosevelt Park",
    "state_alpha": "MI",
    "county_name": "Muskegon",
    "county_numeric": "121",
    "prim_lat_dec": "43.1964",
    "prim_long_dec": "-86.2723",
    "elev_in_m": "190",
    "elev_in_ft": "623",
    "lat": 43.1964,
    "long": -86.2723
  },
  {
    "globaleventid": "327792223",
    "sqldate": "20141212",
    "monthyear": "201412",
    "year": "2014",
    "fractiondate": "2014.937",
    "eventcode": "113",
    "quadclass": "3",
    "nummentions": "10",
    "numsources": "1",
    "numarticles": "10",
    "avgtone": "1.7259978425027",
    "sourceurl": "http://www.pressherald.com/2014/12/12/obama-urges-senate-to-pass-1-1-trillion-budget/",
    "feature_id": "531871",
    "feature_name": "Washington",
    "state_alpha": "DC",
    "county_name": "District of Columbia",
    "county_numeric": "001",
    "prim_lat_dec": "38.8951",
    "prim_long_dec": "-77.0364",
    "elev_in_m": "7",
    "elev_in_ft": "23",
    "lat": 38.8951,
    "long": -77.0364
  },
  {
    "globaleventid": "327792216",
    "sqldate": "20141212",
    "monthyear": "201412",
    "year": "2014",
    "fractiondate": "2014.937",
    "eventcode": "112",
    "quadclass": "3",
    "nummentions": "2",
    "numsources": "1",
    "numarticles": "2",
    "avgtone": "1.35746606334842",
    "sourceurl": "http://www.washingtonexaminer.com/wh-prepares-feds-for-shutdown/article/2557289",
    "feature_id": "531871",
    "feature_name": "Washington",
    "state_alpha": "DC",
    "county_name": "District of Columbia",
    "county_numeric": "001",
    "prim_lat_dec": "38.8951",
    "prim_long_dec": "-77.0364",
    "elev_in_m": "7",
    "elev_in_ft": "23",
    "lat": 38.8951,
    "long": -77.0364
  },
  {
    "globaleventid": "327792215",
    "sqldate": "20141212",
    "monthyear": "201412",
    "year": "2014",
    "fractiondate": "2014.937",
    "eventcode": "112",
    "quadclass": "3",
    "nummentions": "6",
    "numsources": "1",
    "numarticles": "6",
    "avgtone": "0.461538461538462",
    "sourceurl": "http://cityhallblog.dallasnews.com/2014/12/dallas-council-member-tennell-atkins-issued-ticket-for-offensive-contact-with-female-security-guard-at-city-hall.html/",
    "feature_id": "1380944",
    "feature_name": "Dallas",
    "state_alpha": "TX",
    "county_name": "Dallas",
    "county_numeric": "113",
    "prim_lat_dec": "32.7831",
    "prim_long_dec": "-96.8067",
    "elev_in_m": "128",
    "elev_in_ft": "420",
    "lat": 32.7831,
    "long": -96.8067
  },
  {
    "globaleventid": "327792211",
    "sqldate": "20141212",
    "monthyear": "201412",
    "year": "2014",
    "fractiondate": "2014.937",
    "eventcode": "111",
    "quadclass": "3",
    "nummentions": "4",
    "numsources": "2",
    "numarticles": "4",
    "avgtone": "2.79273758233051",
    "sourceurl": "http://manilastandardtoday.com/2014/12/13/secessionists-behind-bus-blast-president/",
    "feature_id": "531871",
    "feature_name": "Washington",
    "state_alpha": "DC",
    "county_name": "District of Columbia",
    "county_numeric": "001",
    "prim_lat_dec": "38.8951",
    "prim_long_dec": "-77.0364",
    "elev_in_m": "7",
    "elev_in_ft": "23",
    "lat": 38.8951,
    "long": -77.0364
  },
  {
    "globaleventid": "327792206",
    "sqldate": "20141212",
    "monthyear": "201412",
    "year": "2014",
    "fractiondate": "2014.937",
    "eventcode": "110",
    "quadclass": "3",
    "nummentions": "80",
    "numsources": "31",
    "numarticles": "74",
    "avgtone": "2.04302394058052",
    "sourceurl": "http://blog.timesunion.com/roberts/torture-a-terrible-price/845/",
    "feature_id": "531871",
    "feature_name": "Washington",
    "state_alpha": "DC",
    "county_name": "District of Columbia",
    "county_numeric": "001",
    "prim_lat_dec": "38.8951",
    "prim_long_dec": "-77.0364",
    "elev_in_m": "7",
    "elev_in_ft": "23",
    "lat": 38.8951,
    "long": -77.0364
  },