[
  {
    "globaleventid": "464877834",
    "sqldate": "20150908",
    "monthyear": "201509",
    "year": "2015",
    "fractiondate": "2015.6795",
    "eventcode": "110",
    "quadclass": "3",
    "nummentions": "2",
    "numsources": "1",
    "numarticles": "2",
    "avgtone": "0.42283298097251",
    "sourceurl": "http://www.ipwatchdog.com/2015/09/08/how-a-washington-breakfast-influenced-conservative-votes-on-patent-reform/id=61471/",
    "feature_id": "531871",
    "feature_name": "Washington",
    "state_alpha": "DC",
    "county_name": "District of Columbia",
    "county_numeric": "001",
    "prim_lat_dec": "38.8951",
    "prim_long_dec": "-77.0364",
    "elev_in_m": "7",
    "elev_in_ft": "23",
    "lat": 38.8951,
    "long": -77.0364
  },
  {
    "globaleventid": "464877552",
    "sqldate": "20150908",
    "monthyear": "201509",
    "year": "2015",
    "fractiondate": "2015.6795",
    "eventcode": "190",
    "quadclass": "4",
    "nummentions": "4",
    "numsources": "1",
    "numarticles": "4",
    "avgtone": "-1.8363939899833",
    "sourceurl": "http://m.americustimesrecorder.com/2015/09/06/former-pow-to-speak-at-powmia-events/",
    "feature_id": "310533",
    "feature_name": "Andersonville",
    "state_alpha": "GA",
    "county_name": "Cherokee",
    "county_numeric": "057",
    "prim_lat_dec": "34.1295",
    "prim_long_dec": "-84.4974",
    "elev_in_m": "263",
    "elev_in_ft": "863",
    "lat": 34.1295,
    "long": -84.4974
  },
  {
    "globaleventid": "464877225",
    "sqldate": "20150908",
    "monthyear": "201509",
    "year": "2015",
    "fractiondate": "2015.6795",
    "eventcode": "193",
    "quadclass": "4",
    "nummentions": "2",
    "numsources": "1",
    "numarticles": "2",
    "avgtone": "2.58175559380378",
    "sourceurl": "http://www.wsj.com/articles/a-day-in-the-life-of-danny-strong-1441722395",
    "feature_id": "1380944",
    "feature_name": "Dallas",
    "state_alpha": "TX",
    "county_name": "Dallas",
    "county_numeric": "113",
    "prim_lat_dec": "32.7831",
    "prim_long_dec": "-96.8067",
    "elev_in_m": "128",
    "elev_in_ft": "420",
    "lat": 32.7831,
    "long": -96.8067
  },
  {
    "globaleventid": "464876991",
    "sqldate": "20150908",
    "monthyear": "201509",
    "year": "2015",
    "fractiondate": "2015.6795",
    "eventcode": "100",
    "quadclass": "3",
    "nummentions": "4",
    "numsources": "1",
    "numarticles": "4",
    "avgtone": "-3.80434782608696",
    "sourceurl": "http://www.people.com/article/asu-student-kidnapped-raped-walk-home-party",
    "feature_id": "12233",
    "feature_name": "Tempe",
    "state_alpha": "AZ",
    "county_name": "Maricopa",
    "county_numeric": "013",
    "prim_lat_dec": "33.4148",
    "prim_long_dec": "-111.909",
    "elev_in_m": "360",
    "elev_in_ft": "1181",
    "lat": 33.4148,
    "long": -111.909
  },
  {
    "globaleventid": "464876966",
    "sqldate": "20150908",
    "monthyear": "201509",
    "year": "2015",
    "fractiondate": "2015.6795",
    "eventcode": "100",
    "quadclass": "3",
    "nummentions": "6",
    "numsources": "1",
    "numarticles": "6",
    "avgtone": "-3.80434782608696",
    "sourceurl": "http://www.people.com/article/asu-student-kidnapped-raped-walk-home-party",
    "feature_id": "12233",
    "feature_name": "Tempe",
    "state_alpha": "AZ",
    "county_name": "Maricopa",
    "county_numeric": "013",
    "prim_lat_dec": "33.4148",
    "prim_long_dec": "-111.909",
    "elev_in_m": "360",
    "elev_in_ft": "1181",
    "lat": 33.4148,
    "long": -111.909
  },
  {
    "globaleventid": "464876877",
    "sqldate": "20150908",
    "monthyear": "201509",
    "year": "2015",
    "fractiondate": "2015.6795",
    "eventcode": "112",
    "quadclass": "3",
    "nummentions": "4",
    "numsources": "1",
    "numarticles": "4",
    "avgtone": "-9.73451327433628",
    "sourceurl": "http://www.cruxnow.com/church/2015/09/08/wisconsin-priest-put-on-leave-amid-abuse-allegation/",
    "feature_id": "1577901",
    "feature_name": "Milwaukee",
    "state_alpha": "WI",
    "county_name": "Milwaukee",
    "county_numeric": "079",
    "prim_lat_dec": "43.0389",
    "prim_long_dec": "-87.9065",
    "elev_in_m": "187",
    "elev_in_ft": "614",
    "lat": 43.0389,
    "long": -87.9065
  },
  {
    "globaleventid": "464876767",
    "sqldate": "20150908",
    "monthyear": "201509",
    "year": "2015",
    "fractiondate": "2015.6795",
    "eventcode": "190",
    "quadclass": "4",
    "nummentions": "2",
    "numsources": "1",
    "numarticles": "2",
    "avgtone": "-5.789213260762",
    "sourceurl": "http://lubbockonline.com/filed-online/2015-09-08/drilling-boom-brings-rising-number-harmful-waste-spills",
    "feature_id": "1374760",
    "feature_name": "Lubbock",
    "state_alpha": "TX",
    "county_name": "Lubbock",
    "county_numeric": "303",
    "prim_lat_dec": "33.5779",
    "prim_long_dec": "-101.855",
    "elev_in_m": "976",
    "elev_in_ft": "3202",
    "lat": 33.5779,
    "long": -101.855
  },
  {
    "globaleventid": "464876634",
    "sqldate": "20150908",
    "monthyear": "201509",
    "year": "2015",
    "fractiondate": "2015.6795",
    "eventcode": "190",
    "quadclass": "4",
    "nummentions": "4",
    "numsources": "1",
    "numarticles": "4",
    "avgtone": "-5.789213260762",
    "sourceurl": "http://lubbockonline.com/filed-online/2015-09-08/drilling-boom-brings-rising-number-harmful-waste-spills",
    "feature_id": "1374760",
    "feature_name": "Lubbock",
    "state_alpha": "TX",
    "county_name": "Lubbock",
    "county_numeric": "303",
    "prim_lat_dec": "33.5779",
    "prim_long_dec": "-101.855",
    "elev_in_m": "976",
    "elev_in_ft": "3202",
    "lat": 33.5779,
    "long": -101.855
  },
  {
    "globaleventid": "464874795",
    "sqldate": "20150908",
    "monthyear": "201509",
    "year": "2015",
    "fractiondate": "2015.6795",
    "eventcode": "131",
    "quadclass": "3",
    "nummentions": "8",
    "numsources": "4",
    "numarticles": "8",
    "avgtone": "3.92378280668322",
    "sourceurl": "http://www.jpost.com/Breaking-News/US-Senate-Democratic-leader-Iran-nuclear-deal-will-stand-415596",
    "feature_id": "531871",
    "feature_name": "Washington",
    "state_alpha": "DC",
    "county_name": "District of Columbia",
    "county_numeric": "001",
    "prim_lat_dec": "38.8951",
    "prim_long_dec": "-77.0364",
    "elev_in_m": "7",
    "elev_in_ft": "23",
    "lat": 38.8951,
    "long": -77.0364
  },
  {
    "globaleventid": "464874793",
    "sqldate": "20150908",
    "monthyear": "201509",
    "year": "2015",
    "fractiondate": "2015.6795",
    "eventcode": "120",
    "quadclass": "3",
    "nummentions": "8",
    "numsources": "4",
    "numarticles": "8",
    "avgtone": "3.92378280668322",
    "sourceurl": "http://www.jpost.com/Breaking-News/US-Senate-Democratic-leader-Iran-nuclear-deal-will-stand-415596",
    "feature_id": "531871",
    "feature_name": "Washington",
    "state_alpha": "DC",
    "county_name": "District of Columbia",
    "county_numeric": "001",
    "prim_lat_dec": "38.8951",
    "prim_long_dec": "-77.0364",
    "elev_in_m": "7",
    "elev_in_ft": "23",
    "lat": 38.8951,
    "long": -77.0364
  },
  {
    "globaleventid": "464874775",
    "sqldate": "20150908",
    "monthyear": "201509",
    "year": "2015",
    "fractiondate": "2015.6795",
    "eventcode": "112",
    "quadclass": "3",
    "nummentions": "8",
    "numsources": "2",
    "numarticles": "8",
    "avgtone": "-12.1331044068351",
    "sourceurl": "http://wdtn.com/2015/09/08/ohio-man-accused-of-threatening-boehner-has-another-new-hearing-date/",
    "feature_id": "1066650",
    "feature_name": "Cincinnati",
    "state_alpha": "OH",
    "county_name": "Hamilton",
    "county_numeric": "061",
    "prim_lat_dec": "39.162",
    "prim_long_dec": "-84.4569",
    "elev_in_m": "191",
    "elev_in_ft": "627",
    "lat": 39.162,
    "long": -84.4569
  },
  {
    "globaleventid": "464874767",
    "sqldate": "20150908",
    "monthyear": "201509",
    "year": "2015",
    "fractiondate": "2015.6795",
    "eventcode": "129",
    "quadclass": "3",
    "nummentions": "286",
    "numsources": "128",
    "numarticles": "286",
    "avgtone": "-0.738060185272687",
    "sourceurl": "http://www.washingtonexaminer.com/gop-ready-to-attack-wh-climate-agenda/article/2571239",
    "feature_id": "531871",
    "feature_name": "Washington",
    "state_alpha": "DC",
    "county_name": "District of Columbia",
    "county_numeric": "001",
    "prim_lat_dec": "38.8951",
    "prim_long_dec": "-77.0364",
    "elev_in_m": "7",
    "elev_in_ft": "23",
    "lat": 38.8951,
    "long": -77.0364
  },
  {
    "globaleventid": "464874692",
    "sqldate": "20150908",
    "monthyear": "201509",
    "year": "2015",
    "fractiondate": "2015.6795",
    "eventcode": "180",
    "quadclass": "4",
    "nummentions": "2",
    "numsources": "1",
    "numarticles": "2",
    "avgtone": "-9.32203389830508",
    "sourceurl": "http://www.corrections.com/news/article/40943-iowa-prison-guard-assaulted-by-inmate-from-scott-county",
    "feature_id": "456686",
    "feature_name": "Fort Dodge",
    "state_alpha": "IA",
    "county_name": "Webster",
    "county_numeric": "187",
    "prim_lat_dec": "42.4975",
    "prim_long_dec": "-94.168",
    "elev_in_m": "339",
    "elev_in_ft": "1112",
    "lat": 42.4975,
    "long": -94.168
  },
  {
    "globaleventid": "464874653",
    "sqldate": "20150908",
    "monthyear": "201509",
    "year": "2015",
    "fractiondate": "2015.6795",
    "eventcode": "173",
    "quadclass": "4",
    "nummentions": "10",
    "numsources": "1",
    "numarticles": "10",
    "avgtone": "4.37017994858612",
    "sourceurl": "http://www.franchising.com/news/20150908_firstlight_homecare_earns_2015_inc_5000_ranking.html",
    "feature_id": "1066650",
    "feature_name": "Cincinnati",
    "state_alpha": "OH",
    "county_name": "Hamilton",
    "county_numeric": "061",
    "prim_lat_dec": "39.162",
    "prim_long_dec": "-84.4569",
    "elev_in_m": "191",
    "elev_in_ft": "627",
    "lat": 39.162,
    "long": -84.4569
  },
  {
    "globaleventid": "464874632",
    "sqldate": "20150908",
    "monthyear": "201509",
    "year": "2015",
    "fractiondate": "2015.6795",
    "eventcode": "193",
    "quadclass": "4",
    "nummentions": "6",
    "numsources": "1",
    "numarticles": "6",
    "avgtone": "0.41841004184101",
    "sourceurl": "http://www.nj.com/essex/index.ssf/2015/09/nj_residents_among_thousands_of_celebrators_at_pre.html",
    "feature_id": "611761",
    "feature_name": "Bedford",
    "state_alpha": "MA",
    "county_name": "Middlesex",
    "county_numeric": "017",
    "prim_lat_dec": "42.4907",
    "prim_long_dec": "-71.2762",
    "elev_in_m": "41",
    "elev_in_ft": "135",
    "lat": 42.4907,
    "long": -71.2762
  },
  {
    "globaleventid": "464874596",
    "sqldate": "20150908",
    "monthyear": "201509",
    "year": "2015",
    "fractiondate": "2015.6795",
    "eventcode": "192",
    "quadclass": "4",
    "nummentions": "6",
    "numsources": "1",
    "numarticles": "6",
    "avgtone": "-0.55441722538142",
    "sourceurl": "http://mykeystrokes.com/tag/outsiders/",
    "feature_id": "531871",
    "feature_name": "Washington",
    "state_alpha": "DC",
    "county_name": "District of Columbia",
    "county_numeric": "001",
    "prim_lat_dec": "38.8951",
    "prim_long_dec": "-77.0364",
    "elev_in_m": "7",
    "elev_in_ft": "23",
    "lat": 38.8951,
    "long": -77.0364
  },
  {
    "globaleventid": "464874565",
    "sqldate": "20150908",
    "monthyear": "201509",
    "year": "2015",
    "fractiondate": "2015.6795",
    "eventcode": "193",
    "quadclass": "4",
    "nummentions": "2",
    "numsources": "1",
    "numarticles": "2",
    "avgtone": "-3.38983050847458",
    "sourceurl": "http://www.inquisitr.com/2401510/carey-gabay-a-beautiful-man-a-sweet-man-gunned-down-while-attending-brooklyn-festival/",
    "feature_id": "944840",
    "feature_name": "Brooklyn",
    "state_alpha": "NY",
    "county_name": "Delaware",
    "county_numeric": "025",
    "prim_lat_dec": "42.3442",
    "prim_long_dec": "-75.1704",
    "elev_in_m": "366",
    "elev_in_ft": "1201",
    "lat": 42.3442,
    "long": -75.1704
  },
  {
    "globaleventid": "464874562",
    "sqldate": "20150908",
    "monthyear": "201509",
    "year": "2015",
    "fractiondate": "2015.6795",
    "eventcode": "100",
    "quadclass": "3",
    "nummentions": "8",
    "numsources": "1",
    "numarticles": "4",
    "avgtone": "-5.50847457627119",
    "sourceurl": "http://www.mainlinemedianews.com/articles/2015/09/08/main_line_suburban_life/news/doc55e8946f12b8a254053201.txt",
    "feature_id": "1209052",
    "feature_name": "Philadelphia",
    "state_alpha": "PA",
    "county_name": "Philadelphia",
    "county_numeric": "101",
    "prim_lat_dec": "39.9523",
    "prim_long_dec": "-75.1638",
    "elev_in_m": "14",
    "elev_in_ft": "46",
    "lat": 39.9523,
    "long": -75.1638
  },
  {
    "globaleventid": "464874154",
    "sqldate": "20150908",
    "monthyear": "201509",
    "year": "2015",
    "fractiondate": "2015.6795",
    "eventcode": "138",
    "quadclass": "3",
    "nummentions": "2",
    "numsources": "1",
    "numarticles": "2",
    "avgtone": "-4.3026706231454",
    "sourceurl": "http://www.cato.org/blog/us-south-korea-alliance-treats-pentagon-department-foreign-welfare",
    "feature_id": "531871",
    "feature_name": "Washington",
    "state_alpha": "DC",
    "county_name": "District of Columbia",
    "county_numeric": "001",
    "prim_lat_dec": "38.8951",
    "prim_long_dec": "-77.0364",
    "elev_in_m": "7",
    "elev_in_ft": "23",
    "lat": 38.8951,
    "long": -77.0364
  },
  {
    "globaleventid": "464873843",
    "sqldate": "20150908",
    "monthyear": "201509",
    "year": "2015",
    "fractiondate": "2015.6795",
    "eventcode": "131",
    "quadclass": "3",
    "nummentions": "8",
    "numsources": "4",
    "numarticles": "8",
    "avgtone": "3.92378280668322",
    "sourceurl": "http://www.jpost.com/Breaking-News/US-Senate-Democratic-leader-Iran-nuclear-deal-will-stand-415596",
    "feature_id": "531871",
    "feature_name": "Washington",
    "state_alpha": "DC",
    "county_name": "District of Columbia",
    "county_numeric": "001",
    "prim_lat_dec": "38.8951",
    "prim_long_dec": "-77.0364",
    "elev_in_m": "7",
    "elev_in_ft": "23",
    "lat": 38.8951,
    "long": -77.0364
  },
  {
    "globaleventid": "464873734",
    "sqldate": "20150908",
    "monthyear": "201509",
    "year": "2015",
    "fractiondate": "2015.6795",
    "eventcode": "173",
    "quadclass": "4",
    "nummentions": "10",
    "numsources": "1",
    "numarticles": "10",
    "avgtone": "-2.61026102610261",
    "sourceurl": "http://www.mainlinemedianews.com/articles/2015/09/08/main_line_times/news/doc55e89013a6c4e974612150.txt",
    "feature_id": "1209052",
    "feature_name": "Philadelphia",
    "state_alpha": "PA",
    "county_name": "Philadelphia",
    "county_numeric": "101",
    "prim_lat_dec": "39.9523",
    "prim_long_dec": "-75.1638",
    "elev_in_m": "14",
    "elev_in_ft": "46",
    "lat": 39.9523,
    "long": -75.1638
  },
  {
    "globaleventid": "464873704",
    "sqldate": "20150908",
    "monthyear": "201509",
    "year": "2015",
    "fractiondate": "2015.6795",
    "eventcode": "190",
    "quadclass": "4",
    "nummentions": "10",
    "numsources": "1",
    "numarticles": "10",
    "avgtone": "-2.49537892791127",
    "sourceurl": "http://www.huffingtonpost.com/rabbi-shmuley-boteach/cory-booker-must-understa_b_8101438.html",
    "feature_id": "531871",
    "feature_name": "Washington",
    "state_alpha": "DC",
    "county_name": "District of Columbia",
    "county_numeric": "001",
    "prim_lat_dec": "38.8951",
    "prim_long_dec": "-77.0364",
    "elev_in_m": "7",
    "elev_in_ft": "23",
    "lat": 38.8951,
    "long": -77.0364
  },
  {
    "globaleventid": "464873121",
    "sqldate": "20150908",
    "monthyear": "201509",
    "year": "2015",
    "fractiondate": "2015.6795",
    "eventcode": "110",
    "quadclass": "3",
    "nummentions": "12",
    "numsources": "3",
    "numarticles": "12",
    "avgtone": "-1.36986301369863",
    "sourceurl": "http://www.wmeq.com/onair/bill-handel-30603/should-only-transgenders-play-transgender-acting-13923826",
    "feature_id": "1660000",
    "feature_name": "Tiger Lily",
    "state_alpha": "CA",
    "county_name": "El Dorado",
    "county_numeric": "017",
    "prim_lat_dec": "38.681",
    "prim_long_dec": "-120.775",
    "elev_in_m": "634",
    "elev_in_ft": "2080",
    "lat": 38.681,
    "long": -120.775
  },
  {
    "globaleventid": "464872929",
    "sqldate": "20150908",
    "monthyear": "201509",
    "year": "2015",
    "fractiondate": "2015.6795",
    "eventcode": "100",
    "quadclass": "3",
    "nummentions": "12",
    "numsources": "1",
    "numarticles": "6",
    "avgtone": "-5.50847457627119",
    "sourceurl": "http://www.mainlinemedianews.com/articles/2015/09/08/main_line_suburban_life/news/doc55e8946f12b8a254053201.txt",
    "feature_id": "1209052",
    "feature_name": "Philadelphia",
    "state_alpha": "PA",
    "county_name": "Philadelphia",
    "county_numeric": "101",
    "prim_lat_dec": "39.9523",
    "prim_long_dec": "-75.1638",
    "elev_in_m": "14",
    "elev_in_ft": "46",
    "lat": 39.9523,
    "long": -75.1638
  },
  {
    "globaleventid": "464872902",
    "sqldate": "20150908",
    "monthyear": "201509",
    "year": "2015",
    "fractiondate": "2015.6795",
    "eventcode": "171",
    "quadclass": "4",
    "nummentions": "10",
    "numsources": "1",
    "numarticles": "10",
    "avgtone": "-3.98406374501992",
    "sourceurl": "http://www.koat.com/news/apd-man-holed-up-in-church-damages-sanctuary/35150806",
    "feature_id": "1380948",
    "feature_name": "Houston",
    "state_alpha": "TX",
    "county_name": "Harris",
    "county_numeric": "201",
    "prim_lat_dec": "29.7633",
    "prim_long_dec": "-95.3633",
    "elev_in_m": "11",
    "elev_in_ft": "36",
    "lat": 29.7633,
    "long": -95.3633
  },
  {
    "globaleventid": "464856775",
    "sqldate": "20150908",
    "monthyear": "201509",
    "year": "2015",
    "fractiondate": "2015.6795",
    "eventcode": "190",
    "quadclass": "4",
    "nummentions": "2",
    "numsources": "1",
    "numarticles": "2",
    "avgtone": "-8.85931558935362",
    "sourceurl": "http://webkinzwate.blogspot.com/2015/09/joseph-e-duncan-iii.html",
    "feature_id": "531871",
    "feature_name": "Washington",
    "state_alpha": "DC",
    "county_name": "District of Columbia",
    "county_numeric": "001",
    "prim_lat_dec": "38.8951",
    "prim_long_dec": "-77.0364",
    "elev_in_m": "7",
    "elev_in_ft": "23",
    "lat": 38.8951,
    "long": -77.0364
  },
  {
    "globaleventid": "464872741",
    "sqldate": "20150908",
    "monthyear": "201509",
    "year": "2015",
    "fractiondate": "2015.6795",
    "eventcode": "190",
    "quadclass": "4",
    "nummentions": "2",
    "numsources": "1",
    "numarticles": "2",
    "avgtone": "-5.95788392398562",
    "sourceurl": "http://www.leesvilledailyleader.com/article/ZZ/20150908/NEWS/309089969",
    "feature_id": "1339796",
    "feature_name": "Leesville",
    "state_alpha": "TX",
    "county_name": "Gonzales",
    "county_numeric": "177",
    "prim_lat_dec": "29.4069",
    "prim_long_dec": "-97.745",
    "elev_in_m": "115",
    "elev_in_ft": "377",
    "lat": 29.4069,
    "long": -97.745
  },
  {
    "globaleventid": "464869035",
    "sqldate": "20150908",
    "monthyear": "201509",
    "year": "2015",
    "fractiondate": "2015.6795",
    "eventcode": "190",
    "quadclass": "4",
    "nummentions": "12",
    "numsources": "2",
    "numarticles": "12",
    "avgtone": "-3.27868852459017",
    "sourceurl": "http://www.bbc.co.uk/news/world-us-canada-34188768",
    "feature_id": "640278",
    "feature_name": "Bloomington",
    "state_alpha": "MN",
    "county_name": "Hennepin",
    "county_numeric": "053",
    "prim_lat_dec": "44.8408",
    "prim_long_dec": "-93.2983",
    "elev_in_m": "252",
    "elev_in_ft": "827",
    "lat": 44.8408,
    "long": -93.2983
  },
  {
    "globaleventid": "464868932",
    "sqldate": "20150908",
    "monthyear": "201509",
    "year": "2015",
    "fractiondate": "2015.6795",
    "eventcode": "120",
    "quadclass": "3",
    "nummentions": "10",
    "numsources": "1",
    "numarticles": "10",
    "avgtone": "3.03030303030303",
    "sourceurl": "http://www.livemint.com/Politics/JL0Uj6LBk1Nqk6a3K3q4qM/Nasa-to-create-Star-Trekstyle-tractor-beam.html",
    "feature_id": "531871",
    "feature_name": "Washington",
    "state_alpha": "DC",
    "county_name": "District of Columbia",
    "county_numeric": "001",
    "prim_lat_dec": "38.8951",
    "prim_long_dec": "-77.0364",
    "elev_in_m": "7",
    "elev_in_ft": "23",
    "lat": 38.8951,
    "long": -77.0364
  },
  {
    "globaleventid": "464868902",
    "sqldate": "20150908",
    "monthyear": "201509",
    "year": "2015",
    "fractiondate": "2015.6795",
    "eventcode": "112",
    "quadclass": "3",
    "nummentions": "6",
    "numsources": "1",
    "numarticles": "6",
    "avgtone": "-7.27272727272727",
    "sourceurl": "http://www.whoradio.com/onair/simon-conway-42296/washington-post-blames-syrian-refugee-crisis-13923085",
    "feature_id": "531871",
    "feature_name": "Washington",
    "state_alpha": "DC",
    "county_name": "District of Columbia",
    "county_numeric": "001",
    "prim_lat_dec": "38.8951",
    "prim_long_dec": "-77.0364",
    "elev_in_m": "7",
    "elev_in_ft": "23",
    "lat": 38.8951,
    "long": -77.0364
  },
  {
    "globaleventid": "464868901",
    "sqldate": "20150908",
    "monthyear": "201509",
    "year": "2015",
    "fractiondate": "2015.6795",
    "eventcode": "112",
    "quadclass": "3",
    "nummentions": "2",
    "numsources": "1",
    "numarticles": "2",
    "avgtone": "-7.27272727272727",
    "sourceurl": "http://www.whoradio.com/onair/simon-conway-42296/washington-post-blames-syrian-refugee-crisis-13923085",
    "feature_id": "531871",
    "feature_name": "Washington",
    "state_alpha": "DC",
    "county_name": "District of Columbia",
    "county_numeric": "001",
    "prim_lat_dec": "38.8951",
    "prim_long_dec": "-77.0364",
    "elev_in_m": "7",
    "elev_in_ft": "23",
    "lat": 38.8951,
    "long": -77.0364
  },
  {
    "globaleventid": "464868882",
    "sqldate": "20150908",
    "monthyear": "201509",
    "year": "2015",
    "fractiondate": "2015.6795",
    "eventcode": "1043",
    "quadclass": "3",
    "nummentions": "20",
    "numsources": "1",
    "numarticles": "20",
    "avgtone": "-4.92957746478873",
    "sourceurl": "http://www.fox23.com/ap/ap/oklahoma/oklahoma-based-charity-faces-takeover-attempt-by-t/nnZqB/",
    "feature_id": "1380944",
    "feature_name": "Dallas",
    "state_alpha": "TX",
    "county_name": "Dallas",
    "county_numeric": "113",
    "prim_lat_dec": "32.7831",
    "prim_long_dec": "-96.8067",
    "elev_in_m": "128",
    "elev_in_ft": "420",
    "lat": 32.7831,
    "long": -96.8067
  },
  {
    "globaleventid": "464868871",
    "sqldate": "20150908",
    "monthyear": "201509",
    "year": "2015",
    "fractiondate": "2015.6795",
    "eventcode": "129",
    "quadclass": "3",
    "nummentions": "2",
    "numsources": "1",
    "numarticles": "2",
    "avgtone": "-1.21802679658953",
    "sourceurl": "http://www.upi.com/Top_News/Analysis/de-Borchgrave/2015/09/08/41-not-34-is-the-number/8251441377677/",
    "feature_id": "531871",
    "feature_name": "Washington",
    "state_alpha": "DC",
    "county_name": "District of Columbia",
    "county_numeric": "001",
    "prim_lat_dec": "38.8951",
    "prim_long_dec": "-77.0364",
    "elev_in_m": "7",
    "elev_in_ft": "23",
    "lat": 38.8951,
    "long": -77.0364
  },
  {
    "globaleventid": "464868861",
    "sqldate": "20150908",
    "monthyear": "201509",
    "year": "2015",
    "fractiondate": "2015.6795",
    "eventcode": "173",
    "quadclass": "4",
    "nummentions": "1",
    "numsources": "1",
    "numarticles": "1",
    "avgtone": "-2.79582892549494",
    "sourceurl": "http://time.com/4024842/ted-cruz-kim-davis-jail/",
    "feature_id": "531871",
    "feature_name": "Washington",
    "state_alpha": "DC",
    "county_name": "District of Columbia",
    "county_numeric": "001",
    "prim_lat_dec": "38.8951",
    "prim_long_dec": "-77.0364",
    "elev_in_m": "7",
    "elev_in_ft": "23",
    "lat": 38.8951,
    "long": -77.0364
  },
  {
    "globaleventid": "464868849",
    "sqldate": "20150908",
    "monthyear": "201509",
    "year": "2015",
    "fractiondate": "2015.6795",
    "eventcode": "173",
    "quadclass": "4",
    "nummentions": "1",
    "numsources": "1",
    "numarticles": "1",
    "avgtone": "-2.79582892549494",
    "sourceurl": "http://time.com/4024842/ted-cruz-kim-davis-jail/",
    "feature_id": "531871",
    "feature_name": "Washington",
    "state_alpha": "DC",
    "county_name": "District of Columbia",
    "county_numeric": "001",
    "prim_lat_dec": "38.8951",
    "prim_long_dec": "-77.0364",
    "elev_in_m": "7",
    "elev_in_ft": "23",
    "lat": 38.8951,
    "long": -77.0364
  },
  {
    "globaleventid": "464868818",
    "sqldate": "20150908",
    "monthyear": "201509",
    "year": "2015",
    "fractiondate": "2015.6795",
    "eventcode": "190",
    "quadclass": "4",
    "nummentions": "1",
    "numsources": "1",
    "numarticles": "1",
    "avgtone": "-8.08823529411765",
    "sourceurl": "http://theweatherspace.com/2015/09/08/131536-new-hampshire-motorcyclist-dies-after-maine-crash/",
    "feature_id": "566054",
    "feature_name": "Farmington",
    "state_alpha": "ME",
    "county_name": "Franklin",
    "county_numeric": "007",
    "prim_lat_dec": "44.6706",
    "prim_long_dec": "-70.1512",
    "elev_in_m": "126",
    "elev_in_ft": "413",
    "lat": 44.6706,
    "long": -70.1512
  },
  {
    "globaleventid": "464868815",
    "sqldate": "20150908",
    "monthyear": "201509",
    "year": "2015",
    "fractiondate": "2015.6795",
    "eventcode": "193",
    "quadclass": "4",
    "nummentions": "1",
    "numsources": "1",
    "numarticles": "1",
    "avgtone": "-0.1497005988024",
    "sourceurl": "http://www.dailycamera.com/entertainment/ci_28773259/16-things-do-boulder-county-today-sept-8",
    "feature_id": "178680",
    "feature_name": "Boulder",
    "state_alpha": "CO",
    "county_name": "Boulder",
    "county_numeric": "013",
    "prim_lat_dec": "40.015",
    "prim_long_dec": "-105.271",
    "elev_in_m": "1624",
    "elev_in_ft": "5328",
    "lat": 40.015,
    "long": -105.271
  },
  {
    "globaleventid": "464868802",
    "sqldate": "20150908",
    "monthyear": "201509",
    "year": "2015",
    "fractiondate": "2015.6795",
    "eventcode": "120",
    "quadclass": "3",
    "nummentions": "4",
    "numsources": "1",
    "numarticles": "4",
    "avgtone": "-4.86055776892431",
    "sourceurl": "http://www.salon.com/2015/09/08/the_neo_nazi_next_door_in_welcome_to_leith_the_deeply_strange_saga_of_a_tiny_town_a_white_supremacist_and_a_crazy_dream_unfolds/",
    "feature_id": "1454997",
    "feature_name": "Salt Lake City",
    "state_alpha": "UT",
    "county_name": "Salt Lake",
    "county_numeric": "035",
    "prim_lat_dec": "40.7608",
    "prim_long_dec": "-111.891",
    "elev_in_m": "1300",
    "elev_in_ft": "4265",
    "lat": 40.7608,
    "long": -111.891
  },
  {
    "globaleventid": "464868790",
    "sqldate": "20150908",
    "monthyear": "201509",
    "year": "2015",
    "fractiondate": "2015.6795",
    "eventcode": "174",
    "quadclass": "4",
    "nummentions": "4",
    "numsources": "2",
    "numarticles": "4",
    "avgtone": "-12.751677852349",
    "sourceurl": "http://www.wtvm.com/story/29977838/man-arrested-for-sex-ad-in-va-now-charged-with-murder-in-al",
    "feature_id": "1477407",
    "feature_name": "Henrico",
    "state_alpha": "VA",
    "county_name": "Mecklenburg",
    "county_numeric": "117",
    "prim_lat_dec": "36.5926",
    "prim_long_dec": "-78.6161",
    "elev_in_m": "123",
    "elev_in_ft": "404",
    "lat": 36.5926,
    "long": -78.6161
  },
  {
    "globaleventid": "464868577",
    "sqldate": "20150908",
    "monthyear": "201509",
    "year": "2015",
    "fractiondate": "2015.6795",
    "eventcode": "111",
    "quadclass": "3",
    "nummentions": "2",
    "numsources": "1",
    "numarticles": "2",
    "avgtone": "-4.77482365708085",
    "sourceurl": "http://www.mintpressnews.com/color-revolution-2-0-in-lebanon-from-piles-of-trash-to-piles-of-rubble/209310/",
    "feature_id": "531871",
    "feature_name": "Washington",
    "state_alpha": "DC",
    "county_name": "District of Columbia",
    "county_numeric": "001",
    "prim_lat_dec": "38.8951",
    "prim_long_dec": "-77.0364",
    "elev_in_m": "7",
    "elev_in_ft": "23",
    "lat": 38.8951,
    "long": -77.0364
  },
  {
    "globaleventid": "464868306",
    "sqldate": "20150908",
    "monthyear": "201509",
    "year": "2015",
    "fractiondate": "2015.6795",
    "eventcode": "100",
    "quadclass": "3",
    "nummentions": "1",
    "numsources": "1",
    "numarticles": "1",
    "avgtone": "0.98814229249011",
    "sourceurl": "http://www.myplainview.com/news/article_f4fc8b96-5631-11e5-b87c-73c3aefe231d.html",
    "feature_id": "1357507",
    "feature_name": "Floydada",
    "state_alpha": "TX",
    "county_name": "Floyd",
    "county_numeric": "153",
    "prim_lat_dec": "33.9845",
    "prim_long_dec": "-101.338",
    "elev_in_m": "970",
    "elev_in_ft": "3182",
    "lat": 33.9845,
    "long": -101.338
  },
  {
    "globaleventid": "464868276",
    "sqldate": "20150908",
    "monthyear": "201509",
    "year": "2015",
    "fractiondate": "2015.6795",
    "eventcode": "112",
    "quadclass": "3",
    "nummentions": "14",
    "numsources": "1",
    "numarticles": "8",
    "avgtone": "-8.98617511520741",
    "sourceurl": "http://legalinsurrection.com/2015/09/bowe-bergdahl-to-face-rare-military-charge/",
    "feature_id": "1380948",
    "feature_name": "Houston",
    "state_alpha": "TX",
    "county_name": "Harris",
    "county_numeric": "201",
    "prim_lat_dec": "29.7633",
    "prim_long_dec": "-95.3633",
    "elev_in_m": "11",
    "elev_in_ft": "36",
    "lat": 29.7633,
    "long": -95.3633
  },
  {
    "globaleventid": "464868100",
    "sqldate": "20150908",
    "monthyear": "201509",
    "year": "2015",
    "fractiondate": "2015.6795",
    "eventcode": "193",
    "quadclass": "4",
    "nummentions": "4",
    "numsources": "1",
    "numarticles": "4",
    "avgtone": "-3.58620689655172",
    "sourceurl": "http://news-sentinel.com/news/local/leininger/Magazine-s-shot-at--drab--Fort-Wayne-s-school-bus-woes-badly-missed-the-target",
    "feature_id": "434689",
    "feature_name": "Fort Wayne",
    "state_alpha": "IN",
    "county_name": "Allen",
    "county_numeric": "003",
    "prim_lat_dec": "41.1306",
    "prim_long_dec": "-85.1289",
    "elev_in_m": "247",
    "elev_in_ft": "810",
    "lat": 41.1306,
    "long": -85.1289
  },
  {
    "globaleventid": "464868015",
    "sqldate": "20150908",
    "monthyear": "201509",
    "year": "2015",
    "fractiondate": "2015.6795",
    "eventcode": "110",
    "quadclass": "3",
    "nummentions": "2",
    "numsources": "1",
    "numarticles": "2",
    "avgtone": "6.12244897959184",
    "sourceurl": "http://newsdaily.com/2015/09/u-s-democratic-senator-manchin-opposes-nuclear-deal-with-iran/",
    "feature_id": "531871",
    "feature_name": "Washington",
    "state_alpha": "DC",
    "county_name": "District of Columbia",
    "county_numeric": "001",
    "prim_lat_dec": "38.8951",
    "prim_long_dec": "-77.0364",
    "elev_in_m": "7",
    "elev_in_ft": "23",
    "lat": 38.8951,
    "long": -77.0364
  },
  {
    "globaleventid": "464867573",
    "sqldate": "20150908",
    "monthyear": "201509",
    "year": "2015",
    "fractiondate": "2015.6795",
    "eventcode": "129",
    "quadclass": "3",
    "nummentions": "15",
    "numsources": "2",
    "numarticles": "15",
    "avgtone": "-1.73667737512075",
    "sourceurl": "http://www.upi.com/Top_News/Analysis/de-Borchgrave/2015/09/08/41-not-34-is-the-number/8251441377677/",
    "feature_id": "531871",
    "feature_name": "Washington",
    "state_alpha": "DC",
    "county_name": "District of Columbia",
    "county_numeric": "001",
    "prim_lat_dec": "38.8951",
    "prim_long_dec": "-77.0364",
    "elev_in_m": "7",
    "elev_in_ft": "23",
    "lat": 38.8951,
    "long": -77.0364
  },
  {
    "globaleventid": "464867147",
    "sqldate": "20150908",
    "monthyear": "201509",
    "year": "2015",
    "fractiondate": "2015.6795",
    "eventcode": "110",
    "quadclass": "3",
    "nummentions": "18",
    "numsources": "1",
    "numarticles": "18",
    "avgtone": "0.0",
    "sourceurl": "http://www.plainsman.com/v2_news_articles.php?page=72&story_id=27395",
    "feature_id": "531871",
    "feature_name": "Washington",
    "state_alpha": "DC",
    "county_name": "District of Columbia",
    "county_numeric": "001",
    "prim_lat_dec": "38.8951",
    "prim_long_dec": "-77.0364",
    "elev_in_m": "7",
    "elev_in_ft": "23",
    "lat": 38.8951,
    "long": -77.0364
  },
  {
    "globaleventid": "464867023",
    "sqldate": "20150908",
    "monthyear": "201509",
    "year": "2015",
    "fractiondate": "2015.6795",
    "eventcode": "180",
    "quadclass": "4",
    "nummentions": "10",
    "numsources": "1",
    "numarticles": "10",
    "avgtone": "-6.30530973451328",
    "sourceurl": "http://www.huffingtonpost.com/dale-hansen/conservatives-dont-unders_b_8103078.html",
    "feature_id": "423587",
    "feature_name": "Chicago",
    "state_alpha": "IL",
    "county_name": "Cook",
    "county_numeric": "031",
    "prim_lat_dec": "41.85",
    "prim_long_dec": "-87.6501",
    "elev_in_m": "179",
    "elev_in_ft": "587",
    "lat": 41.85,
    "long": -87.6501
  },
  {
    "globaleventid": "464867022",
    "sqldate": "20150908",
    "monthyear": "201509",
    "year": "2015",
    "fractiondate": "2015.6795",
    "eventcode": "173",
    "quadclass": "4",
    "nummentions": "14",
    "numsources": "2",
    "numarticles": "14",
    "avgtone": "-4.44202266782913",
    "sourceurl": "http://fox5sandiego.com/2015/09/08/driver-crashes-after-downtown-pursuit/",
    "feature_id": "1661377",
    "feature_name": "San Diego",
    "state_alpha": "CA",
    "county_name": "San Diego",
    "county_numeric": "073",
    "prim_lat_dec": "32.7153",
    "prim_long_dec": "-117.157",
    "elev_in_m": "19",
    "elev_in_ft": "62",
    "lat": 32.7153,
    "long": -117.157
  },
  {
    "globaleventid": "464867002",
    "sqldate": "20150908",
    "monthyear": "201509",
    "year": "2015",
    "fractiondate": "2015.6795",
    "eventcode": "193",
    "quadclass": "4",
    "nummentions": "6",
    "numsources": "6",
    "numarticles": "6",
    "avgtone": "-4.04820431424748",
    "sourceurl": "http://www.njherald.com/story/29979591/things-to-know-for-friday-in-pennsylvania",
    "feature_id": "1185008",
    "feature_name": "Richland",
    "state_alpha": "PA",
    "county_name": "Delaware",
    "county_numeric": "045",
    "prim_lat_dec": "39.9632",
    "prim_long_dec": "-75.3157",
    "elev_in_m": "89",
    "elev_in_ft": "292",
    "lat": 39.9632,
    "long": -75.3157
  },
  {
    "globaleventid": "464866836",
    "sqldate": "20150908",
    "monthyear": "201509",
    "year": "2015",
    "fractiondate": "2015.6795",
    "eventcode": "166",
    "quadclass": "4",
    "nummentions": "4",
    "numsources": "1",
    "numarticles": "4",
    "avgtone": "1.16189000774593",
    "sourceurl": "http://hyperallergic.com/234721/decaying-barns-transformed-into-art/",
    "feature_id": "635259",
    "feature_name": "Port Austin",
    "state_alpha": "MI",
    "county_name": "Huron",
    "county_numeric": "063",
    "prim_lat_dec": "44.0461",
    "prim_long_dec": "-82.9941",
    "elev_in_m": "181",
    "elev_in_ft": "594",
    "lat": 44.0461,
    "long": -82.9941
  },
  {
    "globaleventid": "464866621",
    "sqldate": "20150908",
    "monthyear": "201509",
    "year": "2015",
    "fractiondate": "2015.6795",
    "eventcode": "190",
    "quadclass": "4",
    "nummentions": "7",
    "numsources": "1",
    "numarticles": "7",
    "avgtone": "-2.83464566929134",
    "sourceurl": "http://www.polity.org.za/article/africa-time-to-stand-up-and-not-just-stand-by-2015-09-08",
    "feature_id": "531871",
    "feature_name": "Washington",
    "state_alpha": "DC",
    "county_name": "District of Columbia",
    "county_numeric": "001",
    "prim_lat_dec": "38.8951",
    "prim_long_dec": "-77.0364",
    "elev_in_m": "7",
    "elev_in_ft": "23",
    "lat": 38.8951,
    "long": -77.0364
  },
  {
    "globaleventid": "464866240",
    "sqldate": "20150908",
    "monthyear": "201509",
    "year": "2015",
    "fractiondate": "2015.6795",
    "eventcode": "110",
    "quadclass": "3",
    "nummentions": "18",
    "numsources": "1",
    "numarticles": "18",
    "avgtone": "-2.17250940028106",
    "sourceurl": "http://www.myrecordjournal.com/southington/southingtonnews/7741067-129/southington-elementary-schools-closing-early-due-to-heat.html",
    "feature_id": "211030",
    "feature_name": "Southington",
    "state_alpha": "CT",
    "county_name": "Hartford",
    "county_numeric": "003",
    "prim_lat_dec": "41.5965",
    "prim_long_dec": "-72.8776",
    "elev_in_m": "50",
    "elev_in_ft": "164",
    "lat": 41.5965,
    "long": -72.8776
  },
  {
    "globaleventid": "464866199",
    "sqldate": "20150908",
    "monthyear": "201509",
    "year": "2015",
    "fractiondate": "2015.6795",
    "eventcode": "173",
    "quadclass": "4",
    "nummentions": "1",
    "numsources": "1",
    "numarticles": "1",
    "avgtone": "2.58899676375405",
    "sourceurl": "http://mynewsla.com/life/2015/09/08/3-auxiliary-new-bishops-to-be-ordained-in-mass-celebration/",
    "feature_id": "1662328",
    "feature_name": "Los Angeles",
    "state_alpha": "CA",
    "county_name": "Los Angeles",
    "county_numeric": "037",
    "prim_lat_dec": "34.0522",
    "prim_long_dec": "-118.244",
    "elev_in_m": "89",
    "elev_in_ft": "292",
    "lat": 34.0522,
    "long": -118.244
  },
  {
    "globaleventid": "464866155",
    "sqldate": "20150908",
    "monthyear": "201509",
    "year": "2015",
    "fractiondate": "2015.6795",
    "eventcode": "193",
    "quadclass": "4",
    "nummentions": "8",
    "numsources": "1",
    "numarticles": "8",
    "avgtone": "2.8146230993206",
    "sourceurl": "http://www.telegram.com/article/20150908/NEWS/150909298",
    "feature_id": "610657",
    "feature_name": "Millbury",
    "state_alpha": "MA",
    "county_name": "Worcester",
    "county_numeric": "027",
    "prim_lat_dec": "42.194",
    "prim_long_dec": "-71.7601",
    "elev_in_m": "122",
    "elev_in_ft": "400",
    "lat": 42.194,
    "long": -71.7601
  },
  {
    "globaleventid": "464866149",
    "sqldate": "20150908",
    "monthyear": "201509",
    "year": "2015",
    "fractiondate": "2015.6795",
    "eventcode": "110",
    "quadclass": "3",
    "nummentions": "2",
    "numsources": "1",
    "numarticles": "2",
    "avgtone": "1.94552529182879",
    "sourceurl": "http://niebruggestudio.com/22-hoses-need-no-more",
    "feature_id": "1400669",
    "feature_name": "Copper Center",
    "state_alpha": "AK",
    "county_name": "Valdez-Cordova (CA)",
    "county_numeric": "261",
    "prim_lat_dec": "61.977",
    "prim_long_dec": "-145.33",
    "elev_in_m": "315",
    "elev_in_ft": "1033",
    "lat": 61.977,
    "long": -145.33
  },
  {
    "globaleventid": "464866099",
    "sqldate": "20150908",
    "monthyear": "201509",
    "year": "2015",
    "fractiondate": "2015.6795",
    "eventcode": "193",
    "quadclass": "4",
    "nummentions": "2",
    "numsources": "2",
    "numarticles": "2",
    "avgtone": "-3.56231994494836",
    "sourceurl": "http://www.officer.com/news/12111691/la-county-deputy-slain-in-murder-suicide",
    "feature_id": "1662328",
    "feature_name": "Los Angeles",
    "state_alpha": "CA",
    "county_name": "Los Angeles",
    "county_numeric": "037",
    "prim_lat_dec": "34.0522",
    "prim_long_dec": "-118.244",
    "elev_in_m": "89",
    "elev_in_ft": "292",
    "lat": 34.0522,
    "long": -118.244
  },
  {
    "globaleventid": "464866098",
    "sqldate": "20150908",
    "monthyear": "201509",
    "year": "2015",
    "fractiondate": "2015.6795",
    "eventcode": "193",
    "quadclass": "4",
    "nummentions": "1",
    "numsources": "1",
    "numarticles": "1",
    "avgtone": "-3.86819484240688",
    "sourceurl": "http://www.officer.com/news/12111691/la-county-deputy-slain-in-murder-suicide",
    "feature_id": "1661171",
    "feature_name": "Pacoima",
    "state_alpha": "CA",
    "county_name": "Los Angeles",
    "county_numeric": "037",
    "prim_lat_dec": "34.2625",
    "prim_long_dec": "-118.427",
    "elev_in_m": "302",
    "elev_in_ft": "991",
    "lat": 34.2625,
    "long": -118.427
  },
  {
    "globaleventid": "464866079",
    "sqldate": "20150908",
    "monthyear": "201509",
    "year": "2015",
    "fractiondate": "2015.6795",
    "eventcode": "130",
    "quadclass": "3",
    "nummentions": "16",
    "numsources": "1",
    "numarticles": "16",
    "avgtone": "-2.17250940028106",
    "sourceurl": "http://www.myrecordjournal.com/southington/southingtonnews/7741067-129/southington-elementary-schools-closing-early-due-to-heat.html",
    "feature_id": "211030",
    "feature_name": "Southington",
    "state_alpha": "CT",
    "county_name": "Hartford",
    "county_numeric": "003",
    "prim_lat_dec": "41.5965",
    "prim_long_dec": "-72.8776",
    "elev_in_m": "50",
    "elev_in_ft": "164",
    "lat": 41.5965,
    "long": -72.8776
  },
  {
    "globaleventid": "464866060",
    "sqldate": "20150908",
    "monthyear": "201509",
    "year": "2015",
    "fractiondate": "2015.6795",
    "eventcode": "193",
    "quadclass": "4",
    "nummentions": "2",
    "numsources": "1",
    "numarticles": "2",
    "avgtone": "-5.68302153194494",
    "sourceurl": "http://www.vox.com/2015/9/8/9273139/murder-rates-rising-sharply",
    "feature_id": "423587",
    "feature_name": "Chicago",
    "state_alpha": "IL",
    "county_name": "Cook",
    "county_numeric": "031",
    "prim_lat_dec": "41.85",
    "prim_long_dec": "-87.6501",
    "elev_in_m": "179",
    "elev_in_ft": "587",
    "lat": 41.85,
    "long": -87.6501
  },
  {
    "globaleventid": "464866059",
    "sqldate": "20150908",
    "monthyear": "201509",
    "year": "2015",
    "fractiondate": "2015.6795",
    "eventcode": "193",
    "quadclass": "4",
    "nummentions": "20",
    "numsources": "1",
    "numarticles": "20",
    "avgtone": "-7.5187969924812",
    "sourceurl": "http://cbs12.com/template/inews_wire/wires.regional.fl/2c538256-www.cbs12.com.shtml",
    "feature_id": "281279",
    "feature_name": "Dania Beach",
    "state_alpha": "FL",
    "county_name": "Broward",
    "county_numeric": "011",
    "prim_lat_dec": "26.0523",
    "prim_long_dec": "-80.1439",
    "elev_in_m": "3",
    "elev_in_ft": "10",
    "lat": 26.0523,
    "long": -80.1439
  },
  {
    "globaleventid": "464866058",
    "sqldate": "20150908",
    "monthyear": "201509",
    "year": "2015",
    "fractiondate": "2015.6795",
    "eventcode": "190",
    "quadclass": "4",
    "nummentions": "1",
    "numsources": "1",
    "numarticles": "1",
    "avgtone": "-7.01986754966888",
    "sourceurl": "http://www.aei.org/publication/blacklivesmatters-agenda-is-costing-black-lives/",
    "feature_id": "408628",
    "feature_name": "Fox Lake",
    "state_alpha": "IL",
    "county_name": "Lake",
    "county_numeric": "097",
    "prim_lat_dec": "42.3967",
    "prim_long_dec": "-88.1837",
    "elev_in_m": "226",
    "elev_in_ft": "741",
    "lat": 42.3967,
    "long": -88.1837
  },
  {
    "globaleventid": "464866056",
    "sqldate": "20150908",
    "monthyear": "201509",
    "year": "2015",
    "fractiondate": "2015.6795",
    "eventcode": "190",
    "quadclass": "4",
    "nummentions": "5",
    "numsources": "1",
    "numarticles": "5",
    "avgtone": "-6.88223922543334",
    "sourceurl": "http://hamptonroads.com/2015/09/police-id-two-killed-virginia-beach-officerinvolved-shooting",
    "feature_id": "1500261",
    "feature_name": "Virginia Beach",
    "state_alpha": "VA",
    "county_name": "Virginia Beach (city)",
    "county_numeric": "810",
    "prim_lat_dec": "36.8529",
    "prim_long_dec": "-75.978",
    "elev_in_m": "3",
    "elev_in_ft": "10",
    "lat": 36.8529,
    "long": -75.978
  },
  {
    "globaleventid": "464866046",
    "sqldate": "20150908",
    "monthyear": "201509",
    "year": "2015",
    "fractiondate": "2015.6795",
    "eventcode": "192",
    "quadclass": "4",
    "nummentions": "2",
    "numsources": "1",
    "numarticles": "2",
    "avgtone": "-4.22442244224423",
    "sourceurl": "http://www.getreligion.org/getreligion/2015/9/7/vatican-conservatives-in-revolt-against-pope-francis-the-pope-hailed-by-news-media",
    "feature_id": "531871",
    "feature_name": "Washington",
    "state_alpha": "DC",
    "county_name": "District of Columbia",
    "county_numeric": "001",
    "prim_lat_dec": "38.8951",
    "prim_long_dec": "-77.0364",
    "elev_in_m": "7",
    "elev_in_ft": "23",
    "lat": 38.8951,
    "long": -77.0364
  },
  {
    "globaleventid": "464866032",
    "sqldate": "20150908",
    "monthyear": "201509",
    "year": "2015",
    "fractiondate": "2015.6795",
    "eventcode": "111",
    "quadclass": "3",
    "nummentions": "2",
    "numsources": "1",
    "numarticles": "2",
    "avgtone": "5.37634408602151",
    "sourceurl": "http://www.bloomberg.com/news/articles/2015-09-08/mack-sculley-among-investors-in-credit-rating-startup-neft",
    "feature_id": "1661104",
    "feature_name": "Newport Beach",
    "state_alpha": "CA",
    "county_name": "Orange",
    "county_numeric": "059",
    "prim_lat_dec": "33.6189",
    "prim_long_dec": "-117.929",
    "elev_in_m": "3",
    "elev_in_ft": "10",
    "lat": 33.6189,
    "long": -117.929
  },
  {
    "globaleventid": "464865940",
    "sqldate": "20150908",
    "monthyear": "201509",
    "year": "2015",
    "fractiondate": "2015.6795",
    "eventcode": "112",
    "quadclass": "3",
    "nummentions": "5",
    "numsources": "1",
    "numarticles": "5",
    "avgtone": "-4.79143179255919",
    "sourceurl": "http://www.defenseone.com/news/2015/09/the-d-brief-september-08-2015/120386/",
    "feature_id": "531871",
    "feature_name": "Washington",
    "state_alpha": "DC",
    "county_name": "District of Columbia",
    "county_numeric": "001",
    "prim_lat_dec": "38.8951",
    "prim_long_dec": "-77.0364",
    "elev_in_m": "7",
    "elev_in_ft": "23",
    "lat": 38.8951,
    "long": -77.0364
  },
  {
    "globaleventid": "464865804",
    "sqldate": "20150908",
    "monthyear": "201509",
    "year": "2015",
    "fractiondate": "2015.6795",
    "eventcode": "190",
    "quadclass": "4",
    "nummentions": "1",
    "numsources": "1",
    "numarticles": "1",
    "avgtone": "-2.67857142857143",
    "sourceurl": "http://www.huffingtonpost.com/rev-bonnie-a-perry/wake-up-calls_1_b_8096940.html",
    "feature_id": "423587",
    "feature_name": "Chicago",
    "state_alpha": "IL",
    "county_name": "Cook",
    "county_numeric": "031",
    "prim_lat_dec": "41.85",
    "prim_long_dec": "-87.6501",
    "elev_in_m": "179",
    "elev_in_ft": "587",
    "lat": 41.85,
    "long": -87.6501
  },
  {
    "globaleventid": "464865572",
    "sqldate": "20150908",
    "monthyear": "201509",
    "year": "2015",
    "fractiondate": "2015.6795",
    "eventcode": "125",
    "quadclass": "3",
    "nummentions": "10",
    "numsources": "2",
    "numarticles": "10",
    "avgtone": "-1.36507977487479",
    "sourceurl": "http://www.marketwatch.com/story/save-the-children-appeals-for-help-in-assisting-refugee-children-in-europe-2015-09-08",
    "feature_id": "531871",
    "feature_name": "Washington",
    "state_alpha": "DC",
    "county_name": "District of Columbia",
    "county_numeric": "001",
    "prim_lat_dec": "38.8951",
    "prim_long_dec": "-77.0364",
    "elev_in_m": "7",
    "elev_in_ft": "23",
    "lat": 38.8951,
    "long": -77.0364
  },
  {
    "globaleventid": "464865193",
    "sqldate": "20150908",
    "monthyear": "201509",
    "year": "2015",
    "fractiondate": "2015.6795",
    "eventcode": "120",
    "quadclass": "3",
    "nummentions": "3",
    "numsources": "2",
    "numarticles": "3",
    "avgtone": "-2.94642799381539",
    "sourceurl": "http://www.jta.org/2015/09/08/news-opinion/politics/fla-jewish-congresswoman-opposes-iran-nuclear-deal",
    "feature_id": "531871",
    "feature_name": "Washington",
    "state_alpha": "DC",
    "county_name": "District of Columbia",
    "county_numeric": "001",
    "prim_lat_dec": "38.8951",
    "prim_long_dec": "-77.0364",
    "elev_in_m": "7",
    "elev_in_ft": "23",
    "lat": 38.8951,
    "long": -77.0364
  },
  {
    "globaleventid": "464865156",
    "sqldate": "20150908",
    "monthyear": "201509",
    "year": "2015",
    "fractiondate": "2015.6795",
    "eventcode": "173",
    "quadclass": "4",
    "nummentions": "70",
    "numsources": "7",
    "numarticles": "70",
    "avgtone": "-14.9496174466159",
    "sourceurl": "http://www.kmbc.com/news/fake-pest-control-worker-sentenced-to-7-years-in-prison/35154298",
    "feature_id": "756036",
    "feature_name": "Farmington",
    "state_alpha": "MO",
    "county_name": "St. Francois",
    "county_numeric": "187",
    "prim_lat_dec": "37.7809",
    "prim_long_dec": "-90.4218",
    "elev_in_m": "279",
    "elev_in_ft": "915",
    "lat": 37.7809,
    "long": -90.4218
  },
  {
    "globaleventid": "464864502",
    "sqldate": "20150908",
    "monthyear": "201509",
    "year": "2015",
    "fractiondate": "2015.6795",
    "eventcode": "100",
    "quadclass": "3",
    "nummentions": "10",
    "numsources": "1",
    "numarticles": "10",
    "avgtone": "-3.01204819277109",
    "sourceurl": "http://temple-news.com/news/shooting-may-not-be-suicide/",
    "feature_id": "1209052",
    "feature_name": "Philadelphia",
    "state_alpha": "PA",
    "county_name": "Philadelphia",
    "county_numeric": "101",
    "prim_lat_dec": "39.9523",
    "prim_long_dec": "-75.1638",
    "elev_in_m": "14",
    "elev_in_ft": "46",
    "lat": 39.9523,
    "long": -75.1638
  },
  {
    "globaleventid": "464864293",
    "sqldate": "20150908",
    "monthyear": "201509",
    "year": "2015",
    "fractiondate": "2015.6795",
    "eventcode": "112",
    "quadclass": "3",
    "nummentions": "4",
    "numsources": "1",
    "numarticles": "4",
    "avgtone": "0.0",
    "sourceurl": "http://host.madison.com/ct/news/local/morning-briefing-mother-at-laborfest-i-work-myself-til-i/article_f32f9d94-561d-11e5-b211-5f8bb7c036d4.html",
    "feature_id": "1576325",
    "feature_name": "Wausau",
    "state_alpha": "WI",
    "county_name": "Marathon",
    "county_numeric": "073",
    "prim_lat_dec": "44.9591",
    "prim_long_dec": "-89.6301",
    "elev_in_m": "367",
    "elev_in_ft": "1204",
    "lat": 44.9591,
    "long": -89.6301
  },
  {
    "globaleventid": "464864260",
    "sqldate": "20150908",
    "monthyear": "201509",
    "year": "2015",
    "fractiondate": "2015.6795",
    "eventcode": "193",
    "quadclass": "4",
    "nummentions": "450",
    "numsources": "81",
    "numarticles": "448",
    "avgtone": "-7.93072666305483",
    "sourceurl": "http://www.vox.com/2015/9/8/9273139/murder-rates-rising-sharply",
    "feature_id": "423587",
    "feature_name": "Chicago",
    "state_alpha": "IL",
    "county_name": "Cook",
    "county_numeric": "031",
    "prim_lat_dec": "41.85",
    "prim_long_dec": "-87.6501",
    "elev_in_m": "179",
    "elev_in_ft": "587",
    "lat": 41.85,
    "long": -87.6501
  },
  {
    "globaleventid": "464864259",
    "sqldate": "20150908",
    "monthyear": "201509",
    "year": "2015",
    "fractiondate": "2015.6795",
    "eventcode": "193",
    "quadclass": "4",
    "nummentions": "4",
    "numsources": "1",
    "numarticles": "4",
    "avgtone": "-0.53892215568862",
    "sourceurl": "http://current.org/2015/09/how-an-illinois-radio-station-confronted-racial-issues-in-its-community/",
    "feature_id": "404579",
    "feature_name": "Bloomington",
    "state_alpha": "IL",
    "county_name": "McLean",
    "county_numeric": "113",
    "prim_lat_dec": "40.4842",
    "prim_long_dec": "-88.9937",
    "elev_in_m": "243",
    "elev_in_ft": "797",
    "lat": 40.4842,
    "long": -88.9937
  },
  {
    "globaleventid": "464864257",
    "sqldate": "20150908",
    "monthyear": "201509",
    "year": "2015",
    "fractiondate": "2015.6795",
    "eventcode": "193",
    "quadclass": "4",
    "nummentions": "2",
    "numsources": "1",
    "numarticles": "2",
    "avgtone": "-4.84429065743945",
    "sourceurl": "http://hamptonroads.com/2015/09/police-id-two-killed-virginia-beach-officerinvolved-shooting",
    "feature_id": "1500261",
    "feature_name": "Virginia Beach",
    "state_alpha": "VA",
    "county_name": "Virginia Beach (city)",
    "county_numeric": "810",
    "prim_lat_dec": "36.8529",
    "prim_long_dec": "-75.978",
    "elev_in_m": "3",
    "elev_in_ft": "10",
    "lat": 36.8529,
    "long": -75.978
  },
  {
    "globaleventid": "464864253",
    "sqldate": "20150908",
    "monthyear": "201509",
    "year": "2015",
    "fractiondate": "2015.6795",
    "eventcode": "190",
    "quadclass": "4",
    "nummentions": "6",
    "numsources": "1",
    "numarticles": "6",
    "avgtone": "-8.10810810810811",
    "sourceurl": "http://www.dailynews.com/general-news/20150908/man-stabbed-in-studio-city-home",
    "feature_id": "1662328",
    "feature_name": "Los Angeles",
    "state_alpha": "CA",
    "county_name": "Los Angeles",
    "county_numeric": "037",
    "prim_lat_dec": "34.0522",
    "prim_long_dec": "-118.244",
    "elev_in_m": "89",
    "elev_in_ft": "292",
    "lat": 34.0522,
    "long": -118.244
  },
  {
    "globaleventid": "464864252",
    "sqldate": "20150908",
    "monthyear": "201509",
    "year": "2015",
    "fractiondate": "2015.6795",
    "eventcode": "182",
    "quadclass": "4",
    "nummentions": "6",
    "numsources": "1",
    "numarticles": "6",
    "avgtone": "-8.10810810810811",
    "sourceurl": "http://www.dailynews.com/general-news/20150908/man-stabbed-in-studio-city-home",
    "feature_id": "1661516",
    "feature_name": "Studio City",
    "state_alpha": "CA",
    "county_name": "Los Angeles",
    "county_numeric": "037",
    "prim_lat_dec": "34.1486",
    "prim_long_dec": "-118.396",
    "elev_in_m": "186",
    "elev_in_ft": "610",
    "lat": 34.1486,
    "long": -118.396
  },
  {
    "globaleventid": "464864250",
    "sqldate": "20150908",
    "monthyear": "201509",
    "year": "2015",
    "fractiondate": "2015.6795",
    "eventcode": "173",
    "quadclass": "4",
    "nummentions": "10",
    "numsources": "1",
    "numarticles": "10",
    "avgtone": "-9.09090909090909",
    "sourceurl": "http://www.courierpostonline.com/story/news/2015/09/08/westampton-officer-arrests-pennsylvania-fugitive/71871198/",
    "feature_id": "1213957",
    "feature_name": "Downingtown",
    "state_alpha": "PA",
    "county_name": "Chester",
    "county_numeric": "029",
    "prim_lat_dec": "40.0065",
    "prim_long_dec": "-75.7033",
    "elev_in_m": "73",
    "elev_in_ft": "239",
    "lat": 40.0065,
    "long": -75.7033
  },
  {
    "globaleventid": "464864249",
    "sqldate": "20150908",
    "monthyear": "201509",
    "year": "2015",
    "fractiondate": "2015.6795",
    "eventcode": "144",
    "quadclass": "3",
    "nummentions": "258",
    "numsources": "116",
    "numarticles": "258",
    "avgtone": "-7.54123376156932",
    "sourceurl": "http://news.findlaw.com/apnews/85cc0d4b63984d22bdc436d563078e6d",
    "feature_id": "640278",
    "feature_name": "Bloomington",
    "state_alpha": "MN",
    "county_name": "Hennepin",
    "county_numeric": "053",
    "prim_lat_dec": "44.8408",
    "prim_long_dec": "-93.2983",
    "elev_in_m": "252",
    "elev_in_ft": "827",
    "lat": 44.8408,
    "long": -93.2983
  },
  {
    "globaleventid": "464864218",
    "sqldate": "20150908",
    "monthyear": "201509",
    "year": "2015",
    "fractiondate": "2015.6795",
    "eventcode": "193",
    "quadclass": "4",
    "nummentions": "7",
    "numsources": "2",
    "numarticles": "7",
    "avgtone": "-3.56231994494836",
    "sourceurl": "http://www.officer.com/news/12111691/la-county-deputy-slain-in-murder-suicide",
    "feature_id": "1662328",
    "feature_name": "Los Angeles",
    "state_alpha": "CA",
    "county_name": "Los Angeles",
    "county_numeric": "037",
    "prim_lat_dec": "34.0522",
    "prim_long_dec": "-118.244",
    "elev_in_m": "89",
    "elev_in_ft": "292",
    "lat": 34.0522,
    "long": -118.244
  },
  {
    "globaleventid": "464864217",
    "sqldate": "20150908",
    "monthyear": "201509",
    "year": "2015",
    "fractiondate": "2015.6795",
    "eventcode": "193",
    "quadclass": "4",
    "nummentions": "7",
    "numsources": "2",
    "numarticles": "7",
    "avgtone": "-3.85991767797948",
    "sourceurl": "http://www.officer.com/news/12111691/la-county-deputy-slain-in-murder-suicide",
    "feature_id": "1661171",
    "feature_name": "Pacoima",
    "state_alpha": "CA",
    "county_name": "Los Angeles",
    "county_numeric": "037",
    "prim_lat_dec": "34.2625",
    "prim_long_dec": "-118.427",
    "elev_in_m": "302",
    "elev_in_ft": "991",
    "lat": 34.2625,
    "long": -118.427
  },
  {
    "globaleventid": "464864156",
    "sqldate": "20150908",
    "monthyear": "201509",
    "year": "2015",
    "fractiondate": "2015.6795",
    "eventcode": "192",
    "quadclass": "4",
    "nummentions": "2",
    "numsources": "1",
    "numarticles": "2",
    "avgtone": "-4.22442244224423",
    "sourceurl": "http://www.getreligion.org/getreligion/2015/9/7/vatican-conservatives-in-revolt-against-pope-francis-the-pope-hailed-by-news-media",
    "feature_id": "531871",
    "feature_name": "Washington",
    "state_alpha": "DC",
    "county_name": "District of Columbia",
    "county_numeric": "001",
    "prim_lat_dec": "38.8951",
    "prim_long_dec": "-77.0364",
    "elev_in_m": "7",
    "elev_in_ft": "23",
    "lat": 38.8951,
    "long": -77.0364
  },
  {
    "globaleventid": "464864066",
    "sqldate": "20150908",
    "monthyear": "201509",
    "year": "2015",
    "fractiondate": "2015.6795",
    "eventcode": "111",
    "quadclass": "3",
    "nummentions": "4",
    "numsources": "2",
    "numarticles": "4",
    "avgtone": "-3.99625357986451",
    "sourceurl": "http://health.usnews.com/health-news/articles/2015/09/08/health-highlights-sept-8-2015",
    "feature_id": "1661377",
    "feature_name": "San Diego",
    "state_alpha": "CA",
    "county_name": "San Diego",
    "county_numeric": "073",
    "prim_lat_dec": "32.7153",
    "prim_long_dec": "-117.157",
    "elev_in_m": "19",
    "elev_in_ft": "62",
    "lat": 32.7153,
    "long": -117.157
  },
  {
    "globaleventid": "464864046",
    "sqldate": "20150908",
    "monthyear": "201509",
    "year": "2015",
    "fractiondate": "2015.6795",
    "eventcode": "111",
    "quadclass": "3",
    "nummentions": "12",
    "numsources": "2",
    "numarticles": "12",
    "avgtone": "-3.99625357986451",
    "sourceurl": "http://health.usnews.com/health-news/articles/2015/09/08/health-highlights-sept-8-2015",
    "feature_id": "1661377",
    "feature_name": "San Diego",
    "state_alpha": "CA",
    "county_name": "San Diego",
    "county_numeric": "073",
    "prim_lat_dec": "32.7153",
    "prim_long_dec": "-117.157",
    "elev_in_m": "19",
    "elev_in_ft": "62",
    "lat": 32.7153,
    "long": -117.157
  },
  {
    "globaleventid": "464863838",
    "sqldate": "20150908",
    "monthyear": "201509",
    "year": "2015",
    "fractiondate": "2015.6795",
    "eventcode": "141",
    "quadclass": "3",
    "nummentions": "1",
    "numsources": "1",
    "numarticles": "1",
    "avgtone": "-0.53892215568862",
    "sourceurl": "http://current.org/2015/09/how-an-illinois-radio-station-confronted-racial-issues-in-its-community/",
    "feature_id": "404579",
    "feature_name": "Bloomington",
    "state_alpha": "IL",
    "county_name": "McLean",
    "county_numeric": "113",
    "prim_lat_dec": "40.4842",
    "prim_long_dec": "-88.9937",
    "elev_in_m": "243",
    "elev_in_ft": "797",
    "lat": 40.4842,
    "long": -88.9937
  },
  {
    "globaleventid": "464861588",
    "sqldate": "20150908",
    "monthyear": "201509",
    "year": "2015",
    "fractiondate": "2015.6795",
    "eventcode": "111",
    "quadclass": "3",
    "nummentions": "3",
    "numsources": "1",
    "numarticles": "3",
    "avgtone": "-4.45544554455446",
    "sourceurl": "http://thehill.com/policy/national-security/252893-dick-cheney-iran-deal-will-allow-attack-on-us",
    "feature_id": "531871",
    "feature_name": "Washington",
    "state_alpha": "DC",
    "county_name": "District of Columbia",
    "county_numeric": "001",
    "prim_lat_dec": "38.8951",
    "prim_long_dec": "-77.0364",
    "elev_in_m": "7",
    "elev_in_ft": "23",
    "lat": 38.8951,
    "long": -77.0364
  },
  {
    "globaleventid": "464861555",
    "sqldate": "20150908",
    "monthyear": "201509",
    "year": "2015",
    "fractiondate": "2015.6795",
    "eventcode": "190",
    "quadclass": "4",
    "nummentions": "4",
    "numsources": "1",
    "numarticles": "4",
    "avgtone": "-7.80487804878049",
    "sourceurl": "http://wgnsradio.com/murder-case-of-man-found-on-toilet-in-murfreesboro-home-to-move-forward-to-courts-cms-28430",
    "feature_id": "1295105",
    "feature_name": "Murfreesboro",
    "state_alpha": "TN",
    "county_name": "Rutherford",
    "county_numeric": "149",
    "prim_lat_dec": "35.8456",
    "prim_long_dec": "-86.3903",
    "elev_in_m": "186",
    "elev_in_ft": "610",
    "lat": 35.8456,
    "long": -86.3903
  },
  {
    "globaleventid": "474171611",
    "sqldate": "20150908",
    "monthyear": "201509",
    "year": "2015",
    "fractiondate": "2015.6795",
    "eventcode": "111",
    "quadclass": "3",
    "nummentions": "8",
    "numsources": "2",
    "numarticles": "8",
    "avgtone": "-4.26886872026722",
    "sourceurl": "http://www.upi.com/Top_News/US/2015/10/07/GOP-contender-Carson-under-fire-for-Oregon-shooting-comments/3331444257807/",
    "feature_id": "1128405",
    "feature_name": "Umpqua",
    "state_alpha": "OR",
    "county_name": "Douglas",
    "county_numeric": "019",
    "prim_lat_dec": "43.3654",
    "prim_long_dec": "-123.468",
    "elev_in_m": "98",
    "elev_in_ft": "322",
    "lat": 43.3654,
    "long": -123.468
  },
  {
    "globaleventid": "474171610",
    "sqldate": "20150908",
    "monthyear": "201509",
    "year": "2015",
    "fractiondate": "2015.6795",
    "eventcode": "110",
    "quadclass": "3",
    "nummentions": "8",
    "numsources": "2",
    "numarticles": "8",
    "avgtone": "-4.26886872026722",
    "sourceurl": "http://www.upi.com/Top_News/US/2015/10/07/GOP-contender-Carson-under-fire-for-Oregon-shooting-comments/3331444257807/",
    "feature_id": "1128405",
    "feature_name": "Umpqua",
    "state_alpha": "OR",
    "county_name": "Douglas",
    "county_numeric": "019",
    "prim_lat_dec": "43.3654",
    "prim_long_dec": "-123.468",
    "elev_in_m": "98",
    "elev_in_ft": "322",
    "lat": 43.3654,
    "long": -123.468
  },
  {
    "globaleventid": "464861552",
    "sqldate": "20150908",
    "monthyear": "201509",
    "year": "2015",
    "fractiondate": "2015.6795",
    "eventcode": "190",
    "quadclass": "4",
    "nummentions": "8",
    "numsources": "1",
    "numarticles": "8",
    "avgtone": "0.56980056980057",
    "sourceurl": "http://tribune.com.pk/story/953057/teen-who-offers-to-protect-police-officer-at-us-gas-station-hailed-as-hero/",
    "feature_id": "1380948",
    "feature_name": "Houston",
    "state_alpha": "TX",
    "county_name": "Harris",
    "county_numeric": "201",
    "prim_lat_dec": "29.7633",
    "prim_long_dec": "-95.3633",
    "elev_in_m": "11",
    "elev_in_ft": "36",
    "lat": 29.7633,
    "long": -95.3633
  },
  {
    "globaleventid": "464861475",
    "sqldate": "20150908",
    "monthyear": "201509",
    "year": "2015",
    "fractiondate": "2015.6795",
    "eventcode": "130",
    "quadclass": "3",
    "nummentions": "5",
    "numsources": "2",
    "numarticles": "5",
    "avgtone": "-5.70102135561746",
    "sourceurl": "http://sandiegofreepress.org/2015/09/one-day-soon-that-drone-overhead-may-be-pointing-a-taser-at-you/",
    "feature_id": "531871",
    "feature_name": "Washington",
    "state_alpha": "DC",
    "county_name": "District of Columbia",
    "county_numeric": "001",
    "prim_lat_dec": "38.8951",
    "prim_long_dec": "-77.0364",
    "elev_in_m": "7",
    "elev_in_ft": "23",
    "lat": 38.8951,
    "long": -77.0364
  },
  {
    "globaleventid": "464861464",
    "sqldate": "20150908",
    "monthyear": "201509",
    "year": "2015",
    "fractiondate": "2015.6795",
    "eventcode": "110",
    "quadclass": "3",
    "nummentions": "4",
    "numsources": "1",
    "numarticles": "4",
    "avgtone": "-4.57831325301205",
    "sourceurl": "http://www.governing.com/topics/public-justice-safety/tns-day-laborer-oyster-bay.html",
    "feature_id": "1380946",
    "feature_name": "El Paso",
    "state_alpha": "TX",
    "county_name": "El Paso",
    "county_numeric": "141",
    "prim_lat_dec": "31.7587",
    "prim_long_dec": "-106.487",
    "elev_in_m": "1133",
    "elev_in_ft": "3717",
    "lat": 31.7587,
    "long": -106.487
  },
  {
    "globaleventid": "464861429",
    "sqldate": "20150908",
    "monthyear": "201509",
    "year": "2015",
    "fractiondate": "2015.6795",
    "eventcode": "111",
    "quadclass": "3",
    "nummentions": "4",
    "numsources": "1",
    "numarticles": "4",
    "avgtone": "1.50501672240802",
    "sourceurl": "http://www.cosmopolitan.co.uk/beauty-hair/beauty-trends/advice/a38403/difference-between-hormonal-cystic-acne/",
    "feature_id": "1660757",
    "feature_name": "Hollywood",
    "state_alpha": "CA",
    "county_name": "Los Angeles",
    "county_numeric": "037",
    "prim_lat_dec": "34.0983",
    "prim_long_dec": "-118.327",
    "elev_in_m": "108",
    "elev_in_ft": "354",
    "lat": 34.0983,
    "long": -118.327
  },
  {
    "globaleventid": "464861397",
    "sqldate": "20150908",
    "monthyear": "201509",
    "year": "2015",
    "fractiondate": "2015.6795",
    "eventcode": "112",
    "quadclass": "3",
    "nummentions": "10",
    "numsources": "1",
    "numarticles": "10",
    "avgtone": "-7.62331838565023",
    "sourceurl": "http://www.guns.com/2015/09/08/this-gun-has-no-safety-says-lawyer-of-illegal-alien-in-murder-trial/",
    "feature_id": "277593",
    "feature_name": "San Francisco",
    "state_alpha": "CA",
    "county_name": "San Francisco",
    "county_numeric": "075",
    "prim_lat_dec": "37.775",
    "prim_long_dec": "-122.419",
    "elev_in_m": "16",
    "elev_in_ft": "52",
    "lat": 37.775,
    "long": -122.419
  },
  {
    "globaleventid": "464860919",
    "sqldate": "20150908",
    "monthyear": "201509",
    "year": "2015",
    "fractiondate": "2015.6795",
    "eventcode": "110",
    "quadclass": "3",
    "nummentions": "5",
    "numsources": "1",
    "numarticles": "5",
    "avgtone": "-2.09662716499544",
    "sourceurl": "http://www.nbcnews.com/news/us-news/september-showdowns-loom-congress-n423286",
    "feature_id": "531871",
    "feature_name": "Washington",
    "state_alpha": "DC",
    "county_name": "District of Columbia",
    "county_numeric": "001",
    "prim_lat_dec": "38.8951",
    "prim_long_dec": "-77.0364",
    "elev_in_m": "7",
    "elev_in_ft": "23",
    "lat": 38.8951,
    "long": -77.0364
  },
  {
    "globaleventid": "464860648",
    "sqldate": "20150908",
    "monthyear": "201509",
    "year": "2015",
    "fractiondate": "2015.6795",
    "eventcode": "111",
    "quadclass": "3",
    "nummentions": "5",
    "numsources": "1",
    "numarticles": "5",
    "avgtone": "2.9126213592233",
    "sourceurl": "http://www.belfastlive.co.uk/all-about/stuart-dallas",
    "feature_id": "1380944",
    "feature_name": "Dallas",
    "state_alpha": "TX",
    "county_name": "Dallas",
    "county_numeric": "113",
    "prim_lat_dec": "32.7831",
    "prim_long_dec": "-96.8067",
    "elev_in_m": "128",
    "elev_in_ft": "420",
    "lat": 32.7831,
    "long": -96.8067
  },
  {
    "globaleventid": "464860548",
    "sqldate": "20150908",
    "monthyear": "201509",
    "year": "2015",
    "fractiondate": "2015.6795",
    "eventcode": "141",
    "quadclass": "3",
    "nummentions": "2",
    "numsources": "1",
    "numarticles": "2",
    "avgtone": "-0.4950495049505",
    "sourceurl": "http://curbed.com/archives/2015/09/08/see-where-the-labor-movement-took-shape-in-new-york-city.php",
    "feature_id": "951781",
    "feature_name": "Greenwich Village",
    "state_alpha": "NY",
    "county_name": "New York",
    "county_numeric": "061",
    "prim_lat_dec": "40.7284",
    "prim_long_dec": "-74.0029",
    "elev_in_m": "6",
    "elev_in_ft": "20",
    "lat": 40.7284,
    "long": -74.0029
  },
  {
    "globaleventid": "464860541",
    "sqldate": "20150908",
    "monthyear": "201509",
    "year": "2015",
    "fractiondate": "2015.6795",
    "eventcode": "141",
    "quadclass": "3",
    "nummentions": "1",
    "numsources": "1",
    "numarticles": "1",
    "avgtone": "-0.4950495049505",
    "sourceurl": "http://curbed.com/archives/2015/09/08/see-where-the-labor-movement-took-shape-in-new-york-city.php",
    "feature_id": "951781",
    "feature_name": "Greenwich Village",
    "state_alpha": "NY",
    "county_name": "New York",
    "county_numeric": "061",
    "prim_lat_dec": "40.7284",
    "prim_long_dec": "-74.0029",
    "elev_in_m": "6",
    "elev_in_ft": "20",
    "lat": 40.7284,
    "long": -74.0029
  },
  {
    "globaleventid": "464860520",
    "sqldate": "20150908",
    "monthyear": "201509",
    "year": "2015",
    "fractiondate": "2015.6795",
    "eventcode": "172",
    "quadclass": "4",
    "nummentions": "2",
    "numsources": "1",
    "numarticles": "2",
    "avgtone": "-4.57831325301205",
    "sourceurl": "http://www.governing.com/topics/public-justice-safety/tns-day-laborer-oyster-bay.html",
    "feature_id": "1662328",
    "feature_name": "Los Angeles",
    "state_alpha": "CA",
    "county_name": "Los Angeles",
    "county_numeric": "037",
    "prim_lat_dec": "34.0522",
    "prim_long_dec": "-118.244",
    "elev_in_m": "89",
    "elev_in_ft": "292",
    "lat": 34.0522,
    "long": -118.244
  },
  {
    "globaleventid": "464860519",
    "sqldate": "20150908",
    "monthyear": "201509",
    "year": "2015",
    "fractiondate": "2015.6795",
    "eventcode": "172",
    "quadclass": "4",
    "nummentions": "2",
    "numsources": "1",
    "numarticles": "2",
    "avgtone": "-4.57831325301205",
    "sourceurl": "http://www.governing.com/topics/public-justice-safety/tns-day-laborer-oyster-bay.html",
    "feature_id": "1662328",
    "feature_name": "Los Angeles",
    "state_alpha": "CA",
    "county_name": "Los Angeles",
    "county_numeric": "037",
    "prim_lat_dec": "34.0522",
    "prim_long_dec": "-118.244",
    "elev_in_m": "89",
    "elev_in_ft": "292",
    "lat": 34.0522,
    "long": -118.244
  },
  {
    "globaleventid": "464860131",
    "sqldate": "20150908",
    "monthyear": "201509",
    "year": "2015",
    "fractiondate": "2015.6795",
    "eventcode": "186",
    "quadclass": "4",
    "nummentions": "2",
    "numsources": "1",
    "numarticles": "2",
    "avgtone": "-8.64864864864865",
    "sourceurl": "http://dailycaller.com/2015/09/08/new-haven-man-pleads-guilty-to-bribing-housing-official/",
    "feature_id": "211953",
    "feature_name": "West Haven",
    "state_alpha": "CT",
    "county_name": "New Haven",
    "county_numeric": "009",
    "prim_lat_dec": "41.2707",
    "prim_long_dec": "-72.947",
    "elev_in_m": "4",
    "elev_in_ft": "13",
    "lat": 41.2707,
    "long": -72.947
  },
  {
    "globaleventid": "464859571",
    "sqldate": "20150908",
    "monthyear": "201509",
    "year": "2015",
    "fractiondate": "2015.6795",
    "eventcode": "163",
    "quadclass": "4",
    "nummentions": "15",
    "numsources": "2",
    "numarticles": "15",
    "avgtone": "-4.68252664435181",
    "sourceurl": "http://freerepublic.com/focus/f-news/3334287/posts",
    "feature_id": "1380948",
    "feature_name": "Houston",
    "state_alpha": "TX",
    "county_name": "Harris",
    "county_numeric": "201",
    "prim_lat_dec": "29.7633",
    "prim_long_dec": "-95.3633",
    "elev_in_m": "11",
    "elev_in_ft": "36",
    "lat": 29.7633,
    "long": -95.3633
  },
  {
    "globaleventid": "464859390",
    "sqldate": "20150908",
    "monthyear": "201509",
    "year": "2015",
    "fractiondate": "2015.6795",
    "eventcode": "193",
    "quadclass": "4",
    "nummentions": "1",
    "numsources": "1",
    "numarticles": "1",
    "avgtone": "-7.62331838565023",
    "sourceurl": "http://www.guns.com/2015/09/08/this-gun-has-no-safety-says-lawyer-of-illegal-alien-in-murder-trial/",
    "feature_id": "277593",
    "feature_name": "San Francisco",
    "state_alpha": "CA",
    "county_name": "San Francisco",
    "county_numeric": "075",
    "prim_lat_dec": "37.775",
    "prim_long_dec": "-122.419",
    "elev_in_m": "16",
    "elev_in_ft": "52",
    "lat": 37.775,
    "long": -122.419
  },
  {
    "globaleventid": "464859348",
    "sqldate": "20150908",
    "monthyear": "201509",
    "year": "2015",
    "fractiondate": "2015.6795",
    "eventcode": "190",
    "quadclass": "4",
    "nummentions": "2",
    "numsources": "1",
    "numarticles": "2",
    "avgtone": "-5.79207920792079",
    "sourceurl": "http://www.kswo.com/story/29979068/ap-exclusive-drilling-boom-means-more-harmful-waste-spills",
    "feature_id": "1376776",
    "feature_name": "Wichita Falls",
    "state_alpha": "TX",
    "county_name": "Wichita",
    "county_numeric": "485",
    "prim_lat_dec": "33.9137",
    "prim_long_dec": "-98.4934",
    "elev_in_m": "289",
    "elev_in_ft": "948",
    "lat": 33.9137,
    "long": -98.4934
  },
  {
    "globaleventid": "464859187",
    "sqldate": "20150908",
    "monthyear": "201509",
    "year": "2015",
    "fractiondate": "2015.6795",
    "eventcode": "190",
    "quadclass": "4",
    "nummentions": "2",
    "numsources": "1",
    "numarticles": "2",
    "avgtone": "-5.79207920792079",
    "sourceurl": "http://www.kswo.com/story/29979068/ap-exclusive-drilling-boom-means-more-harmful-waste-spills",
    "feature_id": "1376776",
    "feature_name": "Wichita Falls",
    "state_alpha": "TX",
    "county_name": "Wichita",
    "county_numeric": "485",
    "prim_lat_dec": "33.9137",
    "prim_long_dec": "-98.4934",
    "elev_in_m": "289",
    "elev_in_ft": "948",
    "lat": 33.9137,
    "long": -98.4934
  },
  {
    "globaleventid": "464856980",
    "sqldate": "20150908",
    "monthyear": "201509",
    "year": "2015",
    "fractiondate": "2015.6795",
    "eventcode": "190",
    "quadclass": "4",
    "nummentions": "7",
    "numsources": "7",
    "numarticles": "7",
    "avgtone": "-6.22972199439376",
    "sourceurl": "http://wsav.com/ap/minnesota-dentist-who-killed-beloved-lion-returns-to-work/",
    "feature_id": "640278",
    "feature_name": "Bloomington",
    "state_alpha": "MN",
    "county_name": "Hennepin",
    "county_numeric": "053",
    "prim_lat_dec": "44.8408",
    "prim_long_dec": "-93.2983",
    "elev_in_m": "252",
    "elev_in_ft": "827",
    "lat": 44.8408,
    "long": -93.2983
  },
  {
    "globaleventid": "464856899",
    "sqldate": "20150908",
    "monthyear": "201509",
    "year": "2015",
    "fractiondate": "2015.6795",
    "eventcode": "190",
    "quadclass": "4",
    "nummentions": "18",
    "numsources": "16",
    "numarticles": "18",
    "avgtone": "-4.86423459163945",
    "sourceurl": "http://kfgo.com/news/articles/2015/sep/08/us-hunter-who-killed-zimbabwe-lion-returns-to-dental-practice/",
    "feature_id": "655030",
    "feature_name": "Minneapolis",
    "state_alpha": "MN",
    "county_name": "Hennepin",
    "county_numeric": "053",
    "prim_lat_dec": "44.98",
    "prim_long_dec": "-93.2638",
    "elev_in_m": "253",
    "elev_in_ft": "830",
    "lat": 44.98,
    "long": -93.2638
  },
  {
    "globaleventid": "464856898",
    "sqldate": "20150908",
    "monthyear": "201509",
    "year": "2015",
    "fractiondate": "2015.6795",
    "eventcode": "190",
    "quadclass": "4",
    "nummentions": "16",
    "numsources": "15",
    "numarticles": "16",
    "avgtone": "-4.88807683982381",
    "sourceurl": "http://kfgo.com/news/articles/2015/sep/08/us-hunter-who-killed-zimbabwe-lion-returns-to-dental-practice/",
    "feature_id": "655030",
    "feature_name": "Minneapolis",
    "state_alpha": "MN",
    "county_name": "Hennepin",
    "county_numeric": "053",
    "prim_lat_dec": "44.98",
    "prim_long_dec": "-93.2638",
    "elev_in_m": "253",
    "elev_in_ft": "830",
    "lat": 44.98,
    "long": -93.2638
  },
  {
    "globaleventid": "464856874",
    "sqldate": "20150908",
    "monthyear": "201509",
    "year": "2015",
    "fractiondate": "2015.6795",
    "eventcode": "193",
    "quadclass": "4",
    "nummentions": "28",
    "numsources": "1",
    "numarticles": "28",
    "avgtone": "-2.94784580498866",
    "sourceurl": "http://www.ems1.com/fatal-incidents/articles/3205590-Police-Firefighter-Paramedic-kills-sheriffs-deputy-self/",
    "feature_id": "1662328",
    "feature_name": "Los Angeles",
    "state_alpha": "CA",
    "county_name": "Los Angeles",
    "county_numeric": "037",
    "prim_lat_dec": "34.0522",
    "prim_long_dec": "-118.244",
    "elev_in_m": "89",
    "elev_in_ft": "292",
    "lat": 34.0522,
    "long": -118.244
  },
  {
    "globaleventid": "464856873",
    "sqldate": "20150908",
    "monthyear": "201509",
    "year": "2015",
    "fractiondate": "2015.6795",
    "eventcode": "193",
    "quadclass": "4",
    "nummentions": "4",
    "numsources": "1",
    "numarticles": "4",
    "avgtone": "-2.94784580498866",
    "sourceurl": "http://www.ems1.com/fatal-incidents/articles/3205590-Police-Firefighter-Paramedic-kills-sheriffs-deputy-self/",
    "feature_id": "1662328",
    "feature_name": "Los Angeles",
    "state_alpha": "CA",
    "county_name": "Los Angeles",
    "county_numeric": "037",
    "prim_lat_dec": "34.0522",
    "prim_long_dec": "-118.244",
    "elev_in_m": "89",
    "elev_in_ft": "292",
    "lat": 34.0522,
    "long": -118.244
  },
  {
    "globaleventid": "464856842",
    "sqldate": "20150908",
    "monthyear": "201509",
    "year": "2015",
    "fractiondate": "2015.6795",
    "eventcode": "190",
    "quadclass": "4",
    "nummentions": "2",
    "numsources": "1",
    "numarticles": "2",
    "avgtone": "-8.85931558935362",
    "sourceurl": "http://webkinzwate.blogspot.com/2015/09/joseph-e-duncan-iii.html",
    "feature_id": "531871",
    "feature_name": "Washington",
    "state_alpha": "DC",
    "county_name": "District of Columbia",
    "county_numeric": "001",
    "prim_lat_dec": "38.8951",
    "prim_long_dec": "-77.0364",
    "elev_in_m": "7",
    "elev_in_ft": "23",
    "lat": 38.8951,
    "long": -77.0364
  },
  {
    "globaleventid": "464856841",
    "sqldate": "20150908",
    "monthyear": "201509",
    "year": "2015",
    "fractiondate": "2015.6795",
    "eventcode": "190",
    "quadclass": "4",
    "nummentions": "4",
    "numsources": "1",
    "numarticles": "4",
    "avgtone": "-8.85931558935362",
    "sourceurl": "http://webkinzwate.blogspot.com/2015/09/joseph-e-duncan-iii.html",
    "feature_id": "531871",
    "feature_name": "Washington",
    "state_alpha": "DC",
    "county_name": "District of Columbia",
    "county_numeric": "001",
    "prim_lat_dec": "38.8951",
    "prim_long_dec": "-77.0364",
    "elev_in_m": "7",
    "elev_in_ft": "23",
    "lat": 38.8951,
    "long": -77.0364
  }
]