[
  {
    "globaleventid": "479143585",
    "sqldate": "20151026",
    "monthyear": "201510",
    "year": "2015",
    "fractiondate": "2015.811",
    "eventcode": "110",
    "quadclass": "3",
    "nummentions": "3",
    "numsources": "1",
    "numarticles": "3",
    "avgtone": "-0.96525096525096",
    "sourceurl": "http://krwg.org/post/rep-keith-ellison-calls-independent-investigation-doctors-without-borders-hospital-bombing",
    "feature_id": "531871",
    "feature_name": "Washington",
    "state_alpha": "DC",
    "county_name": "District of Columbia",
    "county_numeric": "001",
    "prim_lat_dec": "38.8951",
    "prim_long_dec": "-77.0364",
    "elev_in_m": "7",
    "elev_in_ft": "23",
    "lat": 38.8951,
    "long": -77.0364
  },
  {
    "globaleventid": "479143558",
    "sqldate": "20151026",
    "monthyear": "201510",
    "year": "2015",
    "fractiondate": "2015.811",
    "eventcode": "173",
    "quadclass": "4",
    "nummentions": "10",
    "numsources": "1",
    "numarticles": "10",
    "avgtone": "1.29032258064516",
    "sourceurl": "http://www.massdevice.com/neogenomics-picks-up-ge-subsidiary-clarient-for-up-to-275m/",
    "feature_id": "1380948",
    "feature_name": "Houston",
    "state_alpha": "TX",
    "county_name": "Harris",
    "county_numeric": "201",
    "prim_lat_dec": "29.7633",
    "prim_long_dec": "-95.3633",
    "elev_in_m": "11",
    "elev_in_ft": "36",
    "lat": 29.7633,
    "long": -95.3633
  },
  {
    "globaleventid": "479143176",
    "sqldate": "20151026",
    "monthyear": "201510",
    "year": "2015",
    "fractiondate": "2015.811",
    "eventcode": "120",
    "quadclass": "3",
    "nummentions": "3",
    "numsources": "1",
    "numarticles": "3",
    "avgtone": "0.8816120906801",
    "sourceurl": "http://atr.rollcall.com/jamie-raskin-maryland-house-district-8/",
    "feature_id": "1187691",
    "feature_name": "Silver Spring",
    "state_alpha": "PA",
    "county_name": "Lancaster",
    "county_numeric": "071",
    "prim_lat_dec": "40.0643",
    "prim_long_dec": "-76.4372",
    "elev_in_m": "121",
    "elev_in_ft": "397",
    "lat": 40.0643,
    "long": -76.4372
  },
  {
    "globaleventid": "479143144",
    "sqldate": "20151026",
    "monthyear": "201510",
    "year": "2015",
    "fractiondate": "2015.811",
    "eventcode": "112",
    "quadclass": "3",
    "nummentions": "4",
    "numsources": "1",
    "numarticles": "4",
    "avgtone": "-7.69230769230774",
    "sourceurl": "http://www.mychamplainvalley.com/news/man-pleads-guilty-to-selling-drugs-resulting-in-death",
    "feature_id": "868105",
    "feature_name": "Littleton",
    "state_alpha": "NH",
    "county_name": "Grafton",
    "county_numeric": "009",
    "prim_lat_dec": "44.3062",
    "prim_long_dec": "-71.7701",
    "elev_in_m": "251",
    "elev_in_ft": "823",
    "lat": 44.3062,
    "long": -71.7701
  },
  {
    "globaleventid": "479143123",
    "sqldate": "20151026",
    "monthyear": "201510",
    "year": "2015",
    "fractiondate": "2015.811",
    "eventcode": "173",
    "quadclass": "4",
    "nummentions": "4",
    "numsources": "1",
    "numarticles": "4",
    "avgtone": "-9.70149253731343",
    "sourceurl": "http://www.arkansasmatters.com/news/local-news/police-tyson-heir-threatens-couple-with-shotgun",
    "feature_id": "83350",
    "feature_name": "Little Rock",
    "state_alpha": "AR",
    "county_name": "Pulaski",
    "county_numeric": "119",
    "prim_lat_dec": "34.7465",
    "prim_long_dec": "-92.2896",
    "elev_in_m": "102",
    "elev_in_ft": "335",
    "lat": 34.7465,
    "long": -92.2896
  },
  {
    "globaleventid": "479143115",
    "sqldate": "20151026",
    "monthyear": "201510",
    "year": "2015",
    "fractiondate": "2015.811",
    "eventcode": "1822",
    "quadclass": "4",
    "nummentions": "8",
    "numsources": "1",
    "numarticles": "8",
    "avgtone": "-4.25531914893617",
    "sourceurl": "http://www.tucsonsentinel.com/local/report/102615_bodies_id/sonora-police-id-4-7-tortured-killed-ranch-near-az-mexico-border/",
    "feature_id": "13182",
    "feature_name": "Vamori",
    "state_alpha": "AZ",
    "county_name": "Pima",
    "county_numeric": "019",
    "prim_lat_dec": "31.7212",
    "prim_long_dec": "-111.905",
    "elev_in_m": "686",
    "elev_in_ft": "2251",
    "lat": 31.7212,
    "long": -111.905
  },
  {
    "globaleventid": "479142877",
    "sqldate": "20151026",
    "monthyear": "201510",
    "year": "2015",
    "fractiondate": "2015.811",
    "eventcode": "110",
    "quadclass": "3",
    "nummentions": "2",
    "numsources": "1",
    "numarticles": "2",
    "avgtone": "-0.96525096525096",
    "sourceurl": "http://krwg.org/post/rep-keith-ellison-calls-independent-investigation-doctors-without-borders-hospital-bombing",
    "feature_id": "531871",
    "feature_name": "Washington",
    "state_alpha": "DC",
    "county_name": "District of Columbia",
    "county_numeric": "001",
    "prim_lat_dec": "38.8951",
    "prim_long_dec": "-77.0364",
    "elev_in_m": "7",
    "elev_in_ft": "23",
    "lat": 38.8951,
    "long": -77.0364
  },
  {
    "globaleventid": "479141653",
    "sqldate": "20151026",
    "monthyear": "201510",
    "year": "2015",
    "fractiondate": "2015.811",
    "eventcode": "138",
    "quadclass": "3",
    "nummentions": "1",
    "numsources": "1",
    "numarticles": "1",
    "avgtone": "-12.1673003802281",
    "sourceurl": "http://www.nbcdfw.com/news/local/Dallas-Police-Release-Probable-Cause-Affidavit-in-Zoe-Hastings-Murder-Case-337151351.html",
    "feature_id": "1380944",
    "feature_name": "Dallas",
    "state_alpha": "TX",
    "county_name": "Dallas",
    "county_numeric": "113",
    "prim_lat_dec": "32.7831",
    "prim_long_dec": "-96.8067",
    "elev_in_m": "128",
    "elev_in_ft": "420",
    "lat": 32.7831,
    "long": -96.8067
  },
  {
    "globaleventid": "479141652",
    "sqldate": "20151026",
    "monthyear": "201510",
    "year": "2015",
    "fractiondate": "2015.811",
    "eventcode": "138",
    "quadclass": "3",
    "nummentions": "1",
    "numsources": "1",
    "numarticles": "1",
    "avgtone": "-12.1673003802281",
    "sourceurl": "http://www.nbcdfw.com/news/local/Dallas-Police-Release-Probable-Cause-Affidavit-in-Zoe-Hastings-Murder-Case-337151351.html",
    "feature_id": "1380944",
    "feature_name": "Dallas",
    "state_alpha": "TX",
    "county_name": "Dallas",
    "county_numeric": "113",
    "prim_lat_dec": "32.7831",
    "prim_long_dec": "-96.8067",
    "elev_in_m": "128",
    "elev_in_ft": "420",
    "lat": 32.7831,
    "long": -96.8067
  },
  {
    "globaleventid": "479141651",
    "sqldate": "20151026",
    "monthyear": "201510",
    "year": "2015",
    "fractiondate": "2015.811",
    "eventcode": "138",
    "quadclass": "3",
    "nummentions": "4",
    "numsources": "1",
    "numarticles": "4",
    "avgtone": "-12.1673003802281",
    "sourceurl": "http://www.nbcdfw.com/news/local/Dallas-Police-Release-Probable-Cause-Affidavit-in-Zoe-Hastings-Murder-Case-337151351.html",
    "feature_id": "1369752",
    "feature_name": "Texarkana",
    "state_alpha": "TX",
    "county_name": "Bowie",
    "county_numeric": "037",
    "prim_lat_dec": "33.4251",
    "prim_long_dec": "-94.0477",
    "elev_in_m": "91",
    "elev_in_ft": "299",
    "lat": 33.4251,
    "long": -94.0477
  },
  {
    "globaleventid": "479141638",
    "sqldate": "20151026",
    "monthyear": "201510",
    "year": "2015",
    "fractiondate": "2015.811",
    "eventcode": "174",
    "quadclass": "4",
    "nummentions": "2",
    "numsources": "1",
    "numarticles": "2",
    "avgtone": "-11.1959287531807",
    "sourceurl": "http://news.findlaw.com/apnews/2ab7fbd68fb94919a3da57af53451685",
    "feature_id": "874654",
    "feature_name": "Bellmawr",
    "state_alpha": "NJ",
    "county_name": "Camden",
    "county_numeric": "007",
    "prim_lat_dec": "39.8676",
    "prim_long_dec": "-75.0946",
    "elev_in_m": "17",
    "elev_in_ft": "56",
    "lat": 39.8676,
    "long": -75.0946
  },
  {
    "globaleventid": "479141627",
    "sqldate": "20151026",
    "monthyear": "201510",
    "year": "2015",
    "fractiondate": "2015.811",
    "eventcode": "100",
    "quadclass": "3",
    "nummentions": "3",
    "numsources": "1",
    "numarticles": "3",
    "avgtone": "-9.2",
    "sourceurl": "http://nmpoliticalreport.com/18040/denver-judge-declares-mistrial-on-former-aps-administrator/",
    "feature_id": "201738",
    "feature_name": "Denver",
    "state_alpha": "CO",
    "county_name": "Denver",
    "county_numeric": "031",
    "prim_lat_dec": "39.7392",
    "prim_long_dec": "-104.985",
    "elev_in_m": "1609",
    "elev_in_ft": "5279",
    "lat": 39.7392,
    "long": -104.985
  },
  {
    "globaleventid": "479137618",
    "sqldate": "20151026",
    "monthyear": "201510",
    "year": "2015",
    "fractiondate": "2015.811",
    "eventcode": "173",
    "quadclass": "4",
    "nummentions": "2",
    "numsources": "1",
    "numarticles": "2",
    "avgtone": "-8.72600349040139",
    "sourceurl": "http://www.ledger-enquirer.com/news/local/crime/article41452383.html",
    "feature_id": "155193",
    "feature_name": "Phenix City",
    "state_alpha": "AL",
    "county_name": "Russell",
    "county_numeric": "113",
    "prim_lat_dec": "32.471",
    "prim_long_dec": "-85.0008",
    "elev_in_m": "74",
    "elev_in_ft": "243",
    "lat": 32.471,
    "long": -85.0008
  },
  {
    "globaleventid": "479141621",
    "sqldate": "20151026",
    "monthyear": "201510",
    "year": "2015",
    "fractiondate": "2015.811",
    "eventcode": "173",
    "quadclass": "4",
    "nummentions": "6",
    "numsources": "2",
    "numarticles": "6",
    "avgtone": "-6.35724043715847",
    "sourceurl": "http://www.phillyvoice.com/bail-set-at-1-million-for-oklahoma-woman/",
    "feature_id": "1098541",
    "feature_name": "Stillwater",
    "state_alpha": "OK",
    "county_name": "Payne",
    "county_numeric": "119",
    "prim_lat_dec": "36.1156",
    "prim_long_dec": "-97.0584",
    "elev_in_m": "273",
    "elev_in_ft": "896",
    "lat": 36.1156,
    "long": -97.0584
  },
  {
    "globaleventid": "479137595",
    "sqldate": "20151026",
    "monthyear": "201510",
    "year": "2015",
    "fractiondate": "2015.811",
    "eventcode": "141",
    "quadclass": "3",
    "nummentions": "2",
    "numsources": "1",
    "numarticles": "2",
    "avgtone": "-5.55095277547639",
    "sourceurl": "http://www.shtfplan.com/headline-news/untouchables-obama-cronies-protected-wall-streets-most-criminal-from-prosecution_10262015",
    "feature_id": "531871",
    "feature_name": "Washington",
    "state_alpha": "DC",
    "county_name": "District of Columbia",
    "county_numeric": "001",
    "prim_lat_dec": "38.8951",
    "prim_long_dec": "-77.0364",
    "elev_in_m": "7",
    "elev_in_ft": "23",
    "lat": 38.8951,
    "long": -77.0364
  },
  {
    "globaleventid": "479137577",
    "sqldate": "20151026",
    "monthyear": "201510",
    "year": "2015",
    "fractiondate": "2015.811",
    "eventcode": "141",
    "quadclass": "3",
    "nummentions": "5",
    "numsources": "1",
    "numarticles": "5",
    "avgtone": "-5.55095277547639",
    "sourceurl": "http://www.shtfplan.com/headline-news/untouchables-obama-cronies-protected-wall-streets-most-criminal-from-prosecution_10262015",
    "feature_id": "531871",
    "feature_name": "Washington",
    "state_alpha": "DC",
    "county_name": "District of Columbia",
    "county_numeric": "001",
    "prim_lat_dec": "38.8951",
    "prim_long_dec": "-77.0364",
    "elev_in_m": "7",
    "elev_in_ft": "23",
    "lat": 38.8951,
    "long": -77.0364
  },
  {
    "globaleventid": "479141616",
    "sqldate": "20151026",
    "monthyear": "201510",
    "year": "2015",
    "fractiondate": "2015.811",
    "eventcode": "193",
    "quadclass": "4",
    "nummentions": "1",
    "numsources": "1",
    "numarticles": "1",
    "avgtone": "-2.97029702970297",
    "sourceurl": "https://www.prisonlegalnews.org/news/author/mark-binelli/",
    "feature_id": "531871",
    "feature_name": "Washington",
    "state_alpha": "DC",
    "county_name": "District of Columbia",
    "county_numeric": "001",
    "prim_lat_dec": "38.8951",
    "prim_long_dec": "-77.0364",
    "elev_in_m": "7",
    "elev_in_ft": "23",
    "lat": 38.8951,
    "long": -77.0364
  },
  {
    "globaleventid": "479141615",
    "sqldate": "20151026",
    "monthyear": "201510",
    "year": "2015",
    "fractiondate": "2015.811",
    "eventcode": "193",
    "quadclass": "4",
    "nummentions": "1",
    "numsources": "1",
    "numarticles": "1",
    "avgtone": "-2.97029702970297",
    "sourceurl": "https://www.prisonlegalnews.org/news/author/mark-binelli/",
    "feature_id": "530559",
    "feature_name": "LeDroit Park",
    "state_alpha": "DC",
    "county_name": "District of Columbia",
    "county_numeric": "001",
    "prim_lat_dec": "38.9159",
    "prim_long_dec": "-77.0158",
    "elev_in_m": "27",
    "elev_in_ft": "89",
    "lat": 38.9159,
    "long": -77.0158
  },
  {
    "globaleventid": "479137540",
    "sqldate": "20151026",
    "monthyear": "201510",
    "year": "2015",
    "fractiondate": "2015.811",
    "eventcode": "193",
    "quadclass": "4",
    "nummentions": "7",
    "numsources": "1",
    "numarticles": "7",
    "avgtone": "-10.3825136612022",
    "sourceurl": "https://www.rt.com/usa/319769-police-prosecuted-civilian-deaths/",
    "feature_id": "531871",
    "feature_name": "Washington",
    "state_alpha": "DC",
    "county_name": "District of Columbia",
    "county_numeric": "001",
    "prim_lat_dec": "38.8951",
    "prim_long_dec": "-77.0364",
    "elev_in_m": "7",
    "elev_in_ft": "23",
    "lat": 38.8951,
    "long": -77.0364
  },
  {
    "globaleventid": "479137539",
    "sqldate": "20151026",
    "monthyear": "201510",
    "year": "2015",
    "fractiondate": "2015.811",
    "eventcode": "190",
    "quadclass": "4",
    "nummentions": "4",
    "numsources": "1",
    "numarticles": "4",
    "avgtone": "-9.56521739130435",
    "sourceurl": "http://www.triplicate.com/News/Local-News/Body-found-near-jetty-a-suspected-suicide",
    "feature_id": "277494",
    "feature_name": "Crescent City",
    "state_alpha": "CA",
    "county_name": "Del Norte",
    "county_numeric": "015",
    "prim_lat_dec": "41.7559",
    "prim_long_dec": "-124.202",
    "elev_in_m": "13",
    "elev_in_ft": "43",
    "lat": 41.7559,
    "long": -124.202
  },
  {
    "globaleventid": "479137536",
    "sqldate": "20151026",
    "monthyear": "201510",
    "year": "2015",
    "fractiondate": "2015.811",
    "eventcode": "193",
    "quadclass": "4",
    "nummentions": "3",
    "numsources": "1",
    "numarticles": "3",
    "avgtone": "-10.3825136612022",
    "sourceurl": "https://www.rt.com/usa/319769-police-prosecuted-civilian-deaths/",
    "feature_id": "531871",
    "feature_name": "Washington",
    "state_alpha": "DC",
    "county_name": "District of Columbia",
    "county_numeric": "001",
    "prim_lat_dec": "38.8951",
    "prim_long_dec": "-77.0364",
    "elev_in_m": "7",
    "elev_in_ft": "23",
    "lat": 38.8951,
    "long": -77.0364
  },
  {
    "globaleventid": "479137520",
    "sqldate": "20151026",
    "monthyear": "201510",
    "year": "2015",
    "fractiondate": "2015.811",
    "eventcode": "161",
    "quadclass": "4",
    "nummentions": "1",
    "numsources": "1",
    "numarticles": "1",
    "avgtone": "1.32890365448505",
    "sourceurl": "http://www.texastribune.org/2015/10/26/paul-picks-huffines-lead-texas-campaign/",
    "feature_id": "1360850",
    "feature_name": "Lake Jackson",
    "state_alpha": "TX",
    "county_name": "Brazoria",
    "county_numeric": "039",
    "prim_lat_dec": "29.0339",
    "prim_long_dec": "-95.4344",
    "elev_in_m": "4",
    "elev_in_ft": "13",
    "lat": 29.0339,
    "long": -95.4344
  },
  {
    "globaleventid": "479137517",
    "sqldate": "20151026",
    "monthyear": "201510",
    "year": "2015",
    "fractiondate": "2015.811",
    "eventcode": "120",
    "quadclass": "3",
    "nummentions": "1",
    "numsources": "1",
    "numarticles": "1",
    "avgtone": "-2.21565731166913",
    "sourceurl": "http://www.macombdaily.com/government-and-politics/20151026/warren-candidate-suspends-campaign-says-hell-return-contributions",
    "feature_id": "631290",
    "feature_name": "Macomb",
    "state_alpha": "MI",
    "county_name": "Macomb",
    "county_numeric": "099",
    "prim_lat_dec": "42.7009",
    "prim_long_dec": "-82.9591",
    "elev_in_m": "191",
    "elev_in_ft": "627",
    "lat": 42.7009,
    "long": -82.9591
  },
  {
    "globaleventid": "479141605",
    "sqldate": "20151026",
    "monthyear": "201510",
    "year": "2015",
    "fractiondate": "2015.811",
    "eventcode": "173",
    "quadclass": "4",
    "nummentions": "1",
    "numsources": "1",
    "numarticles": "1",
    "avgtone": "-4.89130434782609",
    "sourceurl": "http://www.tdm.com/Odd-News/2015/10/26/South-Carolina-man-had-more-than-7000-guns-up-to-500-chainsaws/9471445887291/",
    "feature_id": "1243475",
    "feature_name": "Pageland",
    "state_alpha": "SC",
    "county_name": "Pickens",
    "county_numeric": "077",
    "prim_lat_dec": "34.8185",
    "prim_long_dec": "-82.5726",
    "elev_in_m": "300",
    "elev_in_ft": "984",
    "lat": 34.8185,
    "long": -82.5726
  },
  {
    "globaleventid": "479141573",
    "sqldate": "20151026",
    "monthyear": "201510",
    "year": "2015",
    "fractiondate": "2015.811",
    "eventcode": "130",
    "quadclass": "3",
    "nummentions": "2",
    "numsources": "1",
    "numarticles": "2",
    "avgtone": "-3.20987654320988",
    "sourceurl": "http://utahpolicy.com/index.php/features/featured-articles/7423-press-release-economists-warn-powell-pipeline-will-force-massive-water-rate-increases-to-st-george-residents",
    "feature_id": "531871",
    "feature_name": "Washington",
    "state_alpha": "DC",
    "county_name": "District of Columbia",
    "county_numeric": "001",
    "prim_lat_dec": "38.8951",
    "prim_long_dec": "-77.0364",
    "elev_in_m": "7",
    "elev_in_ft": "23",
    "lat": 38.8951,
    "long": -77.0364
  },
  {
    "globaleventid": "479141572",
    "sqldate": "20151026",
    "monthyear": "201510",
    "year": "2015",
    "fractiondate": "2015.811",
    "eventcode": "130",
    "quadclass": "3",
    "nummentions": "2",
    "numsources": "1",
    "numarticles": "2",
    "avgtone": "-3.20987654320988",
    "sourceurl": "http://utahpolicy.com/index.php/features/featured-articles/7423-press-release-economists-warn-powell-pipeline-will-force-massive-water-rate-increases-to-st-george-residents",
    "feature_id": "531871",
    "feature_name": "Washington",
    "state_alpha": "DC",
    "county_name": "District of Columbia",
    "county_numeric": "001",
    "prim_lat_dec": "38.8951",
    "prim_long_dec": "-77.0364",
    "elev_in_m": "7",
    "elev_in_ft": "23",
    "lat": 38.8951,
    "long": -77.0364
  },
  {
    "globaleventid": "479141524",
    "sqldate": "20151026",
    "monthyear": "201510",
    "year": "2015",
    "fractiondate": "2015.811",
    "eventcode": "190",
    "quadclass": "4",
    "nummentions": "1",
    "numsources": "1",
    "numarticles": "1",
    "avgtone": "-12.1673003802281",
    "sourceurl": "http://www.nbcdfw.com/news/local/Dallas-Police-Release-Probable-Cause-Affidavit-in-Zoe-Hastings-Murder-Case-337151351.html",
    "feature_id": "1380944",
    "feature_name": "Dallas",
    "state_alpha": "TX",
    "county_name": "Dallas",
    "county_numeric": "113",
    "prim_lat_dec": "32.7831",
    "prim_long_dec": "-96.8067",
    "elev_in_m": "128",
    "elev_in_ft": "420",
    "lat": 32.7831,
    "long": -96.8067
  },
  {
    "globaleventid": "479141523",
    "sqldate": "20151026",
    "monthyear": "201510",
    "year": "2015",
    "fractiondate": "2015.811",
    "eventcode": "100",
    "quadclass": "3",
    "nummentions": "2",
    "numsources": "1",
    "numarticles": "2",
    "avgtone": "-9.2",
    "sourceurl": "http://nmpoliticalreport.com/18040/denver-judge-declares-mistrial-on-former-aps-administrator/",
    "feature_id": "201738",
    "feature_name": "Denver",
    "state_alpha": "CO",
    "county_name": "Denver",
    "county_numeric": "031",
    "prim_lat_dec": "39.7392",
    "prim_long_dec": "-104.985",
    "elev_in_m": "1609",
    "elev_in_ft": "5279",
    "lat": 39.7392,
    "long": -104.985
  },
  {
    "globaleventid": "479141509",
    "sqldate": "20151026",
    "monthyear": "201510",
    "year": "2015",
    "fractiondate": "2015.811",
    "eventcode": "173",
    "quadclass": "4",
    "nummentions": "2",
    "numsources": "1",
    "numarticles": "2",
    "avgtone": "-4.89130434782609",
    "sourceurl": "http://www.tdm.com/Odd-News/2015/10/26/South-Carolina-man-had-more-than-7000-guns-up-to-500-chainsaws/9471445887291/",
    "feature_id": "1243475",
    "feature_name": "Pageland",
    "state_alpha": "SC",
    "county_name": "Pickens",
    "county_numeric": "077",
    "prim_lat_dec": "34.8185",
    "prim_long_dec": "-82.5726",
    "elev_in_m": "300",
    "elev_in_ft": "984",
    "lat": 34.8185,
    "long": -82.5726
  },
  {
    "globaleventid": "479141491",
    "sqldate": "20151026",
    "monthyear": "201510",
    "year": "2015",
    "fractiondate": "2015.811",
    "eventcode": "193",
    "quadclass": "4",
    "nummentions": "2",
    "numsources": "1",
    "numarticles": "2",
    "avgtone": "-8.10810810810811",
    "sourceurl": "http://wkrn.com/2015/10/26/metro-police-to-issue-tsu-shooting-update/",
    "feature_id": "1652484",
    "feature_name": "Nashville",
    "state_alpha": "TN",
    "county_name": "Davidson",
    "county_numeric": "037",
    "prim_lat_dec": "36.1659",
    "prim_long_dec": "-86.7844",
    "elev_in_m": "173",
    "elev_in_ft": "568",
    "lat": 36.1659,
    "long": -86.7844
  },
  {
    "globaleventid": "479141462",
    "sqldate": "20151026",
    "monthyear": "201510",
    "year": "2015",
    "fractiondate": "2015.811",
    "eventcode": "193",
    "quadclass": "4",
    "nummentions": "2",
    "numsources": "1",
    "numarticles": "2",
    "avgtone": "-2.97029702970297",
    "sourceurl": "https://www.prisonlegalnews.org/news/author/mark-binelli/",
    "feature_id": "531871",
    "feature_name": "Washington",
    "state_alpha": "DC",
    "county_name": "District of Columbia",
    "county_numeric": "001",
    "prim_lat_dec": "38.8951",
    "prim_long_dec": "-77.0364",
    "elev_in_m": "7",
    "elev_in_ft": "23",
    "lat": 38.8951,
    "long": -77.0364
  },
  {
    "globaleventid": "479141412",
    "sqldate": "20151026",
    "monthyear": "201510",
    "year": "2015",
    "fractiondate": "2015.811",
    "eventcode": "1243",
    "quadclass": "3",
    "nummentions": "10",
    "numsources": "1",
    "numarticles": "10",
    "avgtone": "-3.66972477064221",
    "sourceurl": "http://www.bigcountryhomepage.com/news/stolen-texas-dogs-to-remain-at-center",
    "feature_id": "1360020",
    "feature_name": "Iowa Park",
    "state_alpha": "TX",
    "county_name": "Wichita",
    "county_numeric": "485",
    "prim_lat_dec": "33.9515",
    "prim_long_dec": "-98.6687",
    "elev_in_m": "316",
    "elev_in_ft": "1037",
    "lat": 33.9515,
    "long": -98.6687
  },
  {
    "globaleventid": "479141411",
    "sqldate": "20151026",
    "monthyear": "201510",
    "year": "2015",
    "fractiondate": "2015.811",
    "eventcode": "120",
    "quadclass": "3",
    "nummentions": "4",
    "numsources": "1",
    "numarticles": "4",
    "avgtone": "-6.76100628930817",
    "sourceurl": "http://www.bradenton.com/latest-news/article41288637.html",
    "feature_id": "279311",
    "feature_name": "Bradenton",
    "state_alpha": "FL",
    "county_name": "Manatee",
    "county_numeric": "081",
    "prim_lat_dec": "27.4989",
    "prim_long_dec": "-82.5748",
    "elev_in_m": "1",
    "elev_in_ft": "3",
    "lat": 27.4989,
    "long": -82.5748
  },
  {
    "globaleventid": "479141352",
    "sqldate": "20151026",
    "monthyear": "201510",
    "year": "2015",
    "fractiondate": "2015.811",
    "eventcode": "110",
    "quadclass": "3",
    "nummentions": "1",
    "numsources": "1",
    "numarticles": "1",
    "avgtone": "-2.53890253890254",
    "sourceurl": "http://www.internationalpolicydigest.org/2011/08/01/h-g-wells-and-defending-the-restoration-doctrine/",
    "feature_id": "531871",
    "feature_name": "Washington",
    "state_alpha": "DC",
    "county_name": "District of Columbia",
    "county_numeric": "001",
    "prim_lat_dec": "38.8951",
    "prim_long_dec": "-77.0364",
    "elev_in_m": "7",
    "elev_in_ft": "23",
    "lat": 38.8951,
    "long": -77.0364
  },
  {
    "globaleventid": "479141324",
    "sqldate": "20151026",
    "monthyear": "201510",
    "year": "2015",
    "fractiondate": "2015.811",
    "eventcode": "112",
    "quadclass": "3",
    "nummentions": "4",
    "numsources": "1",
    "numarticles": "4",
    "avgtone": "-3.8",
    "sourceurl": "http://www.wptv.com/news/national/fbi-director-james-comey-blames-citizens-with-cameras-for-increase-in-violent-crime",
    "feature_id": "423587",
    "feature_name": "Chicago",
    "state_alpha": "IL",
    "county_name": "Cook",
    "county_numeric": "031",
    "prim_lat_dec": "41.85",
    "prim_long_dec": "-87.6501",
    "elev_in_m": "179",
    "elev_in_ft": "587",
    "lat": 41.85,
    "long": -87.6501
  },
  {
    "globaleventid": "479141306",
    "sqldate": "20151026",
    "monthyear": "201510",
    "year": "2015",
    "fractiondate": "2015.811",
    "eventcode": "173",
    "quadclass": "4",
    "nummentions": "4",
    "numsources": "1",
    "numarticles": "4",
    "avgtone": "-7.46812386156648",
    "sourceurl": "https://www.stgeorgeutah.com/news/archive/2015/10/26/mgk-man-pleads-guilty-fatal-auto-pedestrian/",
    "feature_id": "531871",
    "feature_name": "Washington",
    "state_alpha": "DC",
    "county_name": "District of Columbia",
    "county_numeric": "001",
    "prim_lat_dec": "38.8951",
    "prim_long_dec": "-77.0364",
    "elev_in_m": "7",
    "elev_in_ft": "23",
    "lat": 38.8951,
    "long": -77.0364
  },
  {
    "globaleventid": "479141305",
    "sqldate": "20151026",
    "monthyear": "201510",
    "year": "2015",
    "fractiondate": "2015.811",
    "eventcode": "173",
    "quadclass": "4",
    "nummentions": "12",
    "numsources": "3",
    "numarticles": "12",
    "avgtone": "-8.40420452618893",
    "sourceurl": "http://kimt.com/ap/utah-man-to-be-sentenced-in-thwarted-attempt-to-kidnap-girl/",
    "feature_id": "1454997",
    "feature_name": "Salt Lake City",
    "state_alpha": "UT",
    "county_name": "Salt Lake",
    "county_numeric": "035",
    "prim_lat_dec": "40.7608",
    "prim_long_dec": "-111.891",
    "elev_in_m": "1300",
    "elev_in_ft": "4265",
    "lat": 40.7608,
    "long": -111.891
  },
  {
    "globaleventid": "479141304",
    "sqldate": "20151026",
    "monthyear": "201510",
    "year": "2015",
    "fractiondate": "2015.811",
    "eventcode": "112",
    "quadclass": "3",
    "nummentions": "2",
    "numsources": "1",
    "numarticles": "2",
    "avgtone": "-5.34246575342466",
    "sourceurl": "http://www.bradenton.com/news/local/crime/article41460453.html",
    "feature_id": "288429",
    "feature_name": "Palmetto",
    "state_alpha": "FL",
    "county_name": "Manatee",
    "county_numeric": "081",
    "prim_lat_dec": "27.5214",
    "prim_long_dec": "-82.5723",
    "elev_in_m": "4",
    "elev_in_ft": "13",
    "lat": 27.5214,
    "long": -82.5723
  },
  {
    "globaleventid": "479141296",
    "sqldate": "20151026",
    "monthyear": "201510",
    "year": "2015",
    "fractiondate": "2015.811",
    "eventcode": "180",
    "quadclass": "4",
    "nummentions": "1",
    "numsources": "1",
    "numarticles": "1",
    "avgtone": "-9.6114519427403",
    "sourceurl": "http://www.nj.com/union/index.ssf/2015/10/plainfield_men_sentenced_for_sexual_assault_of_men.html",
    "feature_id": "878762",
    "feature_name": "Newark",
    "state_alpha": "NJ",
    "county_name": "Essex",
    "county_numeric": "013",
    "prim_lat_dec": "40.7357",
    "prim_long_dec": "-74.1724",
    "elev_in_m": "10",
    "elev_in_ft": "33",
    "lat": 40.7357,
    "long": -74.1724
  },
  {
    "globaleventid": "479141295",
    "sqldate": "20151026",
    "monthyear": "201510",
    "year": "2015",
    "fractiondate": "2015.811",
    "eventcode": "180",
    "quadclass": "4",
    "nummentions": "2",
    "numsources": "1",
    "numarticles": "2",
    "avgtone": "-9.6114519427403",
    "sourceurl": "http://www.nj.com/union/index.ssf/2015/10/plainfield_men_sentenced_for_sexual_assault_of_men.html",
    "feature_id": "879338",
    "feature_name": "Plainfield",
    "state_alpha": "NJ",
    "county_name": "Union",
    "county_numeric": "039",
    "prim_lat_dec": "40.6337",
    "prim_long_dec": "-74.4074",
    "elev_in_m": "36",
    "elev_in_ft": "118",
    "lat": 40.6337,
    "long": -74.4074
  },
  {
    "globaleventid": "479141290",
    "sqldate": "20151026",
    "monthyear": "201510",
    "year": "2015",
    "fractiondate": "2015.811",
    "eventcode": "114",
    "quadclass": "3",
    "nummentions": "2",
    "numsources": "1",
    "numarticles": "2",
    "avgtone": "-3.36787564766839",
    "sourceurl": "http://www.galesburg.com/article/20151026/NEWS/151029843",
    "feature_id": "458840",
    "feature_name": "Mason City",
    "state_alpha": "IA",
    "county_name": "Cerro Gordo",
    "county_numeric": "033",
    "prim_lat_dec": "43.1536",
    "prim_long_dec": "-93.201",
    "elev_in_m": "345",
    "elev_in_ft": "1132",
    "lat": 43.1536,
    "long": -93.201
  },
  {
    "globaleventid": "479141070",
    "sqldate": "20151026",
    "monthyear": "201510",
    "year": "2015",
    "fractiondate": "2015.811",
    "eventcode": "111",
    "quadclass": "3",
    "nummentions": "4",
    "numsources": "2",
    "numarticles": "4",
    "avgtone": "0.281294508624785",
    "sourceurl": "http://www.nytimes.com/politics/first-draft/2015/10/26/kinder-gentler-kibitzers-jeb-bush-and-george-w-swap-stories-and-praise/",
    "feature_id": "1380948",
    "feature_name": "Houston",
    "state_alpha": "TX",
    "county_name": "Harris",
    "county_numeric": "201",
    "prim_lat_dec": "29.7633",
    "prim_long_dec": "-95.3633",
    "elev_in_m": "11",
    "elev_in_ft": "36",
    "lat": 29.7633,
    "long": -95.3633
  },
  {
    "globaleventid": "479140588",
    "sqldate": "20151026",
    "monthyear": "201510",
    "year": "2015",
    "fractiondate": "2015.811",
    "eventcode": "120",
    "quadclass": "3",
    "nummentions": "10",
    "numsources": "1",
    "numarticles": "10",
    "avgtone": "-2.53890253890254",
    "sourceurl": "http://www.internationalpolicydigest.org/2011/08/01/h-g-wells-and-defending-the-restoration-doctrine/",
    "feature_id": "531871",
    "feature_name": "Washington",
    "state_alpha": "DC",
    "county_name": "District of Columbia",
    "county_numeric": "001",
    "prim_lat_dec": "38.8951",
    "prim_long_dec": "-77.0364",
    "elev_in_m": "7",
    "elev_in_ft": "23",
    "lat": 38.8951,
    "long": -77.0364
  },
  {
    "globaleventid": "479140572",
    "sqldate": "20151026",
    "monthyear": "201510",
    "year": "2015",
    "fractiondate": "2015.811",
    "eventcode": "190",
    "quadclass": "4",
    "nummentions": "5",
    "numsources": "1",
    "numarticles": "5",
    "avgtone": "2.91262135922331",
    "sourceurl": "http://www.navy.mil/submit/display.asp?story_id=91723",
    "feature_id": "1661377",
    "feature_name": "San Diego",
    "state_alpha": "CA",
    "county_name": "San Diego",
    "county_numeric": "073",
    "prim_lat_dec": "32.7153",
    "prim_long_dec": "-117.157",
    "elev_in_m": "19",
    "elev_in_ft": "62",
    "lat": 32.7153,
    "long": -117.157
  },
  {
    "globaleventid": "479140547",
    "sqldate": "20151026",
    "monthyear": "201510",
    "year": "2015",
    "fractiondate": "2015.811",
    "eventcode": "138",
    "quadclass": "3",
    "nummentions": "2",
    "numsources": "1",
    "numarticles": "2",
    "avgtone": "-12.1673003802281",
    "sourceurl": "http://www.nbcdfw.com/news/local/Dallas-Police-Release-Probable-Cause-Affidavit-in-Zoe-Hastings-Murder-Case-337151351.html",
    "feature_id": "1369752",
    "feature_name": "Texarkana",
    "state_alpha": "TX",
    "county_name": "Bowie",
    "county_numeric": "037",
    "prim_lat_dec": "33.4251",
    "prim_long_dec": "-94.0477",
    "elev_in_m": "91",
    "elev_in_ft": "299",
    "lat": 33.4251,
    "long": -94.0477
  },
  {
    "globaleventid": "479140543",
    "sqldate": "20151026",
    "monthyear": "201510",
    "year": "2015",
    "fractiondate": "2015.811",
    "eventcode": "120",
    "quadclass": "3",
    "nummentions": "8",
    "numsources": "1",
    "numarticles": "8",
    "avgtone": "-2.53890253890254",
    "sourceurl": "http://www.internationalpolicydigest.org/2011/08/01/h-g-wells-and-defending-the-restoration-doctrine/",
    "feature_id": "531871",
    "feature_name": "Washington",
    "state_alpha": "DC",
    "county_name": "District of Columbia",
    "county_numeric": "001",
    "prim_lat_dec": "38.8951",
    "prim_long_dec": "-77.0364",
    "elev_in_m": "7",
    "elev_in_ft": "23",
    "lat": 38.8951,
    "long": -77.0364
  },
  {
    "globaleventid": "479140438",
    "sqldate": "20151026",
    "monthyear": "201510",
    "year": "2015",
    "fractiondate": "2015.811",
    "eventcode": "190",
    "quadclass": "4",
    "nummentions": "2",
    "numsources": "1",
    "numarticles": "2",
    "avgtone": "-1.58394931362197",
    "sourceurl": "http://www.aim.org/aim-column/the-vindication-of-reed-irvine/",
    "feature_id": "531871",
    "feature_name": "Washington",
    "state_alpha": "DC",
    "county_name": "District of Columbia",
    "county_numeric": "001",
    "prim_lat_dec": "38.8951",
    "prim_long_dec": "-77.0364",
    "elev_in_m": "7",
    "elev_in_ft": "23",
    "lat": 38.8951,
    "long": -77.0364
  },
  {
    "globaleventid": "479140401",
    "sqldate": "20151026",
    "monthyear": "201510",
    "year": "2015",
    "fractiondate": "2015.811",
    "eventcode": "173",
    "quadclass": "4",
    "nummentions": "2",
    "numsources": "1",
    "numarticles": "2",
    "avgtone": "-9.6114519427403",
    "sourceurl": "http://www.nj.com/union/index.ssf/2015/10/plainfield_men_sentenced_for_sexual_assault_of_men.html",
    "feature_id": "879335",
    "feature_name": "Piscataway",
    "state_alpha": "NJ",
    "county_name": "Middlesex",
    "county_numeric": "023",
    "prim_lat_dec": "40.4993",
    "prim_long_dec": "-74.399",
    "elev_in_m": "30",
    "elev_in_ft": "98",
    "lat": 40.4993,
    "long": -74.399
  },
  {
    "globaleventid": "479140397",
    "sqldate": "20151026",
    "monthyear": "201510",
    "year": "2015",
    "fractiondate": "2015.811",
    "eventcode": "180",
    "quadclass": "4",
    "nummentions": "76",
    "numsources": "19",
    "numarticles": "76",
    "avgtone": "-10.0763200007825",
    "sourceurl": "http://www.startribune.com/mistrial-for-school-exec-hired-after-sex-abuse-charges/337239951/",
    "feature_id": "201738",
    "feature_name": "Denver",
    "state_alpha": "CO",
    "county_name": "Denver",
    "county_numeric": "031",
    "prim_lat_dec": "39.7392",
    "prim_long_dec": "-104.985",
    "elev_in_m": "1609",
    "elev_in_ft": "5279",
    "lat": 39.7392,
    "long": -104.985
  },
  {
    "globaleventid": "479140391",
    "sqldate": "20151026",
    "monthyear": "201510",
    "year": "2015",
    "fractiondate": "2015.811",
    "eventcode": "173",
    "quadclass": "4",
    "nummentions": "8",
    "numsources": "1",
    "numarticles": "8",
    "avgtone": "-7.03125",
    "sourceurl": "http://www.KOB.com/article/stories/S3945142.shtml?cat=500",
    "feature_id": "928679",
    "feature_name": "Albuquerque",
    "state_alpha": "NM",
    "county_name": "Bernalillo",
    "county_numeric": "001",
    "prim_lat_dec": "35.0845",
    "prim_long_dec": "-106.651",
    "elev_in_m": "1510",
    "elev_in_ft": "4954",
    "lat": 35.0845,
    "long": -106.651
  },
  {
    "globaleventid": "479140388",
    "sqldate": "20151026",
    "monthyear": "201510",
    "year": "2015",
    "fractiondate": "2015.811",
    "eventcode": "173",
    "quadclass": "4",
    "nummentions": "12",
    "numsources": "2",
    "numarticles": "12",
    "avgtone": "-9.1475938967136",
    "sourceurl": "http://www.KOB.com/article/stories/S3945142.shtml?cat=500",
    "feature_id": "1380948",
    "feature_name": "Houston",
    "state_alpha": "TX",
    "county_name": "Harris",
    "county_numeric": "201",
    "prim_lat_dec": "29.7633",
    "prim_long_dec": "-95.3633",
    "elev_in_m": "11",
    "elev_in_ft": "36",
    "lat": 29.7633,
    "long": -95.3633
  },
  {
    "globaleventid": "479140386",
    "sqldate": "20151026",
    "monthyear": "201510",
    "year": "2015",
    "fractiondate": "2015.811",
    "eventcode": "173",
    "quadclass": "4",
    "nummentions": "1",
    "numsources": "1",
    "numarticles": "1",
    "avgtone": "-12.0845921450151",
    "sourceurl": "http://news.yahoo.com/mexican-drug-cartel-members-convicted-kidnapping-south-carolina-205420162.html",
    "feature_id": "1221516",
    "feature_name": "Charleston",
    "state_alpha": "SC",
    "county_name": "Charleston",
    "county_numeric": "019",
    "prim_lat_dec": "32.7766",
    "prim_long_dec": "-79.9309",
    "elev_in_m": "3",
    "elev_in_ft": "10",
    "lat": 32.7766,
    "long": -79.9309
  },
  {
    "globaleventid": "479140383",
    "sqldate": "20151026",
    "monthyear": "201510",
    "year": "2015",
    "fractiondate": "2015.811",
    "eventcode": "112",
    "quadclass": "3",
    "nummentions": "16",
    "numsources": "1",
    "numarticles": "16",
    "avgtone": "-7.03125",
    "sourceurl": "http://www.KOB.com/article/stories/S3945142.shtml?cat=500",
    "feature_id": "928679",
    "feature_name": "Albuquerque",
    "state_alpha": "NM",
    "county_name": "Bernalillo",
    "county_numeric": "001",
    "prim_lat_dec": "35.0845",
    "prim_long_dec": "-106.651",
    "elev_in_m": "1510",
    "elev_in_ft": "4954",
    "lat": 35.0845,
    "long": -106.651
  },
  {
    "globaleventid": "479140373",
    "sqldate": "20151026",
    "monthyear": "201510",
    "year": "2015",
    "fractiondate": "2015.811",
    "eventcode": "173",
    "quadclass": "4",
    "nummentions": "2",
    "numsources": "2",
    "numarticles": "2",
    "avgtone": "-6.35724043715847",
    "sourceurl": "http://www.phillyvoice.com/bail-set-at-1-million-for-oklahoma-woman/",
    "feature_id": "1098541",
    "feature_name": "Stillwater",
    "state_alpha": "OK",
    "county_name": "Payne",
    "county_numeric": "119",
    "prim_lat_dec": "36.1156",
    "prim_long_dec": "-97.0584",
    "elev_in_m": "273",
    "elev_in_ft": "896",
    "lat": 36.1156,
    "long": -97.0584
  },
  {
    "globaleventid": "479140372",
    "sqldate": "20151026",
    "monthyear": "201510",
    "year": "2015",
    "fractiondate": "2015.811",
    "eventcode": "112",
    "quadclass": "3",
    "nummentions": "25",
    "numsources": "7",
    "numarticles": "25",
    "avgtone": "-7.0482839627431",
    "sourceurl": "http://www.phillyvoice.com/bail-set-at-1-million-for-oklahoma-woman/",
    "feature_id": "1098541",
    "feature_name": "Stillwater",
    "state_alpha": "OK",
    "county_name": "Payne",
    "county_numeric": "119",
    "prim_lat_dec": "36.1156",
    "prim_long_dec": "-97.0584",
    "elev_in_m": "273",
    "elev_in_ft": "896",
    "lat": 36.1156,
    "long": -97.0584
  },
  {
    "globaleventid": "479140353",
    "sqldate": "20151026",
    "monthyear": "201510",
    "year": "2015",
    "fractiondate": "2015.811",
    "eventcode": "193",
    "quadclass": "4",
    "nummentions": "1",
    "numsources": "1",
    "numarticles": "1",
    "avgtone": "-15.5555555555555",
    "sourceurl": "http://www.pressdemocrat.com/news/4665939-181/arraignment-postponed-for-trio-suspected",
    "feature_id": "1136645",
    "feature_name": "Portland",
    "state_alpha": "OR",
    "county_name": "Multnomah",
    "county_numeric": "051",
    "prim_lat_dec": "45.5235",
    "prim_long_dec": "-122.676",
    "elev_in_m": "10",
    "elev_in_ft": "33",
    "lat": 45.5235,
    "long": -122.676
  },
  {
    "globaleventid": "479140277",
    "sqldate": "20151026",
    "monthyear": "201510",
    "year": "2015",
    "fractiondate": "2015.811",
    "eventcode": "110",
    "quadclass": "3",
    "nummentions": "2",
    "numsources": "1",
    "numarticles": "2",
    "avgtone": "-0.6482982171799",
    "sourceurl": "http://jpupdates.com/2015/10/26/board-of-regents-chancellor-merryl-tisch-to-step-down/",
    "feature_id": "962156",
    "feature_name": "Ramapo",
    "state_alpha": "NY",
    "county_name": "Rockland",
    "county_numeric": "087",
    "prim_lat_dec": "41.1412",
    "prim_long_dec": "-74.1685",
    "elev_in_m": "101",
    "elev_in_ft": "331",
    "lat": 41.1412,
    "long": -74.1685
  },
  {
    "globaleventid": "479140276",
    "sqldate": "20151026",
    "monthyear": "201510",
    "year": "2015",
    "fractiondate": "2015.811",
    "eventcode": "110",
    "quadclass": "3",
    "nummentions": "2",
    "numsources": "1",
    "numarticles": "2",
    "avgtone": "-0.6482982171799",
    "sourceurl": "http://jpupdates.com/2015/10/26/board-of-regents-chancellor-merryl-tisch-to-step-down/",
    "feature_id": "962156",
    "feature_name": "Ramapo",
    "state_alpha": "NY",
    "county_name": "Rockland",
    "county_numeric": "087",
    "prim_lat_dec": "41.1412",
    "prim_long_dec": "-74.1685",
    "elev_in_m": "101",
    "elev_in_ft": "331",
    "lat": 41.1412,
    "long": -74.1685
  },
  {
    "globaleventid": "479140275",
    "sqldate": "20151026",
    "monthyear": "201510",
    "year": "2015",
    "fractiondate": "2015.811",
    "eventcode": "110",
    "quadclass": "3",
    "nummentions": "4",
    "numsources": "1",
    "numarticles": "4",
    "avgtone": "-0.6482982171799",
    "sourceurl": "http://jpupdates.com/2015/10/26/board-of-regents-chancellor-merryl-tisch-to-step-down/",
    "feature_id": "962156",
    "feature_name": "Ramapo",
    "state_alpha": "NY",
    "county_name": "Rockland",
    "county_numeric": "087",
    "prim_lat_dec": "41.1412",
    "prim_long_dec": "-74.1685",
    "elev_in_m": "101",
    "elev_in_ft": "331",
    "lat": 41.1412,
    "long": -74.1685
  },
  {
    "globaleventid": "479140271",
    "sqldate": "20151026",
    "monthyear": "201510",
    "year": "2015",
    "fractiondate": "2015.811",
    "eventcode": "110",
    "quadclass": "3",
    "nummentions": "2",
    "numsources": "1",
    "numarticles": "2",
    "avgtone": "-0.6482982171799",
    "sourceurl": "http://jpupdates.com/2015/10/26/board-of-regents-chancellor-merryl-tisch-to-step-down/",
    "feature_id": "962156",
    "feature_name": "Ramapo",
    "state_alpha": "NY",
    "county_name": "Rockland",
    "county_numeric": "087",
    "prim_lat_dec": "41.1412",
    "prim_long_dec": "-74.1685",
    "elev_in_m": "101",
    "elev_in_ft": "331",
    "lat": 41.1412,
    "long": -74.1685
  },
  {
    "globaleventid": "479140150",
    "sqldate": "20151026",
    "monthyear": "201510",
    "year": "2015",
    "fractiondate": "2015.811",
    "eventcode": "190",
    "quadclass": "4",
    "nummentions": "10",
    "numsources": "5",
    "numarticles": "10",
    "avgtone": "-5.25830420913828",
    "sourceurl": "http://www.wtol.com/story/30353348/son-of-state-education-chief-dies-in-car-crash-in-waterford",
    "feature_id": "624432",
    "feature_name": "Dearborn",
    "state_alpha": "MI",
    "county_name": "Wayne",
    "county_numeric": "163",
    "prim_lat_dec": "42.3223",
    "prim_long_dec": "-83.1763",
    "elev_in_m": "180",
    "elev_in_ft": "591",
    "lat": 42.3223,
    "long": -83.1763
  },
  {
    "globaleventid": "479140144",
    "sqldate": "20151026",
    "monthyear": "201510",
    "year": "2015",
    "fractiondate": "2015.811",
    "eventcode": "190",
    "quadclass": "4",
    "nummentions": "30",
    "numsources": "5",
    "numarticles": "30",
    "avgtone": "-5.25830420913828",
    "sourceurl": "http://www.wtol.com/story/30353348/son-of-state-education-chief-dies-in-car-crash-in-waterford",
    "feature_id": "624432",
    "feature_name": "Dearborn",
    "state_alpha": "MI",
    "county_name": "Wayne",
    "county_numeric": "163",
    "prim_lat_dec": "42.3223",
    "prim_long_dec": "-83.1763",
    "elev_in_m": "180",
    "elev_in_ft": "591",
    "lat": 42.3223,
    "long": -83.1763
  },
  {
    "globaleventid": "479139974",
    "sqldate": "20151026",
    "monthyear": "201510",
    "year": "2015",
    "fractiondate": "2015.811",
    "eventcode": "173",
    "quadclass": "4",
    "nummentions": "10",
    "numsources": "1",
    "numarticles": "10",
    "avgtone": "-4.16666666666667",
    "sourceurl": "http://www.therepublic.com/view/story/2e4e14131f374941a5d0e3aacdc98d43/MI--Muslim-School-Michigan",
    "feature_id": "620133",
    "feature_name": "Ann Arbor",
    "state_alpha": "MI",
    "county_name": "Washtenaw",
    "county_numeric": "161",
    "prim_lat_dec": "42.2709",
    "prim_long_dec": "-83.7263",
    "elev_in_m": "268",
    "elev_in_ft": "879",
    "lat": 42.2709,
    "long": -83.7263
  },
  {
    "globaleventid": "479139973",
    "sqldate": "20151026",
    "monthyear": "201510",
    "year": "2015",
    "fractiondate": "2015.811",
    "eventcode": "173",
    "quadclass": "4",
    "nummentions": "4",
    "numsources": "1",
    "numarticles": "4",
    "avgtone": "-4.59770114942529",
    "sourceurl": "http://www.contracostatimes.com/breaking-news/ci_29015038/san-mateo-oakland-women-arrested-prolific-rash-auto",
    "feature_id": "277566",
    "feature_name": "Oakland",
    "state_alpha": "CA",
    "county_name": "Alameda",
    "county_numeric": "001",
    "prim_lat_dec": "37.8044",
    "prim_long_dec": "-122.271",
    "elev_in_m": "13",
    "elev_in_ft": "43",
    "lat": 37.8044,
    "long": -122.271
  },
  {
    "globaleventid": "479139971",
    "sqldate": "20151026",
    "monthyear": "201510",
    "year": "2015",
    "fractiondate": "2015.811",
    "eventcode": "173",
    "quadclass": "4",
    "nummentions": "1",
    "numsources": "1",
    "numarticles": "1",
    "avgtone": "-12.0845921450151",
    "sourceurl": "http://news.yahoo.com/mexican-drug-cartel-members-convicted-kidnapping-south-carolina-205420162.html",
    "feature_id": "1221516",
    "feature_name": "Charleston",
    "state_alpha": "SC",
    "county_name": "Charleston",
    "county_numeric": "019",
    "prim_lat_dec": "32.7766",
    "prim_long_dec": "-79.9309",
    "elev_in_m": "3",
    "elev_in_ft": "10",
    "lat": 32.7766,
    "long": -79.9309
  },
  {
    "globaleventid": "479139813",
    "sqldate": "20151026",
    "monthyear": "201510",
    "year": "2015",
    "fractiondate": "2015.811",
    "eventcode": "190",
    "quadclass": "4",
    "nummentions": "4",
    "numsources": "1",
    "numarticles": "4",
    "avgtone": "-1.74311926605504",
    "sourceurl": "http://www.flickeringmyth.com/2015/10/51st-chicago-international-film-festival-review-macbeth-2015.html",
    "feature_id": "423587",
    "feature_name": "Chicago",
    "state_alpha": "IL",
    "county_name": "Cook",
    "county_numeric": "031",
    "prim_lat_dec": "41.85",
    "prim_long_dec": "-87.6501",
    "elev_in_m": "179",
    "elev_in_ft": "587",
    "lat": 41.85,
    "long": -87.6501
  },
  {
    "globaleventid": "479139694",
    "sqldate": "20151026",
    "monthyear": "201510",
    "year": "2015",
    "fractiondate": "2015.811",
    "eventcode": "120",
    "quadclass": "3",
    "nummentions": "8",
    "numsources": "1",
    "numarticles": "8",
    "avgtone": "-2.53890253890254",
    "sourceurl": "http://www.internationalpolicydigest.org/2011/08/01/h-g-wells-and-defending-the-restoration-doctrine/",
    "feature_id": "531871",
    "feature_name": "Washington",
    "state_alpha": "DC",
    "county_name": "District of Columbia",
    "county_numeric": "001",
    "prim_lat_dec": "38.8951",
    "prim_long_dec": "-77.0364",
    "elev_in_m": "7",
    "elev_in_ft": "23",
    "lat": 38.8951,
    "long": -77.0364
  },
  {
    "globaleventid": "479139523",
    "sqldate": "20151026",
    "monthyear": "201510",
    "year": "2015",
    "fractiondate": "2015.811",
    "eventcode": "173",
    "quadclass": "4",
    "nummentions": "6",
    "numsources": "1",
    "numarticles": "6",
    "avgtone": "-7.46812386156648",
    "sourceurl": "https://www.stgeorgeutah.com/news/archive/2015/10/26/mgk-man-pleads-guilty-fatal-auto-pedestrian/",
    "feature_id": "531871",
    "feature_name": "Washington",
    "state_alpha": "DC",
    "county_name": "District of Columbia",
    "county_numeric": "001",
    "prim_lat_dec": "38.8951",
    "prim_long_dec": "-77.0364",
    "elev_in_m": "7",
    "elev_in_ft": "23",
    "lat": 38.8951,
    "long": -77.0364
  },
  {
    "globaleventid": "479139502",
    "sqldate": "20151026",
    "monthyear": "201510",
    "year": "2015",
    "fractiondate": "2015.811",
    "eventcode": "193",
    "quadclass": "4",
    "nummentions": "4",
    "numsources": "1",
    "numarticles": "4",
    "avgtone": "-6.52173913043478",
    "sourceurl": "http://www.theguardian.com/us-news/2015/oct/26/boy-shot-washington-us-military-joint-base-lewis-mcchord-dies",
    "feature_id": "531871",
    "feature_name": "Washington",
    "state_alpha": "DC",
    "county_name": "District of Columbia",
    "county_numeric": "001",
    "prim_lat_dec": "38.8951",
    "prim_long_dec": "-77.0364",
    "elev_in_m": "7",
    "elev_in_ft": "23",
    "lat": 38.8951,
    "long": -77.0364
  },
  {
    "globaleventid": "479139490",
    "sqldate": "20151026",
    "monthyear": "201510",
    "year": "2015",
    "fractiondate": "2015.811",
    "eventcode": "173",
    "quadclass": "4",
    "nummentions": "4",
    "numsources": "1",
    "numarticles": "4",
    "avgtone": "-3.36787564766839",
    "sourceurl": "http://www.galesburg.com/article/20151026/NEWS/151029843",
    "feature_id": "458840",
    "feature_name": "Mason City",
    "state_alpha": "IA",
    "county_name": "Cerro Gordo",
    "county_numeric": "033",
    "prim_lat_dec": "43.1536",
    "prim_long_dec": "-93.201",
    "elev_in_m": "345",
    "elev_in_ft": "1132",
    "lat": 43.1536,
    "long": -93.201
  },
  {
    "globaleventid": "479139304",
    "sqldate": "20151026",
    "monthyear": "201510",
    "year": "2015",
    "fractiondate": "2015.811",
    "eventcode": "190",
    "quadclass": "4",
    "nummentions": "28",
    "numsources": "7",
    "numarticles": "28",
    "avgtone": "-11.9765679640977",
    "sourceurl": "http://www.wtol.com/story/30354538/life-sentence-for-man-in-fatal-shootings-of-2-brothers",
    "feature_id": "620017",
    "feature_name": "Alpena",
    "state_alpha": "MI",
    "county_name": "Alpena",
    "county_numeric": "007",
    "prim_lat_dec": "45.0617",
    "prim_long_dec": "-83.4328",
    "elev_in_m": "180",
    "elev_in_ft": "591",
    "lat": 45.0617,
    "long": -83.4328
  },
  {
    "globaleventid": "479139302",
    "sqldate": "20151026",
    "monthyear": "201510",
    "year": "2015",
    "fractiondate": "2015.811",
    "eventcode": "120",
    "quadclass": "3",
    "nummentions": "2",
    "numsources": "1",
    "numarticles": "2",
    "avgtone": "-4.69043151969981",
    "sourceurl": "http://www.sacbee.com/news/local/article41475309.html",
    "feature_id": "1659564",
    "feature_name": "Sacramento",
    "state_alpha": "CA",
    "county_name": "Sacramento",
    "county_numeric": "067",
    "prim_lat_dec": "38.5816",
    "prim_long_dec": "-121.494",
    "elev_in_m": "8",
    "elev_in_ft": "26",
    "lat": 38.5816,
    "long": -121.494
  },
  {
    "globaleventid": "479139301",
    "sqldate": "20151026",
    "monthyear": "201510",
    "year": "2015",
    "fractiondate": "2015.811",
    "eventcode": "112",
    "quadclass": "3",
    "nummentions": "28",
    "numsources": "7",
    "numarticles": "28",
    "avgtone": "-11.9765679640977",
    "sourceurl": "http://www.wtol.com/story/30354538/life-sentence-for-man-in-fatal-shootings-of-2-brothers",
    "feature_id": "620017",
    "feature_name": "Alpena",
    "state_alpha": "MI",
    "county_name": "Alpena",
    "county_numeric": "007",
    "prim_lat_dec": "45.0617",
    "prim_long_dec": "-83.4328",
    "elev_in_m": "180",
    "elev_in_ft": "591",
    "lat": 45.0617,
    "long": -83.4328
  }
]