[
  {
    "globaleventid": "473715600",
    "sqldate": "20151007",
    "monthyear": "201510",
    "year": "2015",
    "fractiondate": "2015.7589",
    "eventcode": "180",
    "quadclass": "4",
    "nummentions": "4",
    "numsources": "2",
    "numarticles": "4",
    "avgtone": "-2.57731958762887",
    "sourceurl": "http://www.tulsaworld.com/scene/ap/model-sues-bill-cosby-over-alleged-sexual-assault/article_c4bf5b2a-1d3f-5547-80b8-00bbc4b4ca94.html",
    "feature_id": "531871",
    "feature_name": "Washington",
    "state_alpha": "DC",
    "county_name": "District of Columbia",
    "county_numeric": "001",
    "prim_lat_dec": "38.8951",
    "prim_long_dec": "-77.0364",
    "elev_in_m": "7",
    "elev_in_ft": "23",
    "lat": 38.8951,
    "long": -77.0364
  },
  {
    "globaleventid": "473715664",
    "sqldate": "20151007",
    "monthyear": "201510",
    "year": "2015",
    "fractiondate": "2015.7589",
    "eventcode": "110",
    "quadclass": "3",
    "nummentions": "1",
    "numsources": "1",
    "numarticles": "1",
    "avgtone": "2.3936170212766",
    "sourceurl": "http://www.columbiabasinherald.com/news/school_news/american-legion-auxiliary-sponsors-essay-contest/article_7492f8ac-6c73-11e5-abda-b3dceff6cca2.html",
    "feature_id": "1512192",
    "feature_name": "Ephrata",
    "state_alpha": "WA",
    "county_name": "Grant",
    "county_numeric": "025",
    "prim_lat_dec": "47.3176",
    "prim_long_dec": "-119.554",
    "elev_in_m": "389",
    "elev_in_ft": "1276",
    "lat": 47.3176,
    "long": -119.554
  },
  {
    "globaleventid": "473715633",
    "sqldate": "20151007",
    "monthyear": "201510",
    "year": "2015",
    "fractiondate": "2015.7589",
    "eventcode": "141",
    "quadclass": "3",
    "nummentions": "3",
    "numsources": "1",
    "numarticles": "3",
    "avgtone": "-7.43494423791822",
    "sourceurl": "http://www.breitbart.com/big-government/2015/10/06/12-black-lives-matter-protesters-arrested-hartford-murder-rate-spikes/",
    "feature_id": "211952",
    "feature_name": "West Hartford",
    "state_alpha": "CT",
    "county_name": "Hartford",
    "county_numeric": "003",
    "prim_lat_dec": "41.762",
    "prim_long_dec": "-72.742",
    "elev_in_m": "39",
    "elev_in_ft": "128",
    "lat": 41.762,
    "long": -72.742
  },
  {
    "globaleventid": "473714739",
    "sqldate": "20151007",
    "monthyear": "201510",
    "year": "2015",
    "fractiondate": "2015.7589",
    "eventcode": "190",
    "quadclass": "4",
    "nummentions": "8",
    "numsources": "1",
    "numarticles": "8",
    "avgtone": "1.1743450767841",
    "sourceurl": "http://www.telegram.com/article/20151005/NEWS/151009523/3818/FRONTPAGE",
    "feature_id": "413396",
    "feature_name": "Mendon",
    "state_alpha": "IL",
    "county_name": "Adams",
    "county_numeric": "001",
    "prim_lat_dec": "40.0884",
    "prim_long_dec": "-91.2838",
    "elev_in_m": "232",
    "elev_in_ft": "761",
    "lat": 40.0884,
    "long": -91.2838
  },
  {
    "globaleventid": "473714737",
    "sqldate": "20151007",
    "monthyear": "201510",
    "year": "2015",
    "fractiondate": "2015.7589",
    "eventcode": "173",
    "quadclass": "4",
    "nummentions": "4",
    "numsources": "1",
    "numarticles": "4",
    "avgtone": "1.1743450767841",
    "sourceurl": "http://www.telegram.com/article/20151005/NEWS/151009523/3818/FRONTPAGE",
    "feature_id": "413396",
    "feature_name": "Mendon",
    "state_alpha": "IL",
    "county_name": "Adams",
    "county_numeric": "001",
    "prim_lat_dec": "40.0884",
    "prim_long_dec": "-91.2838",
    "elev_in_m": "232",
    "elev_in_ft": "761",
    "lat": 40.0884,
    "long": -91.2838
  },
  {
    "globaleventid": "473714625",
    "sqldate": "20151007",
    "monthyear": "201510",
    "year": "2015",
    "fractiondate": "2015.7589",
    "eventcode": "190",
    "quadclass": "4",
    "nummentions": "2",
    "numsources": "1",
    "numarticles": "2",
    "avgtone": "-9.22190201729103",
    "sourceurl": "http://www.kptv.com/story/30202631/teen-accused-of-killing-great-grandmother-found-guilty-of-manslaughter",
    "feature_id": "1118757",
    "feature_name": "Cedar Mill",
    "state_alpha": "OR",
    "county_name": "Washington",
    "county_numeric": "067",
    "prim_lat_dec": "45.5248",
    "prim_long_dec": "-122.811",
    "elev_in_m": "79",
    "elev_in_ft": "259",
    "lat": 45.5248,
    "long": -122.811
  },
  {
    "globaleventid": "473714624",
    "sqldate": "20151007",
    "monthyear": "201510",
    "year": "2015",
    "fractiondate": "2015.7589",
    "eventcode": "190",
    "quadclass": "4",
    "nummentions": "6",
    "numsources": "1",
    "numarticles": "6",
    "avgtone": "-9.22190201729103",
    "sourceurl": "http://www.kptv.com/story/30202631/teen-accused-of-killing-great-grandmother-found-guilty-of-manslaughter",
    "feature_id": "1118757",
    "feature_name": "Cedar Mill",
    "state_alpha": "OR",
    "county_name": "Washington",
    "county_numeric": "067",
    "prim_lat_dec": "45.5248",
    "prim_long_dec": "-122.811",
    "elev_in_m": "79",
    "elev_in_ft": "259",
    "lat": 45.5248,
    "long": -122.811
  },
  {
    "globaleventid": "473714623",
    "sqldate": "20151007",
    "monthyear": "201510",
    "year": "2015",
    "fractiondate": "2015.7589",
    "eventcode": "173",
    "quadclass": "4",
    "nummentions": "2",
    "numsources": "1",
    "numarticles": "2",
    "avgtone": "-8.38709677419355",
    "sourceurl": "http://local12.com/news/features/top-stories/stories/Personal-assistant-charged-with-stealing-Former-Red-Arroyo-39-s-yacht-215417.shtml",
    "feature_id": "292005",
    "feature_name": "Tampa",
    "state_alpha": "FL",
    "county_name": "Hillsborough",
    "county_numeric": "057",
    "prim_lat_dec": "27.9475",
    "prim_long_dec": "-82.4584",
    "elev_in_m": "5",
    "elev_in_ft": "16",
    "lat": 27.9475,
    "long": -82.4584
  },
  {
    "globaleventid": "473714621",
    "sqldate": "20151007",
    "monthyear": "201510",
    "year": "2015",
    "fractiondate": "2015.7589",
    "eventcode": "173",
    "quadclass": "4",
    "nummentions": "4",
    "numsources": "1",
    "numarticles": "4",
    "avgtone": "-9.9099099099099",
    "sourceurl": "http://www.kgwn.tv/news/wyoming/headlines/Boulder-Man-Gets-Probation-In-Fossil-Importation-Case-330983312.html",
    "feature_id": "1609077",
    "feature_name": "Cheyenne",
    "state_alpha": "WY",
    "county_name": "Laramie",
    "county_numeric": "021",
    "prim_lat_dec": "41.14",
    "prim_long_dec": "-104.82",
    "elev_in_m": "1855",
    "elev_in_ft": "6086",
    "lat": 41.14,
    "long": -104.82
  },
  {
    "globaleventid": "473714620",
    "sqldate": "20151007",
    "monthyear": "201510",
    "year": "2015",
    "fractiondate": "2015.7589",
    "eventcode": "173",
    "quadclass": "4",
    "nummentions": "2",
    "numsources": "1",
    "numarticles": "2",
    "avgtone": "-10.8024691358025",
    "sourceurl": "http://www.al.com/news/montgomery/index.ssf/2015/10/alabama_man_gets_16_years_for.html",
    "feature_id": "153643",
    "feature_name": "Tallassee",
    "state_alpha": "AL",
    "county_name": "Elmore",
    "county_numeric": "051",
    "prim_lat_dec": "32.536",
    "prim_long_dec": "-85.8933",
    "elev_in_m": "119",
    "elev_in_ft": "390",
    "lat": 32.536,
    "long": -85.8933
  },
  {
    "globaleventid": "473714619",
    "sqldate": "20151007",
    "monthyear": "201510",
    "year": "2015",
    "fractiondate": "2015.7589",
    "eventcode": "173",
    "quadclass": "4",
    "nummentions": "4",
    "numsources": "1",
    "numarticles": "4",
    "avgtone": "-9.22190201729103",
    "sourceurl": "http://www.kptv.com/story/30202631/teen-accused-of-killing-great-grandmother-found-guilty-of-manslaughter",
    "feature_id": "1118757",
    "feature_name": "Cedar Mill",
    "state_alpha": "OR",
    "county_name": "Washington",
    "county_numeric": "067",
    "prim_lat_dec": "45.5248",
    "prim_long_dec": "-122.811",
    "elev_in_m": "79",
    "elev_in_ft": "259",
    "lat": 45.5248,
    "long": -122.811
  },
  {
    "globaleventid": "473714617",
    "sqldate": "20151007",
    "monthyear": "201510",
    "year": "2015",
    "fractiondate": "2015.7589",
    "eventcode": "100",
    "quadclass": "3",
    "nummentions": "8",
    "numsources": "1",
    "numarticles": "8",
    "avgtone": "0.2079002079002",
    "sourceurl": "http://www.cleveland.com/court-justice/index.ssf/2015/10/federal_judge_denies_activists.html",
    "feature_id": "1066654",
    "feature_name": "Cleveland",
    "state_alpha": "OH",
    "county_name": "Cuyahoga",
    "county_numeric": "035",
    "prim_lat_dec": "41.4995",
    "prim_long_dec": "-81.6954",
    "elev_in_m": "199",
    "elev_in_ft": "653",
    "lat": 41.4995,
    "long": -81.6954
  },
  {
    "globaleventid": "473714593",
    "sqldate": "20151007",
    "monthyear": "201510",
    "year": "2015",
    "fractiondate": "2015.7589",
    "eventcode": "173",
    "quadclass": "4",
    "nummentions": "8",
    "numsources": "1",
    "numarticles": "8",
    "avgtone": "1.1743450767841",
    "sourceurl": "http://www.telegram.com/article/20151005/NEWS/151009523/3818/FRONTPAGE",
    "feature_id": "617867",
    "feature_name": "Worcester",
    "state_alpha": "MA",
    "county_name": "Worcester",
    "county_numeric": "027",
    "prim_lat_dec": "42.2626",
    "prim_long_dec": "-71.8023",
    "elev_in_m": "146",
    "elev_in_ft": "479",
    "lat": 42.2626,
    "long": -71.8023
  },
  {
    "globaleventid": "473714592",
    "sqldate": "20151007",
    "monthyear": "201510",
    "year": "2015",
    "fractiondate": "2015.7589",
    "eventcode": "173",
    "quadclass": "4",
    "nummentions": "2",
    "numsources": "1",
    "numarticles": "2",
    "avgtone": "1.1743450767841",
    "sourceurl": "http://www.telegram.com/article/20151005/NEWS/151009523/3818/FRONTPAGE",
    "feature_id": "617867",
    "feature_name": "Worcester",
    "state_alpha": "MA",
    "county_name": "Worcester",
    "county_numeric": "027",
    "prim_lat_dec": "42.2626",
    "prim_long_dec": "-71.8023",
    "elev_in_m": "146",
    "elev_in_ft": "479",
    "lat": 42.2626,
    "long": -71.8023
  },
  {
    "globaleventid": "473714013",
    "sqldate": "20151007",
    "monthyear": "201510",
    "year": "2015",
    "fractiondate": "2015.7589",
    "eventcode": "120",
    "quadclass": "3",
    "nummentions": "5",
    "numsources": "1",
    "numarticles": "5",
    "avgtone": "0.974025974025971",
    "sourceurl": "http://celebcafe.org/china-leaps-ahead-of-united-kingdom-germany-in-global-rankings-7018/",
    "feature_id": "531871",
    "feature_name": "Washington",
    "state_alpha": "DC",
    "county_name": "District of Columbia",
    "county_numeric": "001",
    "prim_lat_dec": "38.8951",
    "prim_long_dec": "-77.0364",
    "elev_in_m": "7",
    "elev_in_ft": "23",
    "lat": 38.8951,
    "long": -77.0364
  },
  {
    "globaleventid": "473713823",
    "sqldate": "20151007",
    "monthyear": "201510",
    "year": "2015",
    "fractiondate": "2015.7589",
    "eventcode": "173",
    "quadclass": "4",
    "nummentions": "4",
    "numsources": "1",
    "numarticles": "4",
    "avgtone": "-9.22190201729103",
    "sourceurl": "http://www.kptv.com/story/30202631/teen-accused-of-killing-great-grandmother-found-guilty-of-manslaughter",
    "feature_id": "1118757",
    "feature_name": "Cedar Mill",
    "state_alpha": "OR",
    "county_name": "Washington",
    "county_numeric": "067",
    "prim_lat_dec": "45.5248",
    "prim_long_dec": "-122.811",
    "elev_in_m": "79",
    "elev_in_ft": "259",
    "lat": 45.5248,
    "long": -122.811
  },
  {
    "globaleventid": "473713630",
    "sqldate": "20151007",
    "monthyear": "201510",
    "year": "2015",
    "fractiondate": "2015.7589",
    "eventcode": "112",
    "quadclass": "3",
    "nummentions": "4",
    "numsources": "2",
    "numarticles": "4",
    "avgtone": "-7.76320453739809",
    "sourceurl": "http://www.nydailynews.com/new-york/nyc-crime/marc-johnson-steps-deuce-pal-death-article-1.2387951",
    "feature_id": "956342",
    "feature_name": "Manhasset",
    "state_alpha": "NY",
    "county_name": "Nassau",
    "county_numeric": "059",
    "prim_lat_dec": "40.7979",
    "prim_long_dec": "-73.6996",
    "elev_in_m": "30",
    "elev_in_ft": "98",
    "lat": 40.7979,
    "long": -73.6996
  },
  {
    "globaleventid": "473713544",
    "sqldate": "20151007",
    "monthyear": "201510",
    "year": "2015",
    "fractiondate": "2015.7589",
    "eventcode": "130",
    "quadclass": "3",
    "nummentions": "4",
    "numsources": "1",
    "numarticles": "4",
    "avgtone": "-5.12048192771084",
    "sourceurl": "http://www.globalsecurity.org/military/library/news/2015/10/mil-151006-presstv02.htm",
    "feature_id": "531871",
    "feature_name": "Washington",
    "state_alpha": "DC",
    "county_name": "District of Columbia",
    "county_numeric": "001",
    "prim_lat_dec": "38.8951",
    "prim_long_dec": "-77.0364",
    "elev_in_m": "7",
    "elev_in_ft": "23",
    "lat": 38.8951,
    "long": -77.0364
  },
  {
    "globaleventid": "473713417",
    "sqldate": "20151007",
    "monthyear": "201510",
    "year": "2015",
    "fractiondate": "2015.7589",
    "eventcode": "154",
    "quadclass": "4",
    "nummentions": "3",
    "numsources": "1",
    "numarticles": "3",
    "avgtone": "-2.93040293040293",
    "sourceurl": "http://www.globalsecurity.org/military/library/news/2015/10/mil-151006-presstv03.htm",
    "feature_id": "531871",
    "feature_name": "Washington",
    "state_alpha": "DC",
    "county_name": "District of Columbia",
    "county_numeric": "001",
    "prim_lat_dec": "38.8951",
    "prim_long_dec": "-77.0364",
    "elev_in_m": "7",
    "elev_in_ft": "23",
    "lat": 38.8951,
    "long": -77.0364
  },
  {
    "globaleventid": "473713416",
    "sqldate": "20151007",
    "monthyear": "201510",
    "year": "2015",
    "fractiondate": "2015.7589",
    "eventcode": "154",
    "quadclass": "4",
    "nummentions": "2",
    "numsources": "1",
    "numarticles": "2",
    "avgtone": "-2.93040293040293",
    "sourceurl": "http://www.globalsecurity.org/military/library/news/2015/10/mil-151006-presstv03.htm",
    "feature_id": "531871",
    "feature_name": "Washington",
    "state_alpha": "DC",
    "county_name": "District of Columbia",
    "county_numeric": "001",
    "prim_lat_dec": "38.8951",
    "prim_long_dec": "-77.0364",
    "elev_in_m": "7",
    "elev_in_ft": "23",
    "lat": 38.8951,
    "long": -77.0364
  },
  {
    "globaleventid": "473711243",
    "sqldate": "20151007",
    "monthyear": "201510",
    "year": "2015",
    "fractiondate": "2015.7589",
    "eventcode": "193",
    "quadclass": "4",
    "nummentions": "4",
    "numsources": "1",
    "numarticles": "4",
    "avgtone": "2.02391904323827",
    "sourceurl": "http://www.telegram.com/article/20151006/NEWS/151009384",
    "feature_id": "617867",
    "feature_name": "Worcester",
    "state_alpha": "MA",
    "county_name": "Worcester",
    "county_numeric": "027",
    "prim_lat_dec": "42.2626",
    "prim_long_dec": "-71.8023",
    "elev_in_m": "146",
    "elev_in_ft": "479",
    "lat": 42.2626,
    "long": -71.8023
  },
  {
    "globaleventid": "473711221",
    "sqldate": "20151007",
    "monthyear": "201510",
    "year": "2015",
    "fractiondate": "2015.7589",
    "eventcode": "180",
    "quadclass": "4",
    "nummentions": "2",
    "numsources": "1",
    "numarticles": "2",
    "avgtone": "-8.54430379746835",
    "sourceurl": "http://www.usatoday.com/story/news/nation-now/2015/10/06/couple-charged-assault-nashville-record-producer/73495308/",
    "feature_id": "1652484",
    "feature_name": "Nashville",
    "state_alpha": "TN",
    "county_name": "Davidson",
    "county_numeric": "037",
    "prim_lat_dec": "36.1659",
    "prim_long_dec": "-86.7844",
    "elev_in_m": "173",
    "elev_in_ft": "568",
    "lat": 36.1659,
    "long": -86.7844
  },
  {
    "globaleventid": "473711197",
    "sqldate": "20151007",
    "monthyear": "201510",
    "year": "2015",
    "fractiondate": "2015.7589",
    "eventcode": "120",
    "quadclass": "3",
    "nummentions": "4",
    "numsources": "1",
    "numarticles": "4",
    "avgtone": "-0.38860103626943",
    "sourceurl": "http://miami.cbslocal.com/2015/10/06/house-leader-casts-doubt-on-background-check-bill/",
    "feature_id": "290675",
    "feature_name": "Sarasota",
    "state_alpha": "FL",
    "county_name": "Sarasota",
    "county_numeric": "115",
    "prim_lat_dec": "27.3364",
    "prim_long_dec": "-82.5307",
    "elev_in_m": "6",
    "elev_in_ft": "20",
    "lat": 27.3364,
    "long": -82.5307
  },
  {
    "globaleventid": "473711192",
    "sqldate": "20151007",
    "monthyear": "201510",
    "year": "2015",
    "fractiondate": "2015.7589",
    "eventcode": "110",
    "quadclass": "3",
    "nummentions": "4",
    "numsources": "1",
    "numarticles": "4",
    "avgtone": "-3.10650887573965",
    "sourceurl": "http://www.silive.com/news/index.ssf/2015/10/illuzzi_mcmahon_da_debate.html",
    "feature_id": "1802959",
    "feature_name": "Staten Island",
    "state_alpha": "NY",
    "county_name": "Richmond",
    "county_numeric": "085",
    "prim_lat_dec": "40.5834",
    "prim_long_dec": "-74.1496",
    "elev_in_m": "49",
    "elev_in_ft": "161",
    "lat": 40.5834,
    "long": -74.1496
  },
  {
    "globaleventid": "473711125",
    "sqldate": "20151007",
    "monthyear": "201510",
    "year": "2015",
    "fractiondate": "2015.7589",
    "eventcode": "173",
    "quadclass": "4",
    "nummentions": "12",
    "numsources": "5",
    "numarticles": "12",
    "avgtone": "-6.61629255891551",
    "sourceurl": "http://www.grandforksherald.com/news/crime-and-courts/3855214-no-prison-time-bismarck-store-owner-who-sold-synthetic-drugs",
    "feature_id": "1035849",
    "feature_name": "Bismarck",
    "state_alpha": "ND",
    "county_name": "Burleigh",
    "county_numeric": "015",
    "prim_lat_dec": "46.8083",
    "prim_long_dec": "-100.784",
    "elev_in_m": "517",
    "elev_in_ft": "1696",
    "lat": 46.8083,
    "long": -100.784
  },
  {
    "globaleventid": "473711119",
    "sqldate": "20151007",
    "monthyear": "201510",
    "year": "2015",
    "fractiondate": "2015.7589",
    "eventcode": "193",
    "quadclass": "4",
    "nummentions": "10",
    "numsources": "1",
    "numarticles": "10",
    "avgtone": "-8.03212851405624",
    "sourceurl": "http://www.mirror.co.uk/news/world-news/texas-executes-man-who-shot-6586778",
    "feature_id": "1380948",
    "feature_name": "Houston",
    "state_alpha": "TX",
    "county_name": "Harris",
    "county_numeric": "201",
    "prim_lat_dec": "29.7633",
    "prim_long_dec": "-95.3633",
    "elev_in_m": "11",
    "elev_in_ft": "36",
    "lat": 29.7633,
    "long": -95.3633
  },
  {
    "globaleventid": "473711115",
    "sqldate": "20151007",
    "monthyear": "201510",
    "year": "2015",
    "fractiondate": "2015.7589",
    "eventcode": "190",
    "quadclass": "4",
    "nummentions": "40",
    "numsources": "5",
    "numarticles": "40",
    "avgtone": "-6.61629255891551",
    "sourceurl": "http://www.grandforksherald.com/news/crime-and-courts/3855214-no-prison-time-bismarck-store-owner-who-sold-synthetic-drugs",
    "feature_id": "1035849",
    "feature_name": "Bismarck",
    "state_alpha": "ND",
    "county_name": "Burleigh",
    "county_numeric": "015",
    "prim_lat_dec": "46.8083",
    "prim_long_dec": "-100.784",
    "elev_in_m": "517",
    "elev_in_ft": "1696",
    "lat": 46.8083,
    "long": -100.784
  },
  {
    "globaleventid": "473711113",
    "sqldate": "20151007",
    "monthyear": "201510",
    "year": "2015",
    "fractiondate": "2015.7589",
    "eventcode": "180",
    "quadclass": "4",
    "nummentions": "2",
    "numsources": "1",
    "numarticles": "2",
    "avgtone": "-8.54430379746835",
    "sourceurl": "http://www.usatoday.com/story/news/nation-now/2015/10/06/couple-charged-assault-nashville-record-producer/73495308/",
    "feature_id": "1652484",
    "feature_name": "Nashville",
    "state_alpha": "TN",
    "county_name": "Davidson",
    "county_numeric": "037",
    "prim_lat_dec": "36.1659",
    "prim_long_dec": "-86.7844",
    "elev_in_m": "173",
    "elev_in_ft": "568",
    "lat": 36.1659,
    "long": -86.7844
  },
  {
    "globaleventid": "473711109",
    "sqldate": "20151007",
    "monthyear": "201510",
    "year": "2015",
    "fractiondate": "2015.7589",
    "eventcode": "130",
    "quadclass": "3",
    "nummentions": "8",
    "numsources": "1",
    "numarticles": "8",
    "avgtone": "-5.92105263157894",
    "sourceurl": "http://fox5sandiego.com/2015/10/06/furniture-store-owner-sentenced-for-smuggling-endangered-fish-to-china/",
    "feature_id": "1661377",
    "feature_name": "San Diego",
    "state_alpha": "CA",
    "county_name": "San Diego",
    "county_numeric": "073",
    "prim_lat_dec": "32.7153",
    "prim_long_dec": "-117.157",
    "elev_in_m": "19",
    "elev_in_ft": "62",
    "lat": 32.7153,
    "long": -117.157
  },
  {
    "globaleventid": "473710987",
    "sqldate": "20151007",
    "monthyear": "201510",
    "year": "2015",
    "fractiondate": "2015.7589",
    "eventcode": "190",
    "quadclass": "4",
    "nummentions": "2",
    "numsources": "1",
    "numarticles": "2",
    "avgtone": "-1.83615819209039",
    "sourceurl": "http://chicago.suntimes.com/news-chicago/7/71/1018366/chicago-police-officer-fire-emt-honored-top-awards",
    "feature_id": "423587",
    "feature_name": "Chicago",
    "state_alpha": "IL",
    "county_name": "Cook",
    "county_numeric": "031",
    "prim_lat_dec": "41.85",
    "prim_long_dec": "-87.6501",
    "elev_in_m": "179",
    "elev_in_ft": "587",
    "lat": 41.85,
    "long": -87.6501
  },
  {
    "globaleventid": "473710986",
    "sqldate": "20151007",
    "monthyear": "201510",
    "year": "2015",
    "fractiondate": "2015.7589",
    "eventcode": "190",
    "quadclass": "4",
    "nummentions": "3",
    "numsources": "1",
    "numarticles": "3",
    "avgtone": "-1.83615819209039",
    "sourceurl": "http://chicago.suntimes.com/news-chicago/7/71/1018366/chicago-police-officer-fire-emt-honored-top-awards",
    "feature_id": "1802402",
    "feature_name": "Roseland",
    "state_alpha": "IL",
    "county_name": "Cook",
    "county_numeric": "031",
    "prim_lat_dec": "41.702",
    "prim_long_dec": "-87.6259",
    "elev_in_m": "184",
    "elev_in_ft": "604",
    "lat": 41.702,
    "long": -87.6259
  },
  {
    "globaleventid": "473710681",
    "sqldate": "20151007",
    "monthyear": "201510",
    "year": "2015",
    "fractiondate": "2015.7589",
    "eventcode": "111",
    "quadclass": "3",
    "nummentions": "2",
    "numsources": "1",
    "numarticles": "2",
    "avgtone": "-6.89655172413793",
    "sourceurl": "http://dailycampus.com/stories/2015/10/6/column-united-states-should-answer-for-alleged-war-crime",
    "feature_id": "531871",
    "feature_name": "Washington",
    "state_alpha": "DC",
    "county_name": "District of Columbia",
    "county_numeric": "001",
    "prim_lat_dec": "38.8951",
    "prim_long_dec": "-77.0364",
    "elev_in_m": "7",
    "elev_in_ft": "23",
    "lat": 38.8951,
    "long": -77.0364
  },
  {
    "globaleventid": "473710667",
    "sqldate": "20151007",
    "monthyear": "201510",
    "year": "2015",
    "fractiondate": "2015.7589",
    "eventcode": "111",
    "quadclass": "3",
    "nummentions": "10",
    "numsources": "1",
    "numarticles": "10",
    "avgtone": "-6.89655172413793",
    "sourceurl": "http://dailycampus.com/stories/2015/10/6/column-united-states-should-answer-for-alleged-war-crime",
    "feature_id": "531871",
    "feature_name": "Washington",
    "state_alpha": "DC",
    "county_name": "District of Columbia",
    "county_numeric": "001",
    "prim_lat_dec": "38.8951",
    "prim_long_dec": "-77.0364",
    "elev_in_m": "7",
    "elev_in_ft": "23",
    "lat": 38.8951,
    "long": -77.0364
  },
  {
    "globaleventid": "473710666",
    "sqldate": "20151007",
    "monthyear": "201510",
    "year": "2015",
    "fractiondate": "2015.7589",
    "eventcode": "111",
    "quadclass": "3",
    "nummentions": "8",
    "numsources": "1",
    "numarticles": "8",
    "avgtone": "-6.89655172413793",
    "sourceurl": "http://dailycampus.com/stories/2015/10/6/column-united-states-should-answer-for-alleged-war-crime",
    "feature_id": "531871",
    "feature_name": "Washington",
    "state_alpha": "DC",
    "county_name": "District of Columbia",
    "county_numeric": "001",
    "prim_lat_dec": "38.8951",
    "prim_long_dec": "-77.0364",
    "elev_in_m": "7",
    "elev_in_ft": "23",
    "lat": 38.8951,
    "long": -77.0364
  },
  {
    "globaleventid": "473710592",
    "sqldate": "20151007",
    "monthyear": "201510",
    "year": "2015",
    "fractiondate": "2015.7589",
    "eventcode": "120",
    "quadclass": "3",
    "nummentions": "6",
    "numsources": "1",
    "numarticles": "6",
    "avgtone": "-1.28968253968254",
    "sourceurl": "http://www.thestate.com/opinion/opn-columns-blogs/cindi-ross-scoppe/article37979265.html",
    "feature_id": "1244839",
    "feature_name": "Abbeville",
    "state_alpha": "SC",
    "county_name": "Abbeville",
    "county_numeric": "001",
    "prim_lat_dec": "34.1782",
    "prim_long_dec": "-82.379",
    "elev_in_m": "180",
    "elev_in_ft": "591",
    "lat": 34.1782,
    "long": -82.379
  },
  {
    "globaleventid": "473710538",
    "sqldate": "20151007",
    "monthyear": "201510",
    "year": "2015",
    "fractiondate": "2015.7589",
    "eventcode": "173",
    "quadclass": "4",
    "nummentions": "7",
    "numsources": "1",
    "numarticles": "7",
    "avgtone": "-13.6470588235294",
    "sourceurl": "http://www.therepublic.com/view/story/9cee2bfe4ce04605b2b6781718d861f2/AZ--Prison-Riot-Indictment",
    "feature_id": "44784",
    "feature_name": "Phoenix",
    "state_alpha": "AZ",
    "county_name": "Maricopa",
    "county_numeric": "013",
    "prim_lat_dec": "33.4484",
    "prim_long_dec": "-112.074",
    "elev_in_m": "331",
    "elev_in_ft": "1086",
    "lat": 33.4484,
    "long": -112.074
  },
  {
    "globaleventid": "473710537",
    "sqldate": "20151007",
    "monthyear": "201510",
    "year": "2015",
    "fractiondate": "2015.7589",
    "eventcode": "173",
    "quadclass": "4",
    "nummentions": "2",
    "numsources": "1",
    "numarticles": "2",
    "avgtone": "-6.18686868686868",
    "sourceurl": "http://www.grandforksherald.com/news/crime-and-courts/3855214-no-prison-time-bismarck-store-owner-who-sold-synthetic-drugs",
    "feature_id": "1035849",
    "feature_name": "Bismarck",
    "state_alpha": "ND",
    "county_name": "Burleigh",
    "county_numeric": "015",
    "prim_lat_dec": "46.8083",
    "prim_long_dec": "-100.784",
    "elev_in_m": "517",
    "elev_in_ft": "1696",
    "lat": 46.8083,
    "long": -100.784
  },
  {
    "globaleventid": "473710517",
    "sqldate": "20151007",
    "monthyear": "201510",
    "year": "2015",
    "fractiondate": "2015.7589",
    "eventcode": "112",
    "quadclass": "3",
    "nummentions": "20",
    "numsources": "1",
    "numarticles": "20",
    "avgtone": "2.02391904323827",
    "sourceurl": "http://www.telegram.com/article/20151006/NEWS/151009384",
    "feature_id": "617867",
    "feature_name": "Worcester",
    "state_alpha": "MA",
    "county_name": "Worcester",
    "county_numeric": "027",
    "prim_lat_dec": "42.2626",
    "prim_long_dec": "-71.8023",
    "elev_in_m": "146",
    "elev_in_ft": "479",
    "lat": 42.2626,
    "long": -71.8023
  },
  {
    "globaleventid": "473710251",
    "sqldate": "20151007",
    "monthyear": "201510",
    "year": "2015",
    "fractiondate": "2015.7589",
    "eventcode": "173",
    "quadclass": "4",
    "nummentions": "4",
    "numsources": "1",
    "numarticles": "4",
    "avgtone": "-3.78048780487805",
    "sourceurl": "http://my40.tv/news/features/top-stories/stories/Owners-about-Waking-Life-Espresso-quot-We-are-deeply-grieving-its-loss-quot--215468.shtml",
    "feature_id": "1287389",
    "feature_name": "Hendersonville",
    "state_alpha": "TN",
    "county_name": "Sumner",
    "county_numeric": "165",
    "prim_lat_dec": "36.3048",
    "prim_long_dec": "-86.62",
    "elev_in_m": "147",
    "elev_in_ft": "482",
    "lat": 36.3048,
    "long": -86.62
  },
  {
    "globaleventid": "473710061",
    "sqldate": "20151007",
    "monthyear": "201510",
    "year": "2015",
    "fractiondate": "2015.7589",
    "eventcode": "111",
    "quadclass": "3",
    "nummentions": "2",
    "numsources": "1",
    "numarticles": "2",
    "avgtone": "-1.03761348897535",
    "sourceurl": "http://www.times-standard.com/general-news/20151006/board-decides-against-sending-water-theft-letter",
    "feature_id": "1659564",
    "feature_name": "Sacramento",
    "state_alpha": "CA",
    "county_name": "Sacramento",
    "county_numeric": "067",
    "prim_lat_dec": "38.5816",
    "prim_long_dec": "-121.494",
    "elev_in_m": "8",
    "elev_in_ft": "26",
    "lat": 38.5816,
    "long": -121.494
  },
  {
    "globaleventid": "473710059",
    "sqldate": "20151007",
    "monthyear": "201510",
    "year": "2015",
    "fractiondate": "2015.7589",
    "eventcode": "110",
    "quadclass": "3",
    "nummentions": "6",
    "numsources": "1",
    "numarticles": "6",
    "avgtone": "-3.60110803324099",
    "sourceurl": "http://www.thenewscenter.tv/home/headlines/Local-Community-Responds-to-SC-Flooding--330983782.html",
    "feature_id": "531871",
    "feature_name": "Washington",
    "state_alpha": "DC",
    "county_name": "District of Columbia",
    "county_numeric": "001",
    "prim_lat_dec": "38.8951",
    "prim_long_dec": "-77.0364",
    "elev_in_m": "7",
    "elev_in_ft": "23",
    "lat": 38.8951,
    "long": -77.0364
  },
  {
    "globaleventid": "473709992",
    "sqldate": "20151007",
    "monthyear": "201510",
    "year": "2015",
    "fractiondate": "2015.7589",
    "eventcode": "114",
    "quadclass": "3",
    "nummentions": "3",
    "numsources": "1",
    "numarticles": "3",
    "avgtone": "-3.26975476839237",
    "sourceurl": "http://www.10tv.com/content/stories/2015/10/06/mount-vernon-ohio-friends-of-mt.-vernon-police-detective-charged-with-drug-trafficking-stunned.html",
    "feature_id": "1056436",
    "feature_name": "Mount Vernon",
    "state_alpha": "OH",
    "county_name": "Knox",
    "county_numeric": "083",
    "prim_lat_dec": "40.3934",
    "prim_long_dec": "-82.4857",
    "elev_in_m": "306",
    "elev_in_ft": "1004",
    "lat": 40.3934,
    "long": -82.4857
  },
  {
    "globaleventid": "473709846",
    "sqldate": "20151007",
    "monthyear": "201510",
    "year": "2015",
    "fractiondate": "2015.7589",
    "eventcode": "173",
    "quadclass": "4",
    "nummentions": "6",
    "numsources": "1",
    "numarticles": "6",
    "avgtone": "-4.35684647302905",
    "sourceurl": "http://www.wsvn.com/story/30202786/man-on-probation-for-fraud-running-a-fingerprinting-and-background-check-business",
    "feature_id": "295004",
    "feature_name": "Miami",
    "state_alpha": "FL",
    "county_name": "Miami-Dade",
    "county_numeric": "086",
    "prim_lat_dec": "25.7743",
    "prim_long_dec": "-80.1937",
    "elev_in_m": "2",
    "elev_in_ft": "7",
    "lat": 25.7743,
    "long": -80.1937
  },
  {
    "globaleventid": "473709845",
    "sqldate": "20151007",
    "monthyear": "201510",
    "year": "2015",
    "fractiondate": "2015.7589",
    "eventcode": "173",
    "quadclass": "4",
    "nummentions": "4",
    "numsources": "1",
    "numarticles": "4",
    "avgtone": "-4.35684647302905",
    "sourceurl": "http://www.wsvn.com/story/30202786/man-on-probation-for-fraud-running-a-fingerprinting-and-background-check-business",
    "feature_id": "285292",
    "feature_name": "Lake Worth",
    "state_alpha": "FL",
    "county_name": "Palm Beach",
    "county_numeric": "099",
    "prim_lat_dec": "26.6159",
    "prim_long_dec": "-80.057",
    "elev_in_m": "5",
    "elev_in_ft": "16",
    "lat": 26.6159,
    "long": -80.057
  },
  {
    "globaleventid": "473709777",
    "sqldate": "20151007",
    "monthyear": "201510",
    "year": "2015",
    "fractiondate": "2015.7589",
    "eventcode": "120",
    "quadclass": "3",
    "nummentions": "6",
    "numsources": "1",
    "numarticles": "6",
    "avgtone": "-0.43541364296081",
    "sourceurl": "http://www.informationweek.com/government/cybersecurity/safe-harbor-fails-european-court-rules/d/d-id/1322509?piddl_msgid=306483",
    "feature_id": "531871",
    "feature_name": "Washington",
    "state_alpha": "DC",
    "county_name": "District of Columbia",
    "county_numeric": "001",
    "prim_lat_dec": "38.8951",
    "prim_long_dec": "-77.0364",
    "elev_in_m": "7",
    "elev_in_ft": "23",
    "lat": 38.8951,
    "long": -77.0364
  },
  {
    "globaleventid": "473709355",
    "sqldate": "20151007",
    "monthyear": "201510",
    "year": "2015",
    "fractiondate": "2015.7589",
    "eventcode": "110",
    "quadclass": "3",
    "nummentions": "20",
    "numsources": "1",
    "numarticles": "20",
    "avgtone": "-2.57920835527471",
    "sourceurl": "http://www.emirates247.com/news-in-images/in-pictures-crazy-world-today-2015-10-07-1.605535",
    "feature_id": "531871",
    "feature_name": "Washington",
    "state_alpha": "DC",
    "county_name": "District of Columbia",
    "county_numeric": "001",
    "prim_lat_dec": "38.8951",
    "prim_long_dec": "-77.0364",
    "elev_in_m": "7",
    "elev_in_ft": "23",
    "lat": 38.8951,
    "long": -77.0364
  },
  {
    "globaleventid": "473709327",
    "sqldate": "20151007",
    "monthyear": "201510",
    "year": "2015",
    "fractiondate": "2015.7589",
    "eventcode": "190",
    "quadclass": "4",
    "nummentions": "2",
    "numsources": "1",
    "numarticles": "2",
    "avgtone": "-1.21527777777778",
    "sourceurl": "http://www.ifreepress.com/obamas-education-secretary-arne-duncan-is-gone/",
    "feature_id": "944840",
    "feature_name": "Brooklyn",
    "state_alpha": "NY",
    "county_name": "Delaware",
    "county_numeric": "025",
    "prim_lat_dec": "42.3442",
    "prim_long_dec": "-75.1704",
    "elev_in_m": "366",
    "elev_in_ft": "1201",
    "lat": 42.3442,
    "long": -75.1704
  },
  {
    "globaleventid": "473709300",
    "sqldate": "20151007",
    "monthyear": "201510",
    "year": "2015",
    "fractiondate": "2015.7589",
    "eventcode": "114",
    "quadclass": "3",
    "nummentions": "1",
    "numsources": "1",
    "numarticles": "1",
    "avgtone": "-3.27605265802432",
    "sourceurl": "http://usofarn.com/tag/global-warming/",
    "feature_id": "423587",
    "feature_name": "Chicago",
    "state_alpha": "IL",
    "county_name": "Cook",
    "county_numeric": "031",
    "prim_lat_dec": "41.85",
    "prim_long_dec": "-87.6501",
    "elev_in_m": "179",
    "elev_in_ft": "587",
    "lat": 41.85,
    "long": -87.6501
  },
  {
    "globaleventid": "473709254",
    "sqldate": "20151007",
    "monthyear": "201510",
    "year": "2015",
    "fractiondate": "2015.7589",
    "eventcode": "190",
    "quadclass": "4",
    "nummentions": "2",
    "numsources": "1",
    "numarticles": "2",
    "avgtone": "-1.21527777777778",
    "sourceurl": "http://www.ifreepress.com/obamas-education-secretary-arne-duncan-is-gone/",
    "feature_id": "944840",
    "feature_name": "Brooklyn",
    "state_alpha": "NY",
    "county_name": "Delaware",
    "county_numeric": "025",
    "prim_lat_dec": "42.3442",
    "prim_long_dec": "-75.1704",
    "elev_in_m": "366",
    "elev_in_ft": "1201",
    "lat": 42.3442,
    "long": -75.1704
  },
  {
    "globaleventid": "473709253",
    "sqldate": "20151007",
    "monthyear": "201510",
    "year": "2015",
    "fractiondate": "2015.7589",
    "eventcode": "190",
    "quadclass": "4",
    "nummentions": "48",
    "numsources": "10",
    "numarticles": "48",
    "avgtone": "-2.10631855387836",
    "sourceurl": "http://www.miamiherald.com/news/nation-world/world/americas/guantanamo/article38039370.html",
    "feature_id": "531871",
    "feature_name": "Washington",
    "state_alpha": "DC",
    "county_name": "District of Columbia",
    "county_numeric": "001",
    "prim_lat_dec": "38.8951",
    "prim_long_dec": "-77.0364",
    "elev_in_m": "7",
    "elev_in_ft": "23",
    "lat": 38.8951,
    "long": -77.0364
  },
  {
    "globaleventid": "473709235",
    "sqldate": "20151007",
    "monthyear": "201510",
    "year": "2015",
    "fractiondate": "2015.7589",
    "eventcode": "130",
    "quadclass": "3",
    "nummentions": "2",
    "numsources": "1",
    "numarticles": "2",
    "avgtone": "-3.25900514579759",
    "sourceurl": "http://kwgn.com/2015/10/06/victim-of-hit-and-run-crash-in-parking-lot-has-evidence-cant-get-police-to-help/",
    "feature_id": "201738",
    "feature_name": "Denver",
    "state_alpha": "CO",
    "county_name": "Denver",
    "county_numeric": "031",
    "prim_lat_dec": "39.7392",
    "prim_long_dec": "-104.985",
    "elev_in_m": "1609",
    "elev_in_ft": "5279",
    "lat": 39.7392,
    "long": -104.985
  },
  {
    "globaleventid": "473709197",
    "sqldate": "20151007",
    "monthyear": "201510",
    "year": "2015",
    "fractiondate": "2015.7589",
    "eventcode": "193",
    "quadclass": "4",
    "nummentions": "1",
    "numsources": "1",
    "numarticles": "1",
    "avgtone": "-3.86100386100386",
    "sourceurl": "https://kobi5.com/news/regional-news/roseburg-shootings-trigger-mass-murder-memories-in-klamath-falls-2417/",
    "feature_id": "1136445",
    "feature_name": "Klamath Falls",
    "state_alpha": "OR",
    "county_name": "Klamath",
    "county_numeric": "035",
    "prim_lat_dec": "42.2249",
    "prim_long_dec": "-121.782",
    "elev_in_m": "1252",
    "elev_in_ft": "4108",
    "lat": 42.2249,
    "long": -121.782
  },
  {
    "globaleventid": "473709193",
    "sqldate": "20151007",
    "monthyear": "201510",
    "year": "2015",
    "fractiondate": "2015.7589",
    "eventcode": "120",
    "quadclass": "3",
    "nummentions": "4",
    "numsources": "1",
    "numarticles": "4",
    "avgtone": "0.39577836411609",
    "sourceurl": "http://www.yankton.net/opinion/editorials/article_e4e7db5e-6c91-11e5-9209-cbd0e05d0b29.html",
    "feature_id": "531871",
    "feature_name": "Washington",
    "state_alpha": "DC",
    "county_name": "District of Columbia",
    "county_numeric": "001",
    "prim_lat_dec": "38.8951",
    "prim_long_dec": "-77.0364",
    "elev_in_m": "7",
    "elev_in_ft": "23",
    "lat": 38.8951,
    "long": -77.0364
  },
  {
    "globaleventid": "473709170",
    "sqldate": "20151007",
    "monthyear": "201510",
    "year": "2015",
    "fractiondate": "2015.7589",
    "eventcode": "193",
    "quadclass": "4",
    "nummentions": "6",
    "numsources": "1",
    "numarticles": "6",
    "avgtone": "-4.1025641025641",
    "sourceurl": "http://chicago.cbslocal.com/2015/10/06/girl-2-seriously-injured-by-riding-mower-in-unincorporated-joliet/",
    "feature_id": "411192",
    "feature_name": "Joliet",
    "state_alpha": "IL",
    "county_name": "Will",
    "county_numeric": "197",
    "prim_lat_dec": "41.525",
    "prim_long_dec": "-88.0817",
    "elev_in_m": "165",
    "elev_in_ft": "541",
    "lat": 41.525,
    "long": -88.0817
  },
  {
    "globaleventid": "473709148",
    "sqldate": "20151007",
    "monthyear": "201510",
    "year": "2015",
    "fractiondate": "2015.7589",
    "eventcode": "193",
    "quadclass": "4",
    "nummentions": "8",
    "numsources": "1",
    "numarticles": "8",
    "avgtone": "-0.97560975609756",
    "sourceurl": "http://www.foxsanantonio.com/news/features/top-stories/stories/san-antonio-college-students-bond-campus-police-after-oregon-shooting-16446.shtml",
    "feature_id": "1380951",
    "feature_name": "San Antonio",
    "state_alpha": "TX",
    "county_name": "Bexar",
    "county_numeric": "029",
    "prim_lat_dec": "29.4241",
    "prim_long_dec": "-98.4936",
    "elev_in_m": "198",
    "elev_in_ft": "650",
    "lat": 29.4241,
    "long": -98.4936
  },
  {
    "globaleventid": "473709113",
    "sqldate": "20151007",
    "monthyear": "201510",
    "year": "2015",
    "fractiondate": "2015.7589",
    "eventcode": "173",
    "quadclass": "4",
    "nummentions": "26",
    "numsources": "4",
    "numarticles": "26",
    "avgtone": "-3.46202031396325",
    "sourceurl": "http://cronkitenews.azpbs.org/2015/10/06/tribes-domestic-violence-program-very-successful-but-challenges-remain/",
    "feature_id": "1512740",
    "feature_name": "Tulalip",
    "state_alpha": "WA",
    "county_name": "Snohomish",
    "county_numeric": "061",
    "prim_lat_dec": "48.0684",
    "prim_long_dec": "-122.292",
    "elev_in_m": "30",
    "elev_in_ft": "98",
    "lat": 48.0684,
    "long": -122.292
  },
  {
    "globaleventid": "473709105",
    "sqldate": "20151007",
    "monthyear": "201510",
    "year": "2015",
    "fractiondate": "2015.7589",
    "eventcode": "192",
    "quadclass": "4",
    "nummentions": "8",
    "numsources": "1",
    "numarticles": "8",
    "avgtone": "1.13636363636364",
    "sourceurl": "http://www.argusleader.com/story/news/business-journal/2015/10/06/vermillion-chamber-makes-best-broken-deal/73486464/",
    "feature_id": "653633",
    "feature_name": "Vermillion",
    "state_alpha": "MN",
    "county_name": "Dakota",
    "county_numeric": "037",
    "prim_lat_dec": "44.6736",
    "prim_long_dec": "-92.9672",
    "elev_in_m": "257",
    "elev_in_ft": "843",
    "lat": 44.6736,
    "long": -92.9672
  },
  {
    "globaleventid": "473709103",
    "sqldate": "20151007",
    "monthyear": "201510",
    "year": "2015",
    "fractiondate": "2015.7589",
    "eventcode": "190",
    "quadclass": "4",
    "nummentions": "2",
    "numsources": "1",
    "numarticles": "2",
    "avgtone": "1.13636363636364",
    "sourceurl": "http://www.argusleader.com/story/news/business-journal/2015/10/06/vermillion-chamber-makes-best-broken-deal/73486464/",
    "feature_id": "653633",
    "feature_name": "Vermillion",
    "state_alpha": "MN",
    "county_name": "Dakota",
    "county_numeric": "037",
    "prim_lat_dec": "44.6736",
    "prim_long_dec": "-92.9672",
    "elev_in_m": "257",
    "elev_in_ft": "843",
    "lat": 44.6736,
    "long": -92.9672
  },
  {
    "globaleventid": "473709102",
    "sqldate": "20151007",
    "monthyear": "201510",
    "year": "2015",
    "fractiondate": "2015.7589",
    "eventcode": "190",
    "quadclass": "4",
    "nummentions": "4",
    "numsources": "1",
    "numarticles": "4",
    "avgtone": "1.13636363636364",
    "sourceurl": "http://www.argusleader.com/story/news/business-journal/2015/10/06/vermillion-chamber-makes-best-broken-deal/73486464/",
    "feature_id": "653633",
    "feature_name": "Vermillion",
    "state_alpha": "MN",
    "county_name": "Dakota",
    "county_numeric": "037",
    "prim_lat_dec": "44.6736",
    "prim_long_dec": "-92.9672",
    "elev_in_m": "257",
    "elev_in_ft": "843",
    "lat": 44.6736,
    "long": -92.9672
  },
  {
    "globaleventid": "473709101",
    "sqldate": "20151007",
    "monthyear": "201510",
    "year": "2015",
    "fractiondate": "2015.7589",
    "eventcode": "114",
    "quadclass": "3",
    "nummentions": "1",
    "numsources": "1",
    "numarticles": "1",
    "avgtone": "-3.27605265802432",
    "sourceurl": "http://usofarn.com/tag/global-warming/",
    "feature_id": "423587",
    "feature_name": "Chicago",
    "state_alpha": "IL",
    "county_name": "Cook",
    "county_numeric": "031",
    "prim_lat_dec": "41.85",
    "prim_long_dec": "-87.6501",
    "elev_in_m": "179",
    "elev_in_ft": "587",
    "lat": 41.85,
    "long": -87.6501
  },
  {
    "globaleventid": "473709100",
    "sqldate": "20151007",
    "monthyear": "201510",
    "year": "2015",
    "fractiondate": "2015.7589",
    "eventcode": "114",
    "quadclass": "3",
    "nummentions": "1",
    "numsources": "1",
    "numarticles": "1",
    "avgtone": "-3.27605265802432",
    "sourceurl": "http://usofarn.com/tag/global-warming/",
    "feature_id": "423587",
    "feature_name": "Chicago",
    "state_alpha": "IL",
    "county_name": "Cook",
    "county_numeric": "031",
    "prim_lat_dec": "41.85",
    "prim_long_dec": "-87.6501",
    "elev_in_m": "179",
    "elev_in_ft": "587",
    "lat": 41.85,
    "long": -87.6501
  },
  {
    "globaleventid": "473709099",
    "sqldate": "20151007",
    "monthyear": "201510",
    "year": "2015",
    "fractiondate": "2015.7589",
    "eventcode": "114",
    "quadclass": "3",
    "nummentions": "1",
    "numsources": "1",
    "numarticles": "1",
    "avgtone": "-3.27605265802432",
    "sourceurl": "http://usofarn.com/tag/global-warming/",
    "feature_id": "423587",
    "feature_name": "Chicago",
    "state_alpha": "IL",
    "county_name": "Cook",
    "county_numeric": "031",
    "prim_lat_dec": "41.85",
    "prim_long_dec": "-87.6501",
    "elev_in_m": "179",
    "elev_in_ft": "587",
    "lat": 41.85,
    "long": -87.6501
  },
  {
    "globaleventid": "473715663",
    "sqldate": "20151007",
    "monthyear": "201510",
    "year": "2015",
    "fractiondate": "2015.7589",
    "eventcode": "110",
    "quadclass": "3",
    "nummentions": "8",
    "numsources": "1",
    "numarticles": "8",
    "avgtone": "2.3936170212766",
    "sourceurl": "http://www.columbiabasinherald.com/news/school_news/american-legion-auxiliary-sponsors-essay-contest/article_7492f8ac-6c73-11e5-abda-b3dceff6cca2.html",
    "feature_id": "1512192",
    "feature_name": "Ephrata",
    "state_alpha": "WA",
    "county_name": "Grant",
    "county_numeric": "025",
    "prim_lat_dec": "47.3176",
    "prim_long_dec": "-119.554",
    "elev_in_m": "389",
    "elev_in_ft": "1276",
    "lat": 47.3176,
    "long": -119.554
  },
  {
    "globaleventid": "473715689",
    "sqldate": "20151007",
    "monthyear": "201510",
    "year": "2015",
    "fractiondate": "2015.7589",
    "eventcode": "112",
    "quadclass": "3",
    "nummentions": "2",
    "numsources": "1",
    "numarticles": "2",
    "avgtone": "-3.76106194690265",
    "sourceurl": "http://www.kcci.com/news/ron-paul-kent-sorenson-to-testify-against-former-campaign-staffers/35692854",
    "feature_id": "465961",
    "feature_name": "Des Moines",
    "state_alpha": "IA",
    "county_name": "Polk",
    "county_numeric": "153",
    "prim_lat_dec": "41.6005",
    "prim_long_dec": "-93.6091",
    "elev_in_m": "266",
    "elev_in_ft": "873",
    "lat": 41.6005,
    "long": -93.6091
  },
  {
    "globaleventid": "473714813",
    "sqldate": "20151007",
    "monthyear": "201510",
    "year": "2015",
    "fractiondate": "2015.7589",
    "eventcode": "100",
    "quadclass": "3",
    "nummentions": "1",
    "numsources": "1",
    "numarticles": "1",
    "avgtone": "-4.86322188449848",
    "sourceurl": "http://timesofsandiego.com/crime/2015/10/06/l-a-businessman-sentenced-for-smuggling-endangered-fish/",
    "feature_id": "1661377",
    "feature_name": "San Diego",
    "state_alpha": "CA",
    "county_name": "San Diego",
    "county_numeric": "073",
    "prim_lat_dec": "32.7153",
    "prim_long_dec": "-117.157",
    "elev_in_m": "19",
    "elev_in_ft": "62",
    "lat": 32.7153,
    "long": -117.157
  },
  {
    "globaleventid": "473715641",
    "sqldate": "20151007",
    "monthyear": "201510",
    "year": "2015",
    "fractiondate": "2015.7589",
    "eventcode": "173",
    "quadclass": "4",
    "nummentions": "4",
    "numsources": "1",
    "numarticles": "4",
    "avgtone": "-2.89855072463768",
    "sourceurl": "http://fortmyers.floridaweekly.com/news/2015-10-07/Top_News/She_fights_modernday_slavery.html",
    "feature_id": "282700",
    "feature_name": "Fort Myers",
    "state_alpha": "FL",
    "county_name": "Lee",
    "county_numeric": "071",
    "prim_lat_dec": "26.6406",
    "prim_long_dec": "-81.8723",
    "elev_in_m": "3",
    "elev_in_ft": "10",
    "lat": 26.6406,
    "long": -81.8723
  }
]