[
  {
    "globaleventid": "433296607",
    "sqldate": "20150514",
    "monthyear": "201505",
    "year": "2015",
    "fractiondate": "2015.3671",
    "eventcode": "173",
    "quadclass": "4",
    "nummentions": "47",
    "numsources": "18",
    "numarticles": "47",
    "avgtone": "-6.85793255108319",
    "sourceurl": "http://www.newser.com/article/ca9d6762a55a4213902b0c27cbc4fffc/before-emerging-as-suspect-in-serial-killings-drifter-left-trail-of-arrests-burned-bridges.html",
    "feature_id": "212042",
    "feature_name": "Wethersfield",
    "state_alpha": "CT",
    "county_name": "Hartford",
    "county_numeric": "003",
    "prim_lat_dec": "41.7143",
    "prim_long_dec": "-72.6526",
    "elev_in_m": "13",
    "elev_in_ft": "43",
    "lat": 41.7143,
    "long": -72.6526
  },
  {
    "globaleventid": "433296594",
    "sqldate": "20150514",
    "monthyear": "201505",
    "year": "2015",
    "fractiondate": "2015.3671",
    "eventcode": "172",
    "quadclass": "4",
    "nummentions": "1",
    "numsources": "1",
    "numarticles": "1",
    "avgtone": "4.57063711911357",
    "sourceurl": "http://www.huffingtonpost.com/zagat/the-best-brunches-in-14-c_b_7266458.html",
    "feature_id": "617565",
    "feature_name": "Boston",
    "state_alpha": "MA",
    "county_name": "Suffolk",
    "county_numeric": "025",
    "prim_lat_dec": "42.3584",
    "prim_long_dec": "-71.0598",
    "elev_in_m": "14",
    "elev_in_ft": "46",
    "lat": 42.3584,
    "long": -71.0598
  },
  {
    "globaleventid": "433296547",
    "sqldate": "20150514",
    "monthyear": "201505",
    "year": "2015",
    "fractiondate": "2015.3671",
    "eventcode": "100",
    "quadclass": "3",
    "nummentions": "3",
    "numsources": "1",
    "numarticles": "3",
    "avgtone": "-3.11630495269895",
    "sourceurl": "http://washington.cbslocal.com/2015/05/12/investigators-8th-body-found-amtrak-dearailment/",
    "feature_id": "531871",
    "feature_name": "Washington",
    "state_alpha": "DC",
    "county_name": "District of Columbia",
    "county_numeric": "001",
    "prim_lat_dec": "38.8951",
    "prim_long_dec": "-77.0364",
    "elev_in_m": "7",
    "elev_in_ft": "23",
    "lat": 38.8951,
    "long": -77.0364
  },
  {
    "globaleventid": "433296531",
    "sqldate": "20150514",
    "monthyear": "201505",
    "year": "2015",
    "fractiondate": "2015.3671",
    "eventcode": "130",
    "quadclass": "3",
    "nummentions": "2",
    "numsources": "1",
    "numarticles": "2",
    "avgtone": "-2.77821378119604",
    "sourceurl": "http://elderofziyon.blogspot.com/2015/05/0514-links-pt1-bts-report-isnt.html",
    "feature_id": "531871",
    "feature_name": "Washington",
    "state_alpha": "DC",
    "county_name": "District of Columbia",
    "county_numeric": "001",
    "prim_lat_dec": "38.8951",
    "prim_long_dec": "-77.0364",
    "elev_in_m": "7",
    "elev_in_ft": "23",
    "lat": 38.8951,
    "long": -77.0364
  },
  {
    "globaleventid": "433296529",
    "sqldate": "20150514",
    "monthyear": "201505",
    "year": "2015",
    "fractiondate": "2015.3671",
    "eventcode": "120",
    "quadclass": "3",
    "nummentions": "2",
    "numsources": "1",
    "numarticles": "2",
    "avgtone": "-4.12517780938834",
    "sourceurl": "http://www.phillyvoice.com/attorney-amtrak-engineer-no-recollection-crash/",
    "feature_id": "970495",
    "feature_name": "Port Richmond",
    "state_alpha": "NY",
    "county_name": "Richmond",
    "county_numeric": "085",
    "prim_lat_dec": "40.6332",
    "prim_long_dec": "-74.1365",
    "elev_in_m": "13",
    "elev_in_ft": "43",
    "lat": 40.6332,
    "long": -74.1365
  },
  {
    "globaleventid": "433296528",
    "sqldate": "20150514",
    "monthyear": "201505",
    "year": "2015",
    "fractiondate": "2015.3671",
    "eventcode": "120",
    "quadclass": "3",
    "nummentions": "2",
    "numsources": "1",
    "numarticles": "2",
    "avgtone": "-4.12517780938834",
    "sourceurl": "http://www.phillyvoice.com/attorney-amtrak-engineer-no-recollection-crash/",
    "feature_id": "970495",
    "feature_name": "Port Richmond",
    "state_alpha": "NY",
    "county_name": "Richmond",
    "county_numeric": "085",
    "prim_lat_dec": "40.6332",
    "prim_long_dec": "-74.1365",
    "elev_in_m": "13",
    "elev_in_ft": "43",
    "lat": 40.6332,
    "long": -74.1365
  },
  {
    "globaleventid": "433296195",
    "sqldate": "20150514",
    "monthyear": "201505",
    "year": "2015",
    "fractiondate": "2015.3671",
    "eventcode": "190",
    "quadclass": "4",
    "nummentions": "6",
    "numsources": "1",
    "numarticles": "6",
    "avgtone": "-3.66300366300366",
    "sourceurl": "http://www.businessinsider.com.au/big-question-in-osama-bin-laden-raid-2015-5",
    "feature_id": "531871",
    "feature_name": "Washington",
    "state_alpha": "DC",
    "county_name": "District of Columbia",
    "county_numeric": "001",
    "prim_lat_dec": "38.8951",
    "prim_long_dec": "-77.0364",
    "elev_in_m": "7",
    "elev_in_ft": "23",
    "lat": 38.8951,
    "long": -77.0364
  },
  {
    "globaleventid": "433296193",
    "sqldate": "20150514",
    "monthyear": "201505",
    "year": "2015",
    "fractiondate": "2015.3671",
    "eventcode": "190",
    "quadclass": "4",
    "nummentions": "2",
    "numsources": "1",
    "numarticles": "2",
    "avgtone": "-3.66300366300366",
    "sourceurl": "http://www.businessinsider.com.au/big-question-in-osama-bin-laden-raid-2015-5",
    "feature_id": "531871",
    "feature_name": "Washington",
    "state_alpha": "DC",
    "county_name": "District of Columbia",
    "county_numeric": "001",
    "prim_lat_dec": "38.8951",
    "prim_long_dec": "-77.0364",
    "elev_in_m": "7",
    "elev_in_ft": "23",
    "lat": 38.8951,
    "long": -77.0364
  },
  {
    "globaleventid": "433296109",
    "sqldate": "20150514",
    "monthyear": "201505",
    "year": "2015",
    "fractiondate": "2015.3671",
    "eventcode": "110",
    "quadclass": "3",
    "nummentions": "30",
    "numsources": "3",
    "numarticles": "30",
    "avgtone": "4.01037901021526",
    "sourceurl": "http://www.businesswire.com/news/home/20150514006080/en/Wells-Fargo-Lends-22.6-Billion-Small-Businesses",
    "feature_id": "277593",
    "feature_name": "San Francisco",
    "state_alpha": "CA",
    "county_name": "San Francisco",
    "county_numeric": "075",
    "prim_lat_dec": "37.775",
    "prim_long_dec": "-122.419",
    "elev_in_m": "16",
    "elev_in_ft": "52",
    "lat": 37.775,
    "long": -122.419
  },
  {
    "globaleventid": "433296074",
    "sqldate": "20150514",
    "monthyear": "201505",
    "year": "2015",
    "fractiondate": "2015.3671",
    "eventcode": "190",
    "quadclass": "4",
    "nummentions": "10",
    "numsources": "1",
    "numarticles": "10",
    "avgtone": "-2.80898876404495",
    "sourceurl": "http://www.wnd.com/2015/05/sheriffs-deputies-team-with-military-for-special-ops-exercises/",
    "feature_id": "1656027",
    "feature_name": "Fort Bragg",
    "state_alpha": "CA",
    "county_name": "Mendocino",
    "county_numeric": "045",
    "prim_lat_dec": "39.4457",
    "prim_long_dec": "-123.805",
    "elev_in_m": "26",
    "elev_in_ft": "85",
    "lat": 39.4457,
    "long": -123.805
  },
  {
    "globaleventid": "433296071",
    "sqldate": "20150514",
    "monthyear": "201505",
    "year": "2015",
    "fractiondate": "2015.3671",
    "eventcode": "110",
    "quadclass": "3",
    "nummentions": "5",
    "numsources": "1",
    "numarticles": "5",
    "avgtone": "-2.01729106628242",
    "sourceurl": "http://theweek.com/speedreads/555087/army-chief-burundis-coup-attempt-failed",
    "feature_id": "531871",
    "feature_name": "Washington",
    "state_alpha": "DC",
    "county_name": "District of Columbia",
    "county_numeric": "001",
    "prim_lat_dec": "38.8951",
    "prim_long_dec": "-77.0364",
    "elev_in_m": "7",
    "elev_in_ft": "23",
    "lat": 38.8951,
    "long": -77.0364
  }
]